     2.11           OBSERVATION DATA    G (GPS)             RINEX VERSION / TYPE
teqc  2013May1      CORS-ADM Account    20131028 00:47:28UTCPGM / RUN BY / DATE
Solaris x86 5.10|AMD64|cc SC5.8 -xarch=amd64|=+|=+          COMMENT
teqc  2013May1      CORS-ADM Account    20131028 00:47:04UTCCOMMENT
teqc  2013May1      NOAA/NOS/NGS/CORS   20131027 01:18:57UTCCOMMENT
teqc  2013May1      NOAA/NOS/NGS/CORS   20131027 01:18:53UTCCOMMENT
SPIDER V3,2,6,3240  MIDOT               2013 10 27 01:01    COMMENT
BIT 2 OF LLI FLAGS DATA COLLECTED UNDER A/S CONDITION       COMMENT
SNR is mapped to RINEX snr flag value [2-9]                 COMMENT
Lx:     = 25dBHz -> 1; 26-27dBHz -> 2; 28-31dBHz -> 3       COMMENT
       32-35dBHz -> 4; 36-38dBHz -> 5; 39-41dBHz -> 6       COMMENT
       42-44dBHz -> 7; 45-48dBHz -> 8; >=49dBHz -> 9        COMMENT
AVCA                                                        MARKER NAME
AVCA                                                        MARKER NUMBER
Shawn Roy           MIDT                                    OBSERVER / AGENCY
458983              LEICA GRX1200PRO    7.53/2.127          REC # / TYPE / VERS
1051                LEIAT504        LEIS                    ANT # / TYPE
   594062.8070 -4629523.8410  4332585.4430                  APPROX POSITION XYZ
        0.0000        0.0000        0.0000                  ANTENNA: DELTA H/E/N
     1     1                                                WAVELENGTH FACT L1/2
     6    C1    L1    S1    P2    L2    S2                  # / TYPES OF OBSERV
    30.0000                                                 INTERVAL
teqc windowed: start @ 2013 Oct 27 00:00:00.000             COMMENT
teqc windowed: delta = 3600.000 sec                         COMMENT
teqc edited: all SBAS satellites excluded                   COMMENT
teqc edited: all Galileo satellites excluded                COMMENT
teqc edited: all Compass satellites excluded                COMMENT
teqc edited: all QZSS satellites excluded                   COMMENT
teqc edited: all GLONASS satellites excluded                COMMENT
Forced Modulo Decimation to 30 seconds                      COMMENT
  2013    10    27     0     0    0.0000000     GPS         TIME OF FIRST OBS
                                                            END OF HEADER
 13 10 27  0  0  0.0000000  0 10G03G06G14G15G18G21G22G24G26G27
  24129206.020   126799856.263 6        40.500    24129210.680    98805106.29044
        35.500
  23815403.600   125150866.499 6        41.000    23815407.020    97520204.98745
        36.000
  24804073.600   130346292.744 5        36.500    24804079.100   101568567.09543
        29.250
  20985932.160   110281990.643 9        49.500    20985932.720    85934113.92748
        48.750
  20904126.800   109852074.914 9        49.250    20904126.820    85599092.57848
        47.750
  20575834.680   108126744.943 8        47.500    20575834.520    84254605.77649
        49.000
  22792066.700   119773189.320 8        45.250    22792066.260    93329795.29146
        41.500
  21979435.740   115502794.175 8        45.750    21979439.680    90002232.74648
        45.000
  23735804.700   124732640.941 6        41.750    23735807.080    97194351.16044
        35.250
  23786300.340   124997912.202 6        41.500    23786305.320    97401026.73046
        40.250
 13 10 27  0  0 30.0000000  0 10G03G06G14G15G18G21G22G24G26G27
  24127523.980   126791017.230 6        40.500    24127528.620    98798218.80845
        36.750
  23817711.600   125162995.208 6        40.750    23817715.000    97529655.96145
        37.000
  24784778.800   130244898.588 4        34.750    24784784.220   101489559.07544
        35.000
  20997310.000   110341781.525 9        49.500    20997310.560    85980704.23448
        48.500
  20897437.300   109816921.589 9        49.250    20897437.300    85571700.40548
        48.000
  20576602.520   108130779.941 8        47.500    20576602.360    84257749.93649
        49.000
  22777758.280   119697998.612 8        45.750    22777757.880    93271205.21547
        42.250
  21966642.820   115435567.518 8        45.500    21966646.760    89949848.39548
        45.250
  23757927.600   124848897.187 6        40.500    23757929.940    97284940.42644
        34.750
  23783578.440   124983608.915 6        41.500    23783583.460    97389881.37146
        41.500
 13 10 27  0  1  0.0000000  0 10G03G06G14G15G18G21G22G24G26G27
  24125954.740   126782770.928 6        40.750    24125959.360    98791793.20245
        37.000
  23820117.220   125175637.107 6        41.250    23820120.540    97539506.80245
        36.750
  24765507.600   130143629.488 5        36.750    24765513.220   101410648.49544
        32.500
  21008756.300   110401932.219 9        49.500    21008756.840    86027574.91348
        48.750
  20890789.340   109781986.465 9        49.250    20890789.340    85544478.25748
        48.250
  20577471.180   108135344.656 8        47.500    20577471.000    84261306.86549
        49.000
  22763470.860   119622918.018 8        45.750    22763470.480    93212700.94247
        42.000
  21953936.000   115368793.687 8        45.500    21953940.080    89897816.89648
        45.250
  23780071.500   124965263.836 6        40.500    23780073.820    97375615.73944
        32.000
  23780965.000   124969875.355 6        41.250    23780969.900    97379179.97046
        39.750
 13 10 27  0  1 30.0000000  0 10G03G06G14G15G18G21G22G24G26G27
  24124496.720   126775108.892 6        40.250    24124501.300    98785822.82345
        37.000
  23822618.660   125188782.747 6        40.500    23822621.940    97549750.16445
        37.500
  24746258.900   130042478.618 5        36.750    24746264.740   101331830.02543
        30.750
  21020269.120   110462432.384 9        49.500    21020269.640    86074717.90348
        48.750
  20884181.440   109747261.879 9        49.250    20884181.440    85517420.17148
        48.250
  20578439.060   108140430.979 8        47.750    20578438.900    84265270.24049
        49.000
  22749202.860   119547939.760 8        45.750    22749202.440    93154276.41446
        41.500
  21941314.180   115302466.592 8        46.000    21941318.420    89846133.50948
        45.750
  23802234.360   125081730.036 6        39.500    23802236.540    97466368.65543
        29.500
  23778458.420   124956703.267 7        42.250    23778463.200    97368916.03846
        39.500
 13 10 27  0  2  0.0000000  0 10G03G06G14G15G18G21G22G24G26G27
  24123150.320   126768033.804 6        40.750    24123154.940    98780309.85445
        36.000
  23825216.340   125202434.138 6        40.750    23825219.640    97560387.64545
        36.750
  24727033.440   129941450.198 5        37.000    24727039.440   101253106.92544
        33.250
  21031848.620   110523283.164 9        49.250    21031849.160    86122134.09948
        48.250
  20877614.320   109712751.499 9        49.500    20877614.300    85490528.99248
        48.000
  20579507.000   108146043.039 8        47.750    20579506.840    84269643.28049
        49.000
  22734955.040   119473067.363 8        46.000    22734954.620    93095934.38247
        42.250
  21928778.560   115236592.168 8        46.250    21928782.940    89794802.84248
        45.750
  23824416.280   125198296.473 6        40.250    23824418.300    97557199.66044
        34.500
  23776059.340   124944095.849 6        41.750    23776064.020    97359092.11845
        38.500
 13 10 27  0  2 30.0000000  0 10G03G06G14G15G18G21G22G24G26G27
  24121915.300   126761543.935 6        41.000    24121919.860    98775252.87244
        33.750
  23827909.860   125216588.813 6        41.000    23827913.260    97571417.28445
        37.000
  24707831.300   129840543.914 5        37.000    24707837.260   101174478.98543
        29.500
  21043494.060   110584480.616 9        49.250    21043494.620    86169820.43048
        48.250
  20871087.760   109678454.194 9        49.500    20871087.720    85463803.84948
        48.250
  20580674.780   108152179.875 8        47.500    20580674.620    84274425.24048
        48.750
  22720727.260   119398299.906 8        46.000    22720726.760    93037674.12347
        42.750
  21916329.340   115171171.207 8        46.500    21916333.740    89743825.52148
        45.750
  23846616.440   125314958.915 6        39.000    23846618.480    97648105.45044
        33.500
  23773767.380   124932051.478 6        41.750    23773772.040    97349706.94145
        38.000
 13 10 27  0  3  0.0000000  0 10G03G06G14G15G18G21G22G24G26G27
  24120791.860   126755640.339 6        41.000    24120796.340    98770652.71245
        36.250
  23830699.160   125231246.568 6        41.250    23830702.640    97582838.91145
        37.000
  24688652.940   129739762.436 5        36.000    24688658.680   101095948.24645
        36.000
  21055205.280   110646023.940 9        49.250    21055205.880    86217776.26648
        48.250
  20864602.180   109644372.247 9        49.250    20864602.120    85437246.51248
        48.250
  20581942.700   108158842.900 8        47.500    20581942.560    84279617.21149
        49.250
  22706519.880   119323639.620 8        46.250    22706519.320    92979497.37547
        42.250
  21903967.320   115106207.875 8        47.000    21903971.580    89693204.79448
        45.750
  23868834.640   125431716.249 6        39.500    23868836.760    97739085.16145
        37.250
  23771582.720   124920571.380 6        41.250    23771587.440    97340761.46046
        39.750
 13 10 27  0  3 30.0000000  0 10G03G06G14G15G18G21G22G24G26G27
  24119780.100   126750323.615 6        39.750    24119784.540    98766509.89045
        36.500
  23833584.220   125246407.610 6        40.500    23833587.680    97594652.72346
        39.000
  24669498.800   129639108.223 5        37.750    24669504.320   101017516.72545
        37.000
  21066982.100   110707911.998 9        49.250    21066982.800    86266000.73248
        48.250
  20858158.000   109610507.695 9        49.250    20858157.900    85410858.58248
        48.250
  20583311.080   108166033.867 8        47.500    20583310.980    84285220.57249
        49.000
  22692333.140   119249087.880 8        46.000    22692332.600    92921405.22647
        42.500
  21891693.000   115041705.071 8        46.750    21891697.060    89642942.91248
        45.500
  23891070.700   125548566.992 6        40.750    23891072.840    97830137.68144
        35.500
  23769505.640   124909656.687 7        42.000    23769510.400    97332256.56445
        38.500
 13 10 27  0  4  0.0000000  0 11G03G06G14G15G18G19G21G22G24G26G27
  24118879.880   126745593.318 6        40.250    24118884.260    98762824.02344
        34.500
  23836564.760   125262070.520 6        40.750    23836568.280    97606857.60545
        36.500
  24650369.200   129538582.408 5        37.000    24650374.440   100939185.17743
        30.750
  21078824.080   110770142.328 9        49.250    21078824.820    86314491.89848
        48.500
  20851755.020   109576859.968 9        49.000    20851754.920    85384639.60048
        48.250
  25328388.700   133101582.885 3        31.750

  20584779.980   108173752.972 8        47.500    20584779.900    84291235.46249
        49.000
  22678167.060   119174644.916 8        46.250    22678166.500    92863397.81647
        42.500
  21879506.740   114977665.118 8        46.000    21879510.560    89593041.68848
        45.750
  23913324.020   125665508.282 6        40.500    23913326.080    97921260.79544
        33.000
  23767536.160   124899306.982 7        42.000    23767540.900    97324191.89546
        39.000
 13 10 27  0  4 30.0000000  0 11G03G06G14G15G18G19G21G22G24G26G27
  24118090.780   126741446.882 6        40.500    24118095.060    98759593.09144
        35.500
  23839640.180   125278232.153 6        41.000    23839643.600    97619451.09045
        37.250
  24631263.940   129438184.451 5        37.000    24631269.020   100860953.24044
        32.750
  21090730.520   110832711.058 9        49.500    21090731.240    86363246.75948
        48.250
  20845393.160   109543428.549 9        49.000    20845393.120    85358589.17748
        48.250
  25316543.700   133039335.019 4        33.000    25316546.200   103667024.29244
        35.500
  20586349.100   108181998.846 8        47.750    20586349.040    84297660.82648
        48.750
  22664021.520   119100309.730 8        46.250    22664020.880    92805474.39747
        42.750
  21867408.600   114914088.973 8        45.500    21867412.280    89543501.87047
        44.750
  23935593.760   125782535.906 6        39.750    23935595.460    98012451.21944
        34.250
  23765673.800   124889520.321 6        41.000    23765678.440    97316565.99146
        39.250
 13 10 27  0  5  0.0000000  0 11G03G06G14G15G18G19G21G22G24G26G27
  24117413.460   126737887.573 6        40.000    24117417.540    98756819.63644
        35.750
  23842810.980   125294894.795 6        41.000    23842814.400    97632434.96944
        35.000
  24612183.900   129337918.781 5        36.750    24612188.600   100782824.34844
        32.000
  21102701.680   110895619.577 9        49.500    21102702.360    86412266.39048
        48.250
  20839073.140   109510217.098 9        49.250    20839073.160    85332710.15148
        48.250
  25304784.120   132977535.976 4        32.750    25304787.260   103618869.15441
        25.500
  20588019.200   108190775.265 8        47.750    20588019.120    84304499.59649
        49.000
  22649897.200   119026086.256 8        46.000    22649896.520    92747638.02247
        42.250
  21855399.620   114850981.985 8        45.750    21855403.300    89494327.65348
        45.500
  23957880.020   125899650.662 6        39.250    23957881.540    98103709.47245
        36.000
  23763919.100   124880300.028 6        41.750    23763923.700    97309381.36845
        37.500
 13 10 27  0  5 30.0000000  0 11G03G06G14G15G18G19G21G22G24G26G27
  24116847.480   126734913.457 6        39.500    24116851.500    98754502.20544
        35.000
  23846076.660   125312055.781 6        41.250    23846080.000    97645807.18445
        36.000
  24593129.020   129237785.565 5        37.500    24593133.620   100704798.75244
        32.000
  21114736.800   110958864.126 9        49.500    21114737.380    86461547.86048
        48.250
  20832794.920   109477225.037 9        49.500    20832794.940    85307002.07448
        48.250
  25293109.040   132916183.305 4        35.250    25293111.500   103571062.05944
        32.000
  20589790.120   108200081.520 8        47.500    20589790.040    84311751.22849
        49.000
  22635793.960   118951973.797 8        46.000    22635793.180    92689888.15047
        42.500
  21843480.120   114788345.578 8        46.000    21843483.880    89445520.11448
        45.250
  23980182.080   126016849.017 5        38.500    23980183.500    98195032.82943
        30.500
  23762271.940   124871644.530 6        41.750    23762276.480    97302636.85446
        39.250
 13 10 27  0  6  0.0000000  0 11G03G06G14G15G18G19G21G22G24G26G27
  24116392.300   126732521.635 6        39.750    24116396.300    98752638.52743
        31.250
  23849436.520   125329711.678 6        41.500    23849439.800    97659565.03044
        35.750
  24574099.240   129137784.079 5        38.000    24574103.780   100626875.74543
        31.000
  21126835.000   111022440.068 9        49.250    21126835.480    86511087.55548
        48.250
  20826558.180   109444450.797 9        49.250    20826558.160    85281463.73148
        48.500
  25281518.780   132855276.509 4        35.500    25281520.980   103523602.25642
        26.500
  20591661.400   108209915.107 8        47.500    20591661.320    84319413.77049
        49.000
  22621711.500   118877970.591 8        46.000    22621710.660    92632223.41047
        42.250
  21831650.120   114726179.599 8        46.000    21831654.000    89397079.15548
        45.500
  24002498.980   126134125.749 6        40.500    24002500.400    98286417.36943
        29.000
  23760731.900   124863551.360 7        42.000    23760736.380    97296330.54245
        37.750
 13 10 27  0  6 30.0000000  0 10G03G06G14G15G18G21G22G24G26G27
  24116048.480   126730715.666 6        39.750    24116052.540    98751231.32645
        36.500
  23852891.020   125347864.862 6        40.750    23852894.280    97673710.39745
        36.250
  24555095.420   129037918.891 5        38.000    24555099.940   100549058.97943
        31.500
  21138996.500   111086349.181 9        49.250    21138997.000    86560886.86548
        48.250
  20820363.720   109411898.658 9        49.250    20820363.640    85256098.44948
        48.500
  20593633.980   108220280.991 8        47.500    20593633.880    84327491.08548
        48.750
  22607650.680   118804081.006 8        46.250    22607649.780    92574647.20447
        42.000
  21819910.820   114664489.957 8        46.250    21819914.800    89349009.35148
        46.250
  24024831.060   126251482.457 5        38.250    24024832.520    98377864.16745
        36.250
  23759299.560   124856024.048 6        41.500    23759303.940    97290465.12845
        36.500
 13 10 27  0  7  0.0000000  0 11G03G06G14G15G18G19G21G22G24G26G27
  24115815.460   126729491.892 6        40.000    24115819.600    98750277.78744
        34.250
  23856439.180   125366511.089 6        40.500    23856442.520    97688239.89844
        35.250
  24536117.240   128938188.520 5        37.500    24536121.760   100471347.26444
        33.250
  21151220.360   111150586.149 9        49.250    21151220.920    86610941.65148
        48.250
  20814211.120   109379566.398 9        49.250    20814211.000    85230904.51148
        48.500
  25258595.860   132734813.515 4        35.750    25258597.620   103429736.61644
        33.000
  20595707.200   108231175.806 8        47.750    20595707.100    84335980.55248
        48.750
  22593611.100   118730302.896 8        46.000    22593610.100    92517157.85647
        42.250
  21808262.220   114603276.430 8        46.750    21808266.300    89301310.54248
        46.500
  24047177.240   126368913.658 6        39.500    24047178.940    98469369.03244
        34.250
  23757974.140   124849059.475 6        41.750    23757978.620    97285038.22745
        37.250
 13 10 27  0  7 30.0000000  0 11G03G06G14G15G18G19G21G22G24G26G27
  24115693.560   126728851.684 6        39.500    24115697.760    98749778.99344
        34.500
  23860081.300   125385651.003 6        40.750    23860084.580    97703154.14545
        36.500
  24517165.180   128838595.821 5        37.750    24517169.660   100393742.80543
        28.750
  21163506.580   111215150.915 9        49.000    21163507.220    86661251.85648
        48.250
  20808100.860   109347456.678 9        49.250    20808100.720    85205883.97948
        48.750
  25247263.480   132675262.946 5        36.500    25247265.620   103383333.71143
        31.500
  20597881.560   108242602.103 8        47.750    20597881.440    84344884.16449
        49.000
  22579593.140   118656638.565 8        46.750    22579592.140    92459757.15947
        42.250
  21796705.180   114542543.430 8        47.250    21796709.260    89253986.17848
        46.250
  24069537.540   126486418.934 5        38.250    24069539.580    98560931.59944
        34.750
  23756756.080   124842659.181 6        41.750    23756760.580    97280051.01845
        37.750
 13 10 27  0  8  0.0000000  0 11G03G06G14G15G18G19G21G22G24G26G27
  24115682.260   126728792.786 6        40.000    24115686.520    98749733.15944
        33.000
  23863816.820   125405281.611 6        41.500    23863820.160    97718450.72945
        36.250
  24498239.220   128739140.589 5        38.000    24498243.700   100316245.49444
        32.000
  21175854.440   111280039.757 9        49.250    21175855.160    86711814.59048
        48.250
  20802032.740   109315568.443 9        49.250    20802032.620    85181036.03248
        48.750
  25236017.700   132616166.935 5        37.000    25236019.940   103337284.94243
        31.500
  20600156.800   108254558.336 8        47.750    20600156.620    84354200.70749
        49.000
  22565596.700   118583087.131 8        46.500    22565595.620    92402444.43147
        42.500
  21785239.740   114482291.282 8        47.000    21785243.700    89207036.50648
        46.250
  24091911.160   126603994.180 5        37.750    24091913.480    98652548.61444
        35.500
  23755645.160   124836821.349 7        42.000    23755649.640    97275502.08045
        38.500
 13 10 27  0  8 30.0000000  0 11G03G06G14G15G18G19G21G22G24G26G27
  24115781.880   126729316.206 6        40.000    24115786.020    98750141.04844
        35.000
  23867645.860   125425403.394 6        40.750    23867649.280    97734130.06544
        34.500
  24479339.920   128639826.165 5        36.750    24479344.460   100238857.89144
        33.000
  21188263.920   111345252.099 9        49.250    21188264.680    86762629.41048
        48.000
  20796007.200   109283904.071 9        49.250    20796007.100    85156362.52448
        48.750
  25224859.180   132557529.097 5        36.750    25224861.300   103291593.29145
        37.250
  20602533.280   108267046.668 8        47.750    20602533.060    84363931.88548
        48.750
  22551622.220   118509651.140 8        46.500    22551621.180    92345221.66147
        42.750
  21773866.600   114422524.098 8        47.000    21773870.380    89160464.71948
        46.000
  24114298.100   126721638.756 5        38.750    24114300.720    98744219.72144
        35.000
  23754641.580   124831547.477 6        41.500    23754645.940    97271392.59245
        38.000
 13 10 27  0  9  0.0000000  0 11G03G06G14G15G18G19G21G22G24G26G27
  24115992.180   126730421.174 6        39.750    24115996.160    98751002.09144
        35.750
  23871568.060   125446014.741 6        40.500    23871571.540    97750190.86945
        37.250
  24460467.520   128540653.204 5        37.750    24460472.040   100161580.50544
        32.500
  21200734.540   111410785.575 9        49.250    21200735.260    86813694.46348
        47.750
  20790024.300   109252463.817 9        49.250    20790024.200    85131863.64948
        48.500
  25213788.140   132499350.728 5        37.750    25213790.300   103246259.58144
        33.500
  20605011.020   108280067.167 8        47.750    20605010.800    84374077.73049
        49.000
  22537669.780   118436330.773 8        46.250    22537668.760    92288088.98547
        43.750
  21762585.980   114363243.499 8        46.500    21762589.620    89114272.10148
        46.000
  24136697.820   126839349.969 5        37.750    24136700.540    98835942.80743
        31.500
  23753745.200   124826836.863 6        41.250    23753749.560    97267722.03145
        38.500
 13 10 27  0  9 30.0000000  0 11G03G06G14G15G18G19G21G22G24G26G27
  24116312.540   126732104.937 6        39.500    24116316.520    98752314.15142
        27.750
  23875582.700   125467112.321 6        41.000    23875586.260    97766630.54044
        34.750
  24441622.040   128441621.030 5        36.500    24441626.440   100084412.80944
        32.000
  21213265.460   111476636.091 9        49.250    21213266.140    86865006.54548
        48.000
  20784083.800   109221246.397 9        49.000    20784083.660    85107538.41648
        48.750
  25202804.520   132441631.870 5        38.500    25202806.600   103201283.96244
        35.500
  20607589.700   108293618.250 8        47.750    20607589.500    84384637.01648
        48.750
  22523739.060   118363124.779 8        46.500    22523738.120    92231045.42547
        43.000
  21751397.900   114304450.049 8        46.250    21751401.540    89068459.06648
        46.250
  24159109.400   126957123.593 5        38.250    24159112.100    98927714.53043
        28.750
  23752955.500   124822687.238 6        41.500    23752959.960    97264488.58345
        38.750
 13 10 27  0 10  0.0000000  0 11G03G06G14G15G18G19G21G22G24G26G27
  24116743.120   126734368.294 6        39.500    24116747.160    98754077.86144
        32.000
  23879689.840   125488695.721 6        40.750    23879693.440    97783448.82545
        37.500
  24422803.960   128342732.062 5        36.750    24422808.300   100007356.69744
        32.250
  21225856.560   111542802.734 9        49.000    21225857.240    86916564.97048
        48.000
  20778186.160   109190254.229 9        49.000    20778186.000    85083388.70348
        48.500
  25191908.920   132384375.432 5        37.750    25191911.040   103156668.67844
        33.250
  20610269.600   108307701.338 8        47.750    20610269.440    84395610.85948
        48.750
  22509830.500   118290035.191 8        46.500    22509829.640    92174092.57347
        43.000
  21740303.200   114246147.937 8        46.500    21740306.900    89023028.88648
        45.750
  24181532.700   127074958.276 6        40.500    24181535.180    99019533.82544
        34.750
  23752272.800   124819099.412 6        41.750    23752277.260    97261692.89345
        38.750
 13 10 27  0 10 30.0000000  0 11G03G06G14G15G18G19G21G22G24G26G27
  24117284.220   126737212.427 6        39.750    24117288.400    98756294.10744
        34.000
  23883889.520   125510765.599 6        41.500    23883893.160    97800646.14244
        33.750
  24404013.800   128243989.746 4        35.000    24404018.160    99930414.91544
        34.250
  21238507.680   111609285.047 9        49.000    21238508.380    86968369.36848
        47.750
  20772331.740   109159489.383 9        49.000    20772331.580    85059416.12248
        48.250
  25181101.900   132327584.931 5        37.750    25181104.080   103112416.41144
        35.750
  20613051.080   108322318.183 8        47.750    20613050.920    84407000.61049
        49.000
  22495944.580   118217064.402 8        46.750    22495943.700    92117232.28147
        43.250
  21729302.580   114188340.135 8        46.500    21729306.340    88977983.90148
        45.750
  24203967.640   127192853.604 6        40.750    24203969.920    99111400.34944
        35.000
  23751697.280   124816074.874 6        41.500    23751701.600    97259336.13945
        37.750
 13 10 27  0 11  0.0000000  0 11G03G06G14G15G18G19G21G22G24G26G27
  24117935.620   126740635.670 6        40.000    24117939.720    98758961.62944
        34.250
  23888181.500   125533320.069 6        40.750    23888185.100    97818221.03845
        37.250
  24385251.500   128145394.413 5        38.000    24385256.080    99853587.57544
        32.500
  21251218.420   111676080.513 9        49.000    21251219.100    87020417.78548
        48.250
  20766520.620   109128952.170 9        49.000    20766520.480    85035620.92448
        48.750
  25170383.780   132271262.125 5        38.500    25170386.220   103068528.59944
        35.000
  20615934.180   108337469.123 8        47.750    20615934.040    84418806.53748
        48.750
  22482081.340   118144212.931 8        46.750    22482080.400    92060464.95947
        42.500
  21718396.500   114131029.099 8        46.750    21718400.320    88933326.00248
        46.000
  24226413.540   127310806.893 5        38.500    24226415.660    99203312.01344
        35.750
  23751228.780   124813612.871 6        41.500    23751233.040    97257417.73045
        38.500
 13 10 27  0 11 30.0000000  0 11G03G06G14G15G18G19G21G22G24G26G27
  24118696.720   126744635.233 6        40.750    24118700.780    98762078.19844
        33.500
  23892564.960   125556355.220 6        40.500    23892568.500    97836170.51745
        37.500
  24366517.180   128046945.314 5        37.750    24366521.600    99776874.10743
        31.000
  21263987.860   111743184.397 9        49.000    21263988.580    87072706.52548
        48.000
  20760752.520   109098640.868 9        49.000    20760752.360    85012001.75848
        48.750
  25159754.620   132215406.030 5        37.500    25159757.200   103025004.48844
        33.250
  20618918.420   108353151.428 8        47.750    20618918.260    84431026.52048
        48.500
  22468240.460   118071478.868 8        46.500    22468239.460    92003789.13947
        43.250
  21707584.900   114074214.262 8        46.750    21707588.720    88889054.74548
        46.000
  24248869.500   127428813.391 5        36.000    24248871.560    99295265.14043
        29.500
  23750866.700   124811710.401 6        41.000    23750871.080    97255935.30246
        40.250
 13 10 27  0 12  0.0000000  0 11G03G06G14G15G18G19G21G22G24G26G27
  24119568.160   126749214.216 6        39.750    24119572.020    98765646.31744
        33.250
  23897040.380   125579873.585 6        39.500    23897043.880    97854496.53145
        37.750
  24347811.620   127948647.343 5        37.750    24347815.620    99700278.39841
        25.000
  21276816.400   111810598.940 9        49.250    21276817.140    87125237.34648
        47.750
  20755028.300   109068560.025 9        49.250    20755028.100    84988562.16148
        48.500
  25149215.280   132160022.612 6        39.000    25149217.920   102981848.64744
        35.750
  20622004.600   108369369.382 8        47.750    20622004.420    84443663.89048
        48.750
  22454422.720   117998866.685 8        46.500    22454421.720    91947208.27047
        43.000
  21696868.940   114017901.982 8        46.750    21696872.760    88845175.08648
        46.250
  24271335.760   127546874.915 4        34.750    24271337.880    99387261.13145
        38.000
  23750611.780   124810371.121 6        40.750    23750616.160    97254891.72645
        38.500
 13 10 27  0 12 30.0000000  0 11G03G06G14G15G18G19G21G22G24G26G27
  24120548.640   126754366.658 5        38.500    24120552.380    98769661.23943
        29.000
  23901606.440   125603868.600 6        40.000    23901609.960    97873193.96844
        35.500
  24329134.060   127850496.736 5        38.500    24329137.680    99623797.49543
        31.500
  21289702.660   111878316.488 9        49.000    21289703.320    87178004.27348
        48.000
  20749347.140   109038705.280 9        49.000    20749346.900    84965298.75248
        48.750
  25138765.380   132105108.159 6        39.000    25138767.960   102939058.26745
        37.000
  20625191.760   108386117.900 8        47.750    20625191.560    84456714.68448
        48.750
  22440627.420   117926372.175 8        46.500    22440626.420    91890719.10647
        43.000
  21686248.140   113962089.446 8        46.750    21686251.940    88801684.84948
        46.500
  24293810.900   127664983.708 5        38.250    24293813.100    99479294.00044
        34.750
  23750462.940   124809589.290 6        41.000    23750467.320    97254282.54246
        39.000
 13 10 27  0 13  0.0000000  0 11G03G06G14G15G18G19G21G22G24G26G27
  24121638.880   126760095.842 5        38.250    24121642.440    98774125.56544
        33.000
  23906263.660   125628342.721 6        40.750    23906267.180    97892264.68645
        38.000
  24310485.580   127752498.457 5        38.250    24310488.960    99547435.35344
        34.750
  21302646.940   111946339.196 9        49.250    21302647.620    87231008.97548
        47.750
  20743709.960   109009081.820 9        49.250    20743709.740    84942215.57249
        49.000
  25128405.920   132050668.559 6        39.250    25128408.440   102896637.88144
        34.750
  20628480.660   108403401.259 8        47.750    20628480.460    84470182.24148
        48.750
  22426855.380   117853999.908 8        47.000    22426854.320    91834325.18747
        42.250
  21675723.600   113906782.639 8        46.750    21675727.380    88758588.67948
        46.750
  24316295.560   127783141.730 6        40.000    24316297.660    99571365.27844
        33.500
  23750420.860   124809368.571 6        41.000    23750425.260    97254110.57945
        38.500
 13 10 27  0 13 30.0000000  0 11G03G06G14G15G18G19G21G22G24G26G27
  24122838.240   126766398.802 6        39.750    24122841.940    98779037.06744
        33.000
  23911011.440   125653292.116 6        41.250    23911014.760    97911705.78545
        36.750
  24291865.920   127654651.585 5        37.500    24291869.280    99471191.13644
        35.500
  21315648.440   112014662.430 9        49.500    21315649.140    87284247.86048
        47.500
  20738116.440   108979687.724 9        49.000    20738116.260    84919311.10849
        49.000
  25118136.600   131996703.010 6        39.750    25118139.020   102854586.87944
        35.500
  20631870.940   108421217.335 8        47.500    20631870.740    84484064.90148
        48.500
  22413106.440   117781748.646 8        46.750    22413105.280    91778025.56347
        43.500
  21665295.340   113851981.634 8        47.000    21665299.080    88715886.65248
        46.750
  24338788.820   127901344.378 6        39.250    24338790.800    99663471.27044
        33.750
  23750485.080   124809706.099 7        42.000    23750489.440    97254373.61545
        37.750
 13 10 27  0 14  0.0000000  0 11G03G06G14G15G18G19G21G22G24G26G27
  24124147.160   126773277.483 6        40.000    24124150.980    98784397.17743
        31.750
  23915850.040   125678718.216 6        41.500    23915853.080    97931518.34145
        36.000
  24273275.880   127556960.694 5        38.500    24273279.380    99395068.52444
        35.250
  21328707.300   112083287.039 9        49.000    21328707.940    87337721.58248
        47.500
  20732567.240   108950526.600 9        49.000    20732567.100    84896588.17848
        48.750
  25107958.440   131943216.226 6        39.500    25107960.740   102812909.01445
        37.750
  20635363.120   108439569.183 8        47.750    20635362.960    84498365.04248
        48.250
  22399381.180   117709621.947 8        46.500    22399379.940    91721823.00647
        43.500
  21654964.300   113797691.513 8        47.000    21654967.960    88673582.70148
        46.250
  24361290.700   128019592.327 5        36.250    24361292.700    99755612.55143
        30.750
  23750656.040   124810604.224 6        41.000    23750660.280    97255073.48144
        35.750
 13 10 27  0 14 30.0000000  0 11G03G06G14G15G18G19G21G22G24G26G27
  24125565.220   126780729.683 5        38.750    24125569.060    98790204.14745
        36.000
  23920778.820   125704618.324 6        41.500    23920781.700    97951700.25544
        34.750
  24254715.500   127459425.859 5        37.250    24254719.160    99319067.52144
        34.500
  21341822.880   112152209.804 9        49.250    21341823.540    87391427.63448
        47.750
  20727062.340   108921598.294 9        49.000    20727062.220    84874046.66448
        48.750
  25097871.440   131890209.067 6        40.000    25097873.720   102771604.84645
        36.500
  20638957.080   108458455.775 8        47.750    20638956.940    84513081.86148
        48.250
  22385679.500   117637619.238 8        46.750    22385678.200    91665717.05447
        43.750
  21644730.600   113743912.886 8        47.000    21644734.140    88631677.32048
        46.500
  24383800.360   128137882.311 5        37.000    24383802.620    99847786.52643
        28.750
  23750933.200   124812061.256 6        41.250    23750937.500    97256208.82545
        37.000
 13 10 27  0 15  0.0000000  0 11G03G06G14G15G18G19G21G22G24G26G27
  24127091.900   126788753.093 5        38.000    24127095.680    98796456.19941
        16.000
  23925797.180   125730989.476 6        41.000    23925800.000    97972249.21944
        34.500
  24236184.620   127362046.386 5        38.500    24236188.460    99243187.52744
        33.500
  21354994.600   112221427.278 9        49.000    21354995.240    87445363.34548
        47.500
  20721601.560   108892901.959 9        49.000    20721601.460    84851685.90849
        49.000
  25087875.780   131837681.719 5        38.750    25087878.000   102730674.61545
        37.250
  20642652.500   108477875.428 8        47.750    20642652.380    84528214.06448
        48.750
  22372001.280   117565739.953 8        47.000    22371999.980    91609707.28247
        43.500
  21634594.340   113690646.459 8        46.750    21634597.760    88590171.06748
        46.250
  24406317.360   128256210.514 5        38.250    24406319.760    99939990.31341
        13.750
  23751316.380   124814075.188 6        41.000    23751320.660    97257778.13745
        38.000
 13 10 27  0 15 30.0000000  0 11G03G06G14G15G18G19G21G22G24G26G27
  24128727.120   126797346.697 5        38.750    24128730.800    98803152.55944
        32.500
  23930904.760   125757829.854 6        41.000    23930907.480    97993163.79345
        37.000
  24217683.620   127264823.706 5        38.000    24217687.760    99167429.73445
        37.000
  21368221.920   112290937.199 9        49.000    21368222.520    87499526.91748
        47.500
  20716185.020   108864437.934 9        49.250    20716184.880    84829506.17049
        49.000
  25077971.580   131785635.367 5        38.750    25077973.780   102690119.15945
        37.000
  20646449.340   108497828.083 8        48.000    20646449.240    84543761.58848
        48.250
  22358346.660   117493984.641 8        47.000    22358345.360    91553794.10847
        43.500
  21624555.820   113637894.151 8        46.750    21624559.280    88549065.42348
        46.750
  24428841.360   128374574.631 6        39.250    24428843.600   100032222.16041
        24.000
  23751805.380   124816645.179 6        41.250    23751809.680    97259780.73945
        38.000
 13 10 27  0 16  0.0000000  0 11G03G06G14G15G18G19G21G22G24G26G27
  24130470.880   126806510.504 5        38.000    24130474.300    98810293.22944
        33.500
  23936101.540   125785139.125 6        41.000    23936104.280    98014443.74045
        37.000
  24199213.020   127167760.182 6        39.250    24199217.080    99091795.95643
        30.000
  21381504.660   112360738.332 9        49.000    21381505.200    87553917.41748
        47.250
  20710813.080   108836208.217 9        49.250    20710812.900    84807509.00548
        48.750
  25068159.360   131734072.712 6        39.000    25068161.540   102649940.59645
        37.250
  20650347.920   108518315.198 8        47.750    20650347.800    84559725.57248
        48.250
  22344715.960   117422355.247 8        47.000    22344714.720    91497979.06347
        44.000
  21614615.820   113585659.752 8        47.000    21614619.420    88508363.34648
        46.500
  24451372.080   128492973.584 6        40.000    24451374.000   100124481.19644
        32.500
  23752400.340   124819771.865 6        41.250    23752404.620    97262217.15345
        38.000
 13 10 27  0 16 30.0000000  0 11G03G06G14G15G18G19G21G22G24G26G27
  24132323.060   126816244.214 5        38.500    24132326.460    98817878.05343
        31.500
  23941387.400   125812916.499 6        41.250    23941390.220    98036088.45344
        34.750
  24180773.060   127070857.559 6        39.000    24180776.840    99016287.58943
        30.250
  21394842.540   112430829.514 8        48.750    21394843.080    87608533.90848
        47.500
  20705486.080   108808214.540 9        49.000    20705485.860    84785695.76948
        48.750
  25058439.720   131682996.489 6        39.000    25058442.060   102610141.08145
        36.750
  20654348.260   108539337.224 8        47.750    20654348.160    84576106.36748
        48.500
  22331109.480   117350853.069 8        46.750    22331108.280    91442263.13447
        44.000
  21604774.820   113533945.466 8        47.000    21604778.540    88468066.54448
        46.750
  24473909.180   128611406.089 6        40.000    24473910.740   100216766.29242
        27.000
  23753101.240   124823455.222 6        41.500    23753105.420    97265087.33245
        38.500
 13 10 27  0 17  0.0000000  0 11G03G06G14G15G18G19G21G22G24G26G27
  24134283.400   126826546.469 5        38.750    24134286.880    98825905.80143
        30.250
  23946761.920   125841159.558 6        41.000    23946764.720    98058096.06144
        35.500
  24162363.800   126974116.473 5        38.000    24162367.180    98940905.10743
        31.250
  21408235.080   112501207.855 9        49.250    21408235.580    87663374.18848
        47.000
  20700203.980   108780456.773 9        49.250    20700203.740    84764066.36049
        49.000
  25048812.740   131632407.172 5        38.750    25048815.180   102570720.96545
        36.750
  20658450.280   108560893.600 8        47.750    20658450.200    84592903.53948
        48.500
  22317527.320   117279478.549 8        47.250    22317526.080    91386646.68347
        43.000
  21595033.180   113482753.005 8        47.250    21595036.960    88428176.36648
        46.750
  24496452.060   128729869.235 5        37.750    24496453.460   100309075.32543
        31.250
  23753907.860   124827694.051 6        41.000    23753912.060    97268390.33445
        36.750
 13 10 27  0 17 30.0000000  0 11G03G06G14G15G18G19G21G22G24G26G27
  24136351.040   126837381.365 5        37.500    24136355.240    98834330.70244
        34.750
  23952224.860   125869867.901 6        39.750    23952227.680    98080466.18645
        37.750
  24143985.680   126877539.513 5        37.500    24143988.800    98865650.50843
        31.000
  21421682.180   112571872.690 9        49.000    21421682.620    87718437.70048
        47.500
  20694967.200   108752937.229 9        49.000    20694966.940    84742622.57849
        49.000
  25039279.060   131582307.981 5        38.750    25039281.440   102531682.78045
        37.500
  20662654.260   108582985.604 8        48.000    20662654.140    84610118.08348
        48.000
  22303969.820   117208233.713 8        47.000    22303968.580    91331131.28347
        43.750
  21585391.520   113432085.674 8        47.250    21585395.260    88388695.36748
        46.750
  24519000.380   128848362.147 4        35.250    24519001.940   100401407.40944
        32.000
  23754820.280   124832488.877 6        41.250    23754824.480    97272126.56045
        37.750
 13 10 27  0 18  0.0000000  0 11G03G06G14G15G18G19G21G22G24G26G27
  24138528.400   126848818.797 6        39.500    24138531.120    98843243.00643
        28.000
  23957775.700   125899038.716 6        39.750    23957778.680    98103196.70345
        37.250
  24125638.660   126781126.181 6        39.500    24125641.620    98790523.47244
        32.250
  21435183.160   112642820.627 9        49.000    21435183.580    87773721.80748
        47.500
  20689775.640   108725655.419 9        49.000    20689775.400    84721364.04949
        49.000
  25029838.600   131532699.056 6        39.000    25029840.940   102493026.64344
        35.000
  20666959.900   108605611.679 8        47.750    20666959.720    84627748.78948
        48.250
  22290436.860   117137117.878 8        47.250    22290435.600    91275716.40847
        43.750
  21575849.800   113381943.528 8        47.000    21575853.480    88349623.60348
        46.750
  24541553.600   128966881.350 5        36.750    24541555.380   100493760.00244
        33.250
  23755838.140   124837837.515 6        41.500    23755842.380    97276294.36146
        39.250
 13 10 27  0 18 30.0000000  0 11G03G06G14G15G18G19G21G22G24G26G27
  24140811.800   126860817.751 6        39.000    24140815.400    98852592.87943
        28.000
  23963413.540   125928666.451 6        40.750    23963416.660    98126283.23545
        37.000
  24107322.400   126684874.234 5        38.250    24107325.260    98715522.14844
        35.250
  21448736.880   112714045.649 9        49.000    21448737.300    87829221.83648
        47.250
  20684628.600   108698607.761 9        49.000    20684628.400    84700287.96949
        49.000
  25020491.040   131483577.998 5        38.500    25020493.300   102454750.64144
        35.250
  20671366.500   108628768.295 8        47.750    20671366.260    84645792.90248
        48.250
  22276927.880   117066128.024 8        47.250    22276926.640    91220399.70247
        43.750
  21566407.760   113332325.273 8        47.250    21566411.400    88310960.07048
        46.750
  24564110.820   129085420.938 5        38.500    24564112.720   100586128.50044
        35.000
  23756960.560   124843735.662 6        40.750    23756964.800    97280890.34246
        40.250
 13 10 27  0 19  0.0000000  0 11G03G06G14G15G18G19G21G22G24G26G27
  24143202.780   126873382.682 5        38.750    24143206.420    98862383.77444
        33.000
  23969139.220   125958755.102 6        41.250    23969142.320    98149728.94045
        36.250
  24089038.180   126588790.635 6        39.500    24089040.960    98640652.03444
        34.500
  21462344.000   112785551.434 9        49.000    21462344.420    87884940.62648
        47.500
  20679527.380   108671801.077 9        49.000    20679527.240    84679399.66449
        49.000
  25011237.800   131434952.333 6        39.250    25011239.980   102416860.61546
        40.500
  20675875.060   108652460.859 8        48.000    20675874.840    84664254.63648
        48.000
  22263444.200   116995270.857 8        47.250    22263442.940    91165186.37347
        44.000
  21557066.900   113283238.644 8        47.250    21557070.480    88272710.79448
        46.750
  24586672.740   129203984.546 6        39.250    24586674.660   100678515.74444
        34.250
  23758188.420   124850188.173 6        41.000    23758192.680    97285918.27945
        37.500
 13 10 27  0 19 30.0000000  0 11G03G06G14G15G18G19G21G22G24G26G27
  24145700.720   126886510.639 4        35.750    24145704.580    98872613.36443
        29.750
  23974952.000   125989300.936 6        41.500    23974955.020    98173530.89945
        36.500
  24070785.840   126492874.353 6        39.250    24070788.640    98565912.24644
        33.500
  21476003.680   112857333.766 8        48.750    21476004.160    87940874.90848
        47.000
  20674471.820   108645234.061 9        49.000    20674471.680    84658698.12249
        49.000
  25002078.700   131386821.379 6        39.250    25002080.820   102379356.10845
        37.250
  20680485.200   108676687.303 8        47.750    20680484.960    84683132.37648
        48.000
  22249985.540   116924545.077 8        47.250    22249984.240    91110075.44347
        44.000
  21547827.200   113234683.698 8        47.250    21547830.760    88234875.80248
        46.500
  24609238.440   129322567.964 5        38.750    24609240.200   100770918.45144
        33.000
  23759521.200   124857192.137 7        42.250    23759525.420    97291375.93946
        39.750
 13 10 27  0 20  0.0000000  0 11G03G06G14G15G18G19G21G22G24G26G27
  24148305.800   126900201.456 5        36.000    24148309.440    98883281.58144
        33.250
  23980851.680   126020303.273 6        41.750    23980854.640    98197688.57445
        37.500
  24052565.760   126397127.625 5        38.750    24052568.640    98491304.59944
        34.250
  21489715.720   112929391.792 8        48.500    21489716.320    87997024.01548
        47.000
  20669462.220   108618908.609 9        49.000    20669462.080    84638184.80349
        49.000
  24993014.240   131339187.735 5        38.750    24993016.360   102342239.09845
        38.750
  20685197.100   108701448.568 8        48.000    20685196.860    84702426.86448
        48.000
  22236552.200   116853952.501 8        47.000    22236550.860    91055068.29247
        44.000
  21538689.120   113186662.855 8        47.500    21538692.640    88197457.01248
        47.000
  24631807.700   129441170.212 5        37.000    24631809.260   100863335.82743
        29.000
  23760959.060   124864747.950 7        42.250    23760963.220    97297263.58445
        38.250
 13 10 27  0 20 30.0000000  0 11G03G06G14G15G18G19G21G22G24G26G27
  24151017.640   126914453.625 5        38.000    24151021.800    98894387.14044
        33.750
  23986837.820   126051760.212 6        41.250    23986840.860    98222200.49145
        37.000
  24034378.000   126301551.526 6        39.500    24034381.180    98416829.88245
        36.500
  21503479.820   113001723.396 8        48.750    21503480.540    88053386.30448
        46.750
  20664498.700   108592825.377 8        48.750    20664498.580    84617860.22349
        49.250
  24984044.620   131292052.776 6        40.000    24984046.820   102305510.68145
        37.500
  20690010.720   108726744.175 8        47.750    20690010.460    84722137.72048
        48.000
  22223144.320   116783493.869 8        47.250    22223143.000    91000165.53547
        44.250
  21529653.040   113139178.334 8        47.000    21529656.580    88160456.12748
        46.750
  24654380.040   129559789.224 4        33.750    24654381.440   100955766.29644
        33.750
  23762501.800   124872854.565 6        41.500    23762505.820    97303580.44346
        40.250
 13 10 27  0 21  0.0000000  0 11G03G06G14G15G18G19G21G22G24G26G27
  24153836.500   126929264.283 5        38.000    24153840.220    98905927.94343
        30.000
  23992909.700   126083668.288 6        41.250    23992912.900    98247063.92345
        38.000
  24016222.580   126206145.406 6        39.250    24016226.060    98342487.64343
        31.000
  21517295.320   113074324.635 8        48.750    21517296.080    88109958.70448
        46.750
  20659581.140   108566983.551 9        49.000    20659581.020    84597723.75749
        49.250
  24975169.880   131245416.233 6        39.000    24975172.160   102269170.64145
        37.250
  20694925.640   108752572.107 8        48.000    20694925.360    84742263.37348
        47.750
  22209761.720   116713168.175 8        47.250    22209760.440    90945366.34547
        44.250
  21520718.980   113092229.986 8        47.000    21520722.540    88123873.04548
        46.750
  24676954.800   129678421.051 4        34.500    24676955.880   101048206.63941
        17.500
  23764148.800   124881509.251 7        42.250    23764152.740    97310324.37745
        37.500
 13 10 27  0 21 30.0000000  0 11G03G06G14G15G18G19G21G22G24G26G27
  24156760.640   126944632.692 6        39.250    24156764.260    98917903.27844
        33.500
  23999067.100   126116026.041 6        41.000    23999070.480    98272277.75045
        37.000
  23998099.820   126110910.605 6        40.000    23998103.300    98268278.85344
        34.000
  21531161.860   113147193.645 9        49.250    21531162.540    88166739.76348
        47.250
  20654709.720   108541384.082 9        49.000    20654709.580    84577776.13949
        49.000
  24966390.320   131199279.802 6        39.000    24966392.560   102233220.28345
        36.250
  20699941.940   108778932.797 8        47.750    20699941.620    84762804.17148
        48.000
  22196404.640   116642976.688 8        47.000    22196403.420    90890671.75347
        44.250
  21511887.400   113045820.280 8        47.000    21511890.980    88087709.67648
        46.250
  24699531.720   129797063.945 4        34.000    24699532.720   101140655.72543
        29.750
  23765900.000   124890711.654 6        41.750    23765903.920    97317495.11545
        38.750
 13 10 27  0 22  0.0000000  0 11G03G06G14G15G18G19G21G22G24G26G27
  24159791.420   126960558.742 5        38.750    24159795.320    98930313.20942
        27.500
  24005310.060   126148833.106 6        41.750    24005313.460    98297841.70546
        39.250
  23980010.340   126015850.161 5        38.750    23980013.760    98194205.93544
        34.750
  21545079.320   113220329.849 9        49.000    21545079.920    88223729.01148
        47.250
  20649884.800   108516028.903 8        48.750    20649884.640    84558018.88649
        49.250
  24957706.520   131153646.267 5        38.750    24957708.660   102197661.81046
        39.250
  20705059.800   108805827.330 8        47.750    20705059.480    84783760.94648
        48.000
  22183073.540   116572921.865 8        47.250    22183072.380    90836083.63847
        44.500
  21503158.840   112999952.002 8        47.000    21503162.480    88051968.20848
        46.750
  24722110.620   129915717.333 5        37.250    24722111.720   101233112.86745
        36.000
  23767755.420   124900462.186 6        41.750    23767759.420    97325092.94645
        38.000
 13 10 27  0 22 30.0000000  0 11G03G06G14G15G18G19G21G22G24G26G27
  24162927.680   126977039.765 5        38.750    24162931.640    98943155.53544
        32.000
  24011637.920   126182086.054 6        40.500    24011641.320    98323753.09345
        37.750
  23961953.780   125920963.176 6        39.750    23961957.140    98120268.17444
        32.250
  21559046.900   113293729.500 8        48.750    21559047.440    88280923.54248
        47.000
  20645106.240   108490917.590 8        48.750    20645106.100    84538451.64849
        49.250
  24949118.300   131108515.213 5        38.500    24949120.440   102162494.90644
        33.500
  20710278.860   108833253.852 8        48.000    20710278.600    84805132.25748
        47.750
  22169768.240   116503002.525 8        47.000    22169767.080    90781601.10347
        44.250
  21494533.460   112954625.776 8        47.250    21494537.120    88016649.09748
        47.250
  24744690.960   130034377.613 5        38.000    24744692.180   101325575.47044
        33.000
  23769714.620   124910758.319 7        42.000    23769718.720    97333115.93446
        39.000
 13 10 27  0 23  0.0000000  0 11G03G06G14G15G18G19G21G22G24G26G27
  24166169.580   126994075.114 4        35.250    24166173.380    98956429.86945
        36.750
  24018050.400   126215783.711 6        40.500    24018053.720    98350010.98146
        39.750
  23943930.640   125826251.608 5        38.000    23943933.880    98046467.10244
        35.500
  21573064.300   113367391.292 8        48.500    21573064.820    88338322.34548
        47.000
  20640374.320   108466051.335 9        49.000    20640374.180    84519075.37049
        49.000
  24940626.100   131063888.934 6        39.250    24940628.140   102127721.27244
        35.500
  20715599.200   108861212.514 8        47.750    20715598.980    84826918.21748
        47.750
  22156489.020   116433220.297 8        47.250    22156487.880    90727225.40347
        44.500
  21486011.720   112909843.735 8        47.750    21486015.340    87981754.04648
        47.000
  24767272.380   130153043.258 5        38.000    24767273.660   101418042.21743
        31.750
  23771777.660   124921599.651 6        41.500    23771781.800    97341563.73846
        40.000
 13 10 27  0 23 30.0000000  0 11G03G06G14G15G18G19G21G22G24G26G27
  24169516.000   127011663.483 5        38.000    24169520.000    98970135.09445
        37.250
  24024547.100   126249924.137 6        40.000    24024550.480    98376613.91445
        37.500
  23925941.100   125731716.610 5        38.750    23925944.280    97972803.61944
        34.250
  21587131.100   113441313.148 8        48.500    21587131.680    88395923.77348
        47.000
  20635689.260   108441431.289 9        49.000    20635689.100    84499890.94549
        49.250
  24932230.300   131019768.826 6        39.000    24932232.060   102093342.13345
        38.000
  20721020.860   108889703.477 8        48.000    20721020.640    84849118.95848
        48.000
  22143236.040   116363575.882 8        47.500    22143234.860    90672957.08947
        44.500
  21477594.000   112865608.019 8        47.500    21477597.520    87947284.69348
        47.250
  24789854.440   130271712.464 6        39.750    24789855.860   101510511.74144
        34.250
  23773944.240   124932985.319 6        41.750    23773948.440    97350435.70545
        38.500
 13 10 27  0 24  0.0000000  0 11G03G06G14G15G18G19G21G22G24G26G27
  24172968.340   127029804.013 6        39.250    24172972.520    98984270.56844
        34.000
  24031127.760   126284506.340 6        40.500    24031131.340    98403561.07644
        35.500
  23907985.540   125637360.296 6        40.000    23907988.560    97899279.33944
        34.250
  21601247.120   113515493.878 8        48.500    21601247.820    88453726.92948
        46.750
  20631051.340   108417058.884 9        49.000    20631051.140    84480899.48149
        49.000
  24923931.240   130976157.079 5        38.500    24923932.940   102059359.06645
        38.750
  20726543.920   108918727.337 8        48.000    20726543.740    84871734.95348
        48.250
  22130009.720   116294071.185 8        47.750    22130008.440    90618797.64047
        44.250
  21469280.640   112821920.668 8        47.500    21469284.040    87913242.62848
        47.500
  24812437.060   130390384.016 5        38.250    24812438.440   101602983.11143
        29.000
  23776214.360   124944915.072 6        41.750    23776218.580    97359731.66145
        38.000
 13 10 27  0 24 30.0000000  0 11G03G06G14G15G18G19G21G22G24G26G27
  24176525.220   127048494.658 5        38.750    24176529.140    98998834.71943
        30.750
  24037791.960   126319527.460 6        40.000    24037795.720    98430850.25045
        38.000
  23890064.020   125543182.276 6        40.000    23890066.900    97825894.02644
        35.000
  21615411.800   113589930.273 8        48.750    21615412.580    88511729.31148
        46.000
  20626460.540   108392934.012 9        49.000    20626460.280    84462100.89849
        49.250
  24915728.920   130933053.659 6        39.000    24915730.540   102025772.16644
        33.500
  20732168.060   108948282.292 8        48.250    20732167.900    84894764.77848
        47.750
  22116809.940   116224705.768 8        47.500    22116808.520    90564746.72347
        44.000
  21461071.840   112778782.817 8        47.500    21461075.160    87879628.75748
        47.250
  24835019.560   130509054.754 5        37.500    24835020.780   101695453.83643
        29.750
  23778587.580   124957386.869 6        41.500    23778591.860    97369449.96345
        38.750
 13 10 27  0 25  0.0000000  0 11G03G06G14G15G18G19G21G22G24G26G27
  24180186.800   127067735.253 6        40.250    24180190.380    99013827.38644
        34.000
  24044539.560   126354986.505 6        41.000    24044543.340    98458480.66244
        35.250
  23872176.900   125449184.999 6        40.750    23872179.800    97752649.55045
        37.000
  21629625.040   113664621.272 8        48.750    21629625.740    88569930.09548
        46.500
  20621917.120   108369057.918 9        49.000    20621916.760    84443496.16849
        49.000
  24907623.740   130890461.150 5        38.500    24907625.240   101992583.28246
        39.750
  20737893.400   108978368.866 8        48.000    20737893.220    84918208.85248
        47.750
  22103637.060   116155481.701 8        47.750    22103635.560    90510805.95147
        43.750
  21452968.080   112736197.082 8        47.750    21452971.320    87846445.08848
        47.000
  24857601.720   130627723.949 5        37.000    24857602.660   101787923.39243
        29.500
  23781063.960   124970400.607 6        41.500    23781068.240    97379590.56545
        38.750
 13 10 27  0 25 30.0000000  0 11G03G06G14G15G18G19G21G22G24G26G27
  24183952.480   127087524.450 5        38.750    24183956.220    99029247.56445
        36.000
  24051370.300   126390882.144 6        40.500    24051373.980    98486451.31545
        36.000
  23854324.560   125355370.069 6        39.750    23854327.360    97679547.16344
        35.250
  21643886.540   113739565.545 9        49.000    21643887.140    88628328.23248
        46.500
  20617421.360   108345432.443 9        49.000    20617420.940    84425086.72549
        49.000
  24899616.060   130848381.288 5        37.750    24899617.600   101959793.88345
        36.250
  20743719.960   109008987.487 8        48.000    20743719.760    84942067.51148
        47.750
  22090491.340   116086400.471 8        47.500    22090489.760    90456976.47447
        44.750
  21444969.780   112694165.632 8        47.750    21444972.980    87813693.34148
        47.000
  24880183.200   130746390.015 5        36.250    24880183.740   101880390.47041
        22.000
  23783643.400   124983955.863 6        41.500    23783647.740    97390153.13145
        36.750
 13 10 27  0 26  0.0000000  0 11G03G06G14G15G18G19G21G22G24G26G27
  24187822.420   127107860.831 6        39.000    24187826.380    99045094.10945
        38.000
  24058283.680   126427212.330 6        40.000    24058287.300    98514760.55544
        35.750
  23836507.060   125261738.457 6        39.750    23836509.820    97606587.62744
        34.000
  21658195.820   113814760.904 8        48.750    21658196.340    88686922.01648
        46.500
  20612973.340   108322058.022 8        48.750    20612972.920    84406872.90749
        49.500
  24891706.120   130806815.216 5        37.750    24891707.720   101927404.86745
        36.500
  20749647.620   109040137.685 8        48.000    20749647.420    84966340.38248
        47.750
  22077372.900   116017462.982 8        47.750    22077371.340    90403259.01047
        44.250
  21437077.260   112652690.227 8        47.250    21437080.420    87781374.87948
        47.250
  24902763.440   130865050.904 4        35.250    24902764.120   101972853.52243
        31.000
  23786325.640   124998051.287 7        42.000    23786329.980    97401136.58845
        37.000
 13 10 27  0 26 30.0000000  0 11G03G06G14G15G18G19G21G22G24G26G27
  24191796.040   127128742.539 6        39.500    24191799.920    99061365.57645
        36.250
  24065279.280   126463974.874 6        39.750    24065282.860    98543406.70544
        34.500
  23818724.380   125168290.841 5        38.500    23818727.180    97533771.46144
        35.500
  21672552.380   113890204.849 8        48.500    21672552.840    88745709.51048
        46.750
  20608573.200   108298935.329 8        48.750    20608572.800    84388855.25149
        49.250
  24883894.080   130765763.749 5        37.500    24883895.640   101895416.85445
        38.750
  20755676.280   109071818.610 8        48.000    20755676.120    84991026.81048
        47.500
  22064281.880   115948669.486 8        47.750    22064280.340    90349653.75247
        44.500
  21429290.660   112611771.584 8        47.500    21429293.800    87749490.26148
        47.500
  24925342.220   130983704.455 5        36.250    24925343.240   102065310.86144
        32.500
  23789110.400   125012685.462 6        41.500    23789114.740    97412539.89745
        38.750
 13 10 27  0 27  0.0000000  0 11G03G06G14G15G18G19G21G22G24G26G27
  24195873.020   127150166.972 6        39.750    24195876.840    99078059.94444
        35.500
  24072356.560   126501166.416 6        40.500    24072360.020    98572387.09844
        35.000
  23800976.580   125075027.123 5        38.750    23800979.280    97461098.49744
        34.250
  21686955.560   113965894.202 8        48.250    21686956.100    88804688.21948
        46.500
  20604220.820   108276063.663 9        49.000    20604220.440    84371033.18949
        49.000
  24876180.120   130725227.085 5        38.000    24876181.600   101863829.97544
        32.750
  20761805.640   109104028.590 8        48.000    20761805.480    85016125.48448
        47.500
  22051218.120   115880019.231 8        48.000    22051216.620    90296160.09847
        44.500
  21421610.160   112571410.673 8        47.250    21421613.360    87718040.23748
        47.500
  24947919.000   131102347.470 4        35.000    24947920.640   102157760.05741
        17.000
  23791997.240   125027856.014 7        42.000    23792001.620    97424361.14145
        38.750
 13 10 27  0 27 30.0000000  0 11G03G06G14G15G18G19G21G22G24G26G27
  24200053.920   127172137.952 6        40.250    24200057.860    99095180.20045
        36.750
  24079516.240   126538790.512 6        39.750    24079519.500    98601704.57444
        34.750
  23783264.920   124981953.820 6        39.000    23783267.740    97388573.98745
        37.000
  21701406.000   114041832.295 8        48.750    21701406.760    88863860.74448
        46.500
  20599917.460   108253449.495 8        48.750    20599917.080    84353411.77649
        49.250
  24868565.380   130685211.696 5        38.500    24868566.900   101832649.27544
        35.750
  20768036.640   109136772.774 8        48.000    20768036.480    85041640.42848
        47.500
  22038182.920   115811518.906 8        47.750    22038181.460    90242783.27547
        44.750
  21414036.980   112531613.976 8        47.500    21414040.320    87687029.85348
        47.000
  24970494.520   131220983.353 4        34.250

  23794986.940   125043567.146 6        40.750    23794991.260    97436603.58846
        39.000
 13 10 27  0 28  0.0000000  0 11G03G06G14G15G18G19G21G22G24G26G27
  24204335.860   127194639.664 6        40.500    24204340.000    99112714.01444
        35.750
  24086755.040   126576830.665 6        39.000    24086758.120    98631346.24445
        36.000
  23765587.080   124889057.560 6        40.500    23765589.900    97316187.36344
        35.750
  21715900.720   114118002.604 8        48.750    21715901.540    88923214.23848
        46.500
  20595660.580   108231079.356 9        49.000    20595660.180    84335980.51349
        49.500
  24861047.340   130645704.347 5        38.000    24861048.860   101801864.47345
        36.750
  20774366.440   109170035.921 8        48.000    20774366.220    85067559.75248
        47.750
  22025173.700   115743155.057 8        48.000    22025172.240    90189512.79248
        45.000
  21406568.840   112492369.230 8        47.500    21406572.300    87656449.56448
        47.500
  24993065.600   131339596.012 4        33.250    24993066.540   102342421.04644
        32.250
  23798076.580   125059803.335 7        42.000    23798080.900    97449255.20445
        38.500
 13 10 27  0 28 30.0000000  0 11G03G06G14G15G18G19G21G22G24G26G27
  24208721.740   127217687.139 6        41.000    24208725.340    99130673.11644
        32.750
  24094075.780   126615301.690 6        40.000    24094078.760    98661323.68144
        35.750
  23747946.520   124796356.244 6        40.500    23747949.240    97243952.69344
        35.500
  21730442.520   114194420.072 8        48.750    21730443.320    88982760.31048
        46.250
  20591453.400   108208970.394 8        48.750    20591452.980    84318752.77149
        49.500
  24853629.320   130606723.182 5        38.000    24853630.840   101771489.62144
        35.750
  20780798.160   109203834.667 8        48.000    20780797.900    85093896.42548
        47.500
  22012193.800   115674945.266 8        47.750    22012192.300    90136362.35747
        44.750
  21399209.240   112453694.673 8        47.750    21399212.760    87626313.56648
        47.250
  25015635.060   131458200.203 4        34.500

  23801269.100   125076580.041 6        41.750    23801273.420    97462327.99545
        38.000
 13 10 27  0 29  0.0000000  0 11G03G06G14G15G18G19G21G22G24G26G27
  24213208.480   127241264.712 6        41.500    24213212.020    99149045.24745
        36.500
  24101475.560   126654187.675 6        40.750    24101478.520    98691624.44944
        35.000
  23730340.660   124703836.875 6        39.750    23730343.340    97171859.76544
        35.000
  21745028.280   114271068.521 8        48.750    21745029.040    89042486.37148
        46.500
  20587293.460   108187109.799 8        48.750    20587293.020    84301718.55649
        49.250
  24846308.900   130568254.791 5        37.750    24846310.360   101741514.37644
        34.750
  20787329.000   109238154.316 8        48.000    20787328.700    85120639.00048
        47.500
  21999240.740   115606876.490 8        48.000    21999239.180    90083321.80147
        44.500
  21391955.860   112415577.840 8        48.000    21391959.340    87596612.18348
        47.000
  25038199.900   131576780.251 4        33.750    25038202.840   102527258.01841
        18.250
  23804561.660   125093882.129 6        40.750    23804565.900    97475810.16946
        39.750
 13 10 27  0 29 30.0000000  0 11G03G06G14G15G18G19G21G22G24G26G27
  24217797.860   127265381.567 6        40.000    24217801.420    99167837.62644
        35.750
  24108955.940   126693496.922 6        40.250    24108958.840    98722255.02145
        36.500
  23712771.640   124611510.947 6        39.750    23712774.340    97099917.60845
        36.250
  21759659.680   114347956.545 8        48.750    21759660.320    89102399.12548
        46.250
  20583182.960   108165509.159 8        48.750    20583182.540    84284886.90549
        49.500
  24839088.300   130530311.146 5        38.250    24839089.720   101711947.94944
        35.750
  20793960.820   109273004.752 8        48.000    20793960.520    85147795.17048
        47.250
  21986316.700   115538960.235 8        48.000    21986315.100    90030400.09347
        44.500
  21384810.800   112378030.263 8        47.750    21384814.240    87567354.36748
        47.500
  25060761.860   131695344.740 4        33.500    25060764.720   102619645.89144
        35.500
  23807955.820   125111718.779 6        41.000    23807960.160    97489708.88746
        39.500
 13 10 27  0 30  0.0000000  0 10G03G06G14G15G18G19G21G22G24G27
  24222489.400   127290035.942 6        41.750    24222493.060    99187048.85844
        34.750
  24116516.520   126733227.240 6        40.250    24116519.340    98753213.70245
        36.500
  23695239.600   124519379.691 6        40.500    23695242.340    97028127.14044
        35.750
  21774336.220   114425081.987 8        48.500    21774336.760    89162496.86848
        46.000
  20579122.000   108144168.749 9        49.000    20579121.580    84268258.03049
        49.250
  24831967.800   130492893.249 5        36.500    24831969.160   101682791.24345
        37.000
  20800693.500   109308385.290 8        48.000    20800693.220    85175364.41648
        47.500
  21973421.800   115471197.184 8        47.750    21973420.120    89977597.76047
        44.500
  21377774.380   112341053.431 8        47.750    21377777.780    87538541.28348
        47.750
  23811451.440   125130088.604 6        41.250    23811455.700    97504023.03446
        39.000
 13 10 27  0 30 30.0000000  0 11G03G06G14G15G18G19G21G22G24G26G27
  24227281.740   127315219.559 6        40.750    24227285.340    99206672.42745
        36.250
  24124155.500   126773370.059 6        40.750    24124158.300    98784493.79645
        37.500
  23677743.520   124427437.407 6        40.000    23677746.080    96956483.87744
        32.500
  21789056.260   114502436.324 8        48.250    21789056.720    89222772.97348
        46.000
  20575109.400   108123082.483 9        49.000    20575108.960    84251827.19249
        49.250
  24824946.260   130455995.378 5        36.750    24824947.580   101654039.73644
        35.250
  20807525.720   109344288.912 8        48.000    20807525.480    85203341.25648
        47.500
  21960554.920   115403581.678 8        47.750    21960553.220    89924910.39647
        44.750
  21370845.600   112304642.208 8        48.250    21370848.920    87510168.92548
        47.250
  25105875.240   131932262.546 4        32.000

  23815047.000   125148983.628 6        41.500    23815051.240    97518746.46045
        37.750
 13 10 27  0 31  0.0000000  0 10G03G06G14G15G18G19G21G22G24G27
  24232175.120   127340934.337 6        40.750    24232178.640    99226709.95943
        31.750
  24131873.320   126813926.959 6        41.000    24131876.200    98816096.62744
        35.750
  23660284.340   124335688.878 6        39.750    23660286.540    96884991.57244
        34.000
  21803820.120   114580021.050 8        48.250    21803820.560    89283228.60648
        46.250
  20571146.140   108102255.432 9        49.000    20571145.660    84235598.34049
        49.000
  24818024.560   130419622.426 5        37.500    24818026.060   101625697.25544
        35.000
  20814458.000   109380718.457 8        48.000    20814457.800    85231727.90648
        47.500
  21947716.940   115336118.113 8        48.000    21947715.260    89872341.43847
        44.750
  21364025.540   112268802.185 8        48.000    21364028.740    87482241.67648
        47.750
  23818743.020   125168406.255 6        41.500    23818747.140    97533881.00646
        40.250
 13 10 27  0 31 30.0000000  0 10G03G06G14G15G18G19G21G22G24G27
  24237169.340   127367179.216 6        40.000    24237172.840    99247160.52944
        35.750
  24139669.640   126854896.527 6        41.500    24139672.600    98848020.95344
        35.750
  23642862.300   124244135.647 6        39.000    23642864.440    96813651.52845
        36.500
  21818627.520   114657834.862 8        48.250    21818628.060    89343862.73448
        46.250
  20567232.420   108081688.832 9        49.000    20567231.940    84219572.43649
        49.500
  24811203.120   130383775.859 5        38.250    24811204.700   101597764.95044
        35.500
  20821490.420   109417674.050 8        48.250    20821490.220    85260524.46248
        47.250
  21934908.260   115268808.379 8        47.750    21934906.580    89819892.34248
        45.000
  21357314.420   112233534.867 8        48.000    21357317.600    87454760.67548
        47.750
  23822539.260   125188355.804 6        41.500    23822543.440    97549426.12146
        39.000
 13 10 27  0 32  0.0000000  0 10G03G06G14G15G18G19G21G22G24G27
  24242263.860   127393951.141 6        39.750    24242267.440    99268021.79844
        35.750
  24147543.780   126896275.041 6        41.000    24147546.720    98880263.98245
        37.250
  23625477.260   124152777.147 6        41.000    23625479.420    96742463.20145
        37.500
  21833477.880   114735874.480 8        48.000    21833478.540    89404672.82848
        46.250
  20563368.200   108061382.263 9        49.000    20563367.720    84203749.15649
        49.500
  24804481.880   130348455.402 5        38.500    24804483.440   101570242.61144
        33.000
  20828622.600   109455153.677 8        48.250    20828622.360    85289729.36048
        47.250
  21922128.720   115201651.750 8        48.000    21922127.060    89767562.54848
        45.000
  21350712.260   112198840.435 8        48.000    21350715.440    87427726.09348
        47.500
  23826435.260   125208829.333 6        41.750    23826439.440    97565379.52246
        39.000
 13 10 27  0 32 30.0000000  0 10G03G06G14G15G18G19G21G22G24G27
  24247458.380   127421249.122 5        38.500    24247462.120    99289292.97244
        35.500
  24155495.460   126938061.181 6        41.250    24155498.280    98912824.60044
        35.500
  23608129.660   124061615.265 6        41.250    23608131.860    96671428.08245
        37.000
  21848371.040   114814138.824 8        48.250    21848371.760    89465658.03348
        46.250
  20559553.700   108041336.991 8        48.750    20559553.240    84188129.47749
        49.500
  24797861.020   130313662.929 6        39.750    24797862.660   101543131.66445
        37.750
  20835854.520   109493157.416 8        48.250    20835854.240    85319342.65148
        47.250
  21909378.640   115134649.925 8        48.000    21909377.000    89715353.37648
        45.500
  21344219.500   112164721.084 8        48.000    21344222.680    87401139.62148
        47.250
  23830430.840   125229826.271 6        41.250    23830435.020    97581740.78146
        39.500
 13 10 27  0 33  0.0000000  0 10G03G06G14G15G18G19G21G22G24G27
  24252752.340   127449070.147 5        38.500    24252756.220    99310971.71344
        33.750
  24163524.060   126980251.696 6        40.500    24163526.800    98945700.35044
        35.000
  23590819.540   123970650.054 6        41.250    23590821.660    96600546.20644
        35.500
  21863306.320   114892624.150 8        48.500    21863307.020    89526815.43348
        45.750
  20555788.840   108021552.657 8        48.750    20555788.420    84172713.13849
        49.500
  24791340.720   130279397.943 5        38.750    24791342.120   101516431.75544
        33.500
  20843185.780   109531683.124 8        48.000    20843185.460    85349362.67548
        47.250
  21896657.980   115067802.794 8        48.250    21896656.400    89663264.75848
        45.750
  21337836.140   112131176.908 8        47.750    21337839.380    87375001.34748
        47.500
  23834525.540   125251344.091 6        41.750    23834529.660    97598507.93245
        38.750
 13 10 27  0 33 30.0000000  0 10G03G06G14G15G18G19G21G22G24G27
  24258146.000   127477414.778 5        38.500    24258150.040    99333058.43744
        35.250
  24171629.560   127022846.843 6        40.250    24171632.360    98978891.36844
        35.750
  23573547.420   123879884.561 6        41.500    23573549.380    96529819.97344
        35.250
  21878283.840   114971331.331 8        48.500    21878284.540    89588145.70148
        45.750
  20552074.320   108002032.865 8        48.750    20552073.940    84157502.92949
        49.500
  24784921.480   130245664.391 5        38.750    24784922.680   101490145.90744
        34.250
  20850616.700   109570732.759 8        48.000    20850616.360    85379790.95048
        47.250
  21883967.420   115001113.727 8        48.250    21883965.880    89611299.30148
        45.500
  21331562.840   112098211.185 8        47.750    21331566.160    87349313.80048
        47.500
  23838719.600   125273383.720 6        41.000    23838723.680    97615681.70046
        39.000
 13 10 27  0 34  0.0000000  0 10G03G06G14G15G18G19G21G22G24G27
  24263638.560   127506278.583 5        37.750    24263642.640    99355549.70844
        35.500
  24179811.140   127065841.717 5        38.750    24179814.040    99012393.85545
        37.750
  23556313.000   123789317.407 6        40.000    23556314.720    96459248.24044
        35.750
  21893302.820   115050255.889 8        48.250    21893303.360    89649645.38148
        45.500
  20548409.760   107982775.587 8        48.750    20548409.400    84142497.28349
        49.750
  24778602.840   130212459.974 5        38.750    24778603.940   101464272.38345
        36.250
  20858146.680   109610303.098 8        48.000    20858146.360    85410624.96348
        47.250
  21871306.600   114934580.748 8        48.000    21871305.080    89559455.47248
        45.750
  21325399.480   112065823.061 8        47.750    21325402.840    87324076.33348
        47.500
  23843012.140   125295941.055 6        41.750    23843016.260    97633258.86246
        40.000
 13 10 27  0 34 30.0000000  0 10G03G06G14G15G18G19G21G22G24G27
  24269230.200   127535663.023 5        38.250    24269234.220    99378446.71144
        34.250
  24188068.920   127109237.516 6        39.250    24188072.000    99046208.73144
        35.500
  23539117.060   123698952.710 6        39.750    23539118.560    96388834.30344
        34.750
  21908363.300   115129398.841 8        48.250    21908363.740    89711315.21448
        45.500
  20544795.900   107963784.830 8        48.750    20544795.560    84127699.30849
        49.750
  24772385.560   130179788.593 5        38.500    24772386.640   101438814.20144
        34.750
  20865776.160   109650396.315 8        48.000    20865775.860    85441866.42548
        47.250
  21858676.320   114868208.357 8        48.250    21858674.800    89507736.76748
        45.250
  21319346.900   112034016.933 8        47.750    21319350.260    87299292.38048
        47.500
  23847403.600   125319017.799 6        41.500    23847407.620    97651240.74146
        39.000
 13 10 27  0 35  0.0000000  0 10G03G06G14G15G18G19G21G22G24G27
  24274920.060   127565563.597 6        39.500    24274924.080    99401745.87544
        34.500
  24196402.140   127153029.529 6        39.000    24196405.320    99080332.36346
        39.000
  23521959.240   123608789.137 6        41.000    23521960.820    96318577.11145
        36.750
  21923464.400   115208755.644 8        48.250    21923464.840    89773151.68648
        46.000
  20541232.500   107945059.184 8        48.750    20541232.160    84113107.91249
        49.500
  24766269.500   130147649.180 5        38.500    24766270.580   101413770.57644
        35.000
  20873504.560   109691009.312 8        48.000    20873504.280    85473512.90648
        47.000
  21846076.280   114801994.999 8        48.000    21846074.780    89456141.99648
        45.750
  21313404.900   112002791.917 8        47.750    21313408.260    87274961.23648
        47.750
  23851893.100   125342610.050 6        41.500    23851897.100    97669624.31346
        39.750
 13 10 27  0 35 30.0000000  0 10G03G06G14G15G18G19G21G22G24G27
  24280708.020   127595979.327 6        40.500    24280712.000    99425446.45344
        34.750
  24204810.400   127197215.798 6        39.500    24204813.780    99114763.22845
        36.000
  23504839.960   123518827.709 6        40.750    23504841.660    96248477.42245
        36.000
  21938605.980   115288325.105 8        48.000    21938606.480    89835153.85748
        45.250
  20537719.800   107926599.750 9        49.000    20537719.420    84098723.96649
        49.500
  24760254.920   130116042.924 5        38.000    24760256.040   101389142.37044
        34.000
  20881331.780   109732141.589 8        48.250    20881331.500    85505564.01548
        47.000
  21833506.760   114735942.007 8        48.250    21833505.240    89404672.17548
        45.750
  21307573.660   111972149.038 8        47.750    21307577.040    87251083.69448
        47.250
  23856480.360   125366716.639 6        41.500    23856484.340    97688408.68346
        39.250
 13 10 27  0 36  0.0000000  0 10G03G06G14G15G18G19G21G22G24G27
  24286593.440   127626907.258 6        39.750    24286597.400    99449546.17845
        37.000
  24213293.180   127241793.140 6        39.750    24213296.620    99149498.77445
        36.000
  23487759.240   123429068.534 6        41.000    23487761.120    96178535.33945
        36.500
  21953787.340   115368103.969 8        47.750    21953787.920    89897319.21248
        45.500
  20534257.640   107908406.008 9        49.000    20534257.240    84084547.04749
        49.500
  24754341.800   130084969.552 5        38.250    24754342.940   101364929.38144
        33.250
  20889257.440   109773791.284 8        48.000    20889257.200    85538018.31548
        46.750
  21820967.700   114670049.154 8        48.250    21820966.160    89353327.13248
        45.750
  21301853.300   111942088.713 8        48.000    21301856.680    87227660.10048
        47.500
  23861164.980   125391334.938 6        41.750    23861169.020    97707591.80346
        40.000
 13 10 27  0 36 30.0000000  0 10G03G06G14G15G18G19G21G22G24G27
  24292576.500   127658348.132 6        40.250    24292580.340    99474045.55644
        33.500
  24221850.560   127286762.257 6        40.000    24221854.100    99184539.63645
        37.250
  23470717.760   123339515.531 6        40.250    23470719.900    96108753.92746
        39.000
  21969008.640   115448093.018 8        48.000    21969009.300    89959648.34548
        45.500
  20530846.800   107890481.833 8        48.750    20530846.360    84070580.17849
        49.750
  24748530.740   130054432.646 5        37.500    24748531.780   101341134.49044
        35.750
  20897281.920   109815960.288 8        48.000    20897281.700    85570877.27448
        46.750
  21808459.880   114604320.424 8        48.250    21808458.320    89302109.98248
        45.250
  21296244.560   111912614.843 8        48.000    21296247.960    87204693.48148
        47.750
  23865947.280   125416466.260 7        42.250    23865951.340    97727174.66046
        39.000
 13 10 27  0 37  0.0000000  0 10G03G06G14G15G18G19G21G22G24G27
  24298655.920   127690295.535 6        39.750    24298659.740    99498939.63844
        35.000
  24230481.140   127332116.193 6        40.250    24230484.800    99219880.36544
        35.000
  23453714.820   123250165.169 6        41.250    23453717.180    96039130.38745
        37.500
  21984268.860   115528286.044 8        48.250    21984269.500    90022136.43048
        45.750
  20527486.560   107872823.703 8        48.750    20527486.120    84056820.61249
        49.500
  24742821.040   130024428.304 5        37.500    24742822.160   101317754.52644
        35.750
  20905404.220   109858643.396 8        48.000    20905404.060    85604136.83148
        47.000
  21795982.620   114538752.075 8        48.250    21795981.000    89251017.80348
        45.750
  21290746.860   111883724.240 8        48.000    21290750.280    87182181.36348
        48.000
  23870826.140   125442104.509 6        41.750    23870830.120    97747152.52646
        39.250
 13 10 27  0 37 30.0000000  0 10G03G06G14G15G18G19G21G22G24G27
  24304832.280   127722752.586 5        38.500    24304836.140    99524230.88045
        37.500
  24239185.540   127377857.842 6        40.500    24239189.180    99255523.20345
        37.500
  23436751.600   123161023.348 6        41.500    23436753.960    95969669.32944
        32.250
  21999568.500   115608685.938 8        48.000    21999569.120    90084785.68548
        45.250
  20524178.120   107855437.807 8        48.750    20524177.680    84043273.17949
        49.750
  24737213.800   129994962.829 6        39.750    24737215.100   101294794.46144
        33.000
  20913625.200   109901845.024 8        48.000    20913625.080    85637800.42348
        47.000
  21783537.100   114473350.552 8        48.250    21783535.440    89200055.61048
        45.500
  21285361.380   111855423.113 8        48.000    21285364.760    87160128.56748
        47.750
  23875802.060   125468253.103 6        41.000    23875806.080    97767528.06645
        37.750
 13 10 27  0 38  0.0000000  0 10G03G06G14G15G18G19G21G22G24G27
  24311104.100   127755711.667 6        39.250    24311108.060    99549913.26645
        37.750
  24247962.340   127423979.788 6        40.250    24247965.820    99291462.34344
        32.750
  23419827.380   123072085.861 7        42.250    23419829.440    95900367.44245
        36.750
  22014906.140   115689285.704 8        47.750    22014906.700    90147590.71648
        45.500
  20520920.540   107838319.200 8        48.750    20520920.120    84029934.02449
        49.500
  24731708.340   129966031.489 5        38.250    24731709.660   101272250.59644
        34.250
  20921943.600   109945558.627 8        48.000    20921943.540    85671862.96648
        46.500
  21771122.520   114408111.378 8        48.250    21771120.780    89149219.92748
        45.750
  21280087.260   111827707.162 8        48.250    21280090.580    87138531.75748
        47.750
  23880873.720   125494905.184 6        40.250    23880877.860    97788295.92246
        39.500
 13 10 27  0 38 30.0000000  0 10G03G06G14G15G18G19G21G22G24G27
  24317472.520   127789178.166 6        39.000    24317476.560    99575991.04944
        34.000
  24256812.360   127470486.587 6        40.000    24256815.660    99327701.40544
        34.500
  23402943.520   122983360.612 6        41.750    23402945.360    95831230.97044
        35.000
  22030282.820   115770090.608 8        48.250    22030283.300    90210555.58348
        45.250
  20517715.300   107821475.724 8        48.750    20517714.880    84016809.25949
        49.500
  24726306.100   129937641.921 5        37.000    24726307.280   101250128.91145
        38.000
  20930360.660   109989790.718 8        48.000    20930360.640    85706329.51848
        47.000
  21758740.340   114343042.520 8        48.500    21758738.560    89098516.97248
        45.750
  21274926.000   111800584.279 8        48.250    21274929.260    87117397.08748
        47.750
  23886042.120   125522066.114 6        40.750    23886046.400    97809460.31346
        40.250
 13 10 27  0 39  0.0000000  0 10G03G06G14G15G18G19G21G22G24G27
  24323936.380   127823145.934 5        38.500    24323940.380    99602459.43844
        35.500
  24265734.320   127517371.795 6        39.500    24265737.480    99364235.31544
        35.250
  23386099.360   122894844.204 6        41.000    23386101.140    95762257.23845
        38.750
  22045697.300   115851094.121 8        47.750    22045697.720    90273675.20548
        45.750
  20514561.840   107804904.140 8        48.750    20514561.360    84003896.34949
        49.500
  24721006.220   129909790.583 5        37.750    24721007.240   101228426.65145
        37.500
  20938875.320   110034535.498 8        48.000    20938875.300    85741195.57448
        46.750
  21746389.900   114278140.469 8        48.500    21746388.080    89047943.97448
        45.750
  21269877.040   111774051.550 8        48.250    21269880.220    87096722.25148
        48.000
  23891306.340   125549729.950 6        41.000    23891310.560    97831016.52245
        37.750
 13 10 27  0 39 30.0000000  0 10G03G06G14G15G18G19G21G22G24G27
  24330495.400   127857613.688 5        37.750    24330499.380    99629317.40644
        35.500
  24274727.920   127564633.766 6        40.250    24274731.100    99401062.79044
        33.500
  23369295.140   122806538.275 6        41.000    23369297.060    95693447.52745
        38.000
  22061149.340   115932295.405 8        47.750    22061149.800    90336948.92748
        45.000
  20511460.440   107788606.278 8        48.750    20511459.960    83991196.72949
        49.750
  24715809.080   129882479.042 5        38.000    24715809.900   101207144.97745
        38.250
  20947487.600   110079793.164 8        48.250    20947487.540    85776461.26648
        46.500
  21734071.620   114213407.429 8        48.500    21734069.760    88997502.68348
        46.000
  21264940.680   111748110.354 8        48.500    21264943.740    87076508.37148
        48.000
  23896666.040   125577895.708 6        40.750    23896670.360    97852963.87646
        39.000
 13 10 27  0 40  0.0000000  0 10G03G06G14G15G18G19G21G22G24G27
  24337149.060   127892578.590 5        36.750    24337153.080    99656562.79444
        32.250
  24283792.760   127612269.979 6        39.500    24283795.760    99438181.84544
        34.750
  23352531.040   122718443.360 6        40.500    23352533.140    95624802.23545
        36.750
  22076638.540   116013692.073 8        48.000    22076639.080    90400374.89447
        44.750
  20508411.220   107772582.687 8        48.750    20508410.760    83978710.83249
        49.500
  24710714.620   129855707.426 6        39.500    24710715.380   101186284.05045
        36.750
  20956197.260   110125562.452 8        48.000    20956197.140    85812125.63448
        46.750
  21721785.600   114148844.021 8        48.500    21721783.700    88947193.56948
        46.000
  21260117.160   111722762.128 8        48.250    21260120.080    87056756.54148
        48.250
  23902120.920   125606561.374 6        40.500    23902125.240    97875300.74746
        39.250
 13 10 27  0 40 30.0000000  0 10G03G06G14G15G18G19G21G22G24G27
  24343896.580   127928037.362 5        36.000    24343900.620    99684193.00044
        32.750
  24292928.060   127660276.152 6        39.500    24292931.020    99475589.22444
        34.500
  23335806.960   122630558.656 7        42.250    23335809.200    95556320.73044
        35.250
  22092164.300   116095280.514 8        47.750    22092164.840    90463950.30648
        45.000
  20505413.920   107756831.969 8        48.500    20505413.500    83966437.56049
        49.750
  24705722.700   129829474.521 5        38.750    24705723.380   101165842.88645
        38.750
  20965003.760   110171840.504 8        48.250    20965003.580    85848186.44448
        46.250
  21709531.680   114084449.371 8        48.500    21709529.780    88897015.96548
        46.250
  21255406.140   111698005.398 8        48.500    21255409.000    87037465.61448
        48.000
  23907670.180   125635723.450 6        40.250    23907674.620    97898024.45345
        38.750
 13 10 27  0 41  0.0000000  0 10G03G06G14G15G18G19G21G22G24G27
  24350738.220   127963991.516 5        38.250    24350742.200    99712223.21844
        34.500
  24302134.040   127708653.738 6        39.500    24302136.860    99513286.04043
        31.750
  23319123.900   122542888.871 7        42.250    23319126.060    95488006.67145
        36.750
  22107726.880   116177062.363 8        47.500    22107727.420    90527676.41248
        45.250
  20502469.380   107741358.585 8        48.750    20502468.980    83954380.39049
        49.750
  24700834.120   129803784.935 6        39.750    24700834.780   101145825.10545
        37.000
  20973907.520   110218629.827 8        48.000    20973907.300    85884645.64148
        46.500
  21697310.800   114020228.316 8        48.500    21697308.900    88846973.61848
        46.000
  21250808.580   111673845.113 8        48.250    21250811.400    87018639.44248
        48.250
  23913314.320   125665383.887 6        40.750    23913318.720    97921136.46745
        38.000
 13 10 27  0 41 30.0000000  0 10G03G06G14G15G18G19G21G22G24G27
  24357673.020   128000434.262 5        38.750    24357678.180    99740619.69844
        34.000
  24311409.780   127757397.994 6        40.000    24311412.440    99551268.58244
        33.000
  23302481.560   122455432.526 7        42.000    23302483.600    95419858.94345
        36.250
  22123325.480   116259033.423 8        47.750    22123326.000    90591549.96348
        45.000
  20499577.460   107726161.517 8        48.750    20499577.020    83942538.53349
        49.500
  24696048.600   129778636.861 6        40.500    24696049.240   101126229.23045
        38.000
  20982907.960   110265927.350 8        47.750    20982907.720    85921500.84048
        46.500
  21685122.640   113956179.418 8        48.250    21685120.780    88797065.43648
        46.000
  21246324.160   111650279.587 8        48.500    21246327.020    87000276.73148
        47.750
  23919052.560   125695538.566 6        41.250    23919056.880    97944633.62246
        39.500
 13 10 27  0 42  0.0000000  0 10G03G06G14G15G18G19G21G22G24G27
  24364701.620   128037367.468 4        35.500    24364705.240    99769398.83044
        34.250
  24320754.820   127806506.285 6        40.750    24320757.440    99589534.77044
        35.250
  23285879.940   122368190.277 6        41.750    23285881.840    95351878.04645
        38.250
  22138959.740   116341191.859 8        47.750    22138960.240    90655569.52648
        45.000
  20496738.220   107711241.157 8        48.750    20496737.760    83930912.28949
        49.750
  24691366.180   129754030.462 6        40.500    24691366.720   101107055.46445
        36.250
  20992004.740   110313731.396 8        47.750    20992004.520    85958750.73448
        46.500
  21672967.340   113892303.403 8        48.250    21672965.540    88747291.95848
        46.000
  21241953.060   111627309.448 8        48.250    21241955.900    86982377.95548
        48.250
  23924884.500   125726185.417 6        41.000    23924888.720    97968514.27946
        39.000
 13 10 27  0 42 30.0000000  0 10G03G06G14G15G18G19G21G22G24G27
  24371821.800   128074787.325 5        36.250    24371827.160    99798558.95441
        23.250
  24330168.960   127855977.278 6        40.250    24330171.580    99628083.56945
        37.000
  23269319.340   122281163.771 6        41.500    23269321.240    95284065.28045
        38.250
  22154629.500   116423536.872 8        47.500    22154630.020    90719734.45948
        45.250
  20493951.980   107696599.407 8        48.750    20493951.520    83919503.14749
        49.750
  24686787.120   129729967.442 6        39.250    24686787.760   101088305.14046
        39.000
  21001197.880   110362042.065 8        48.250    21001197.740    85996395.40348
        46.000
  21660845.340   113828602.281 8        48.250    21660843.580    88697654.77448
        46.000
  21237695.620   111604936.839 8        48.500    21237698.520    86964944.78148
        48.000
  23930809.920   125757323.631 6        40.750    23930814.060    97992777.83445
        38.750
 13 10 27  0 43  0.0000000  0 10G03G06G14G15G18G19G21G22G24G27
  24379035.820   128112696.079 5        38.000    24379039.700    99828098.28543
        28.750
  24339652.140   127905811.415 6        39.000    24339655.000    99666915.35845
        36.750
  23252800.560   122194357.088 7        42.500    23252802.400    95216423.79345
        37.000
  22170334.780   116506068.914 8        47.000    22170335.360    90784045.14148
        45.000
  20491219.460   107682239.917 8        48.500    20491219.000    83908313.94949
        49.750
  24682311.960   129706450.908 6        40.000    24682312.760   101069980.63645
        37.000
  21010487.860   110410861.336 8        48.000    21010487.740    86034436.37348
        46.000
  21648757.420   113765080.079 8        48.750    21648755.680    88648157.01048
        46.250
  21233552.580   111583165.477 8        48.250    21233555.540    86947980.11648
        48.250
  23936829.060   125788954.131 6        41.500    23936833.060    98017424.98945
        38.750
 13 10 27  0 43 30.0000000  0 10G03G06G14G15G18G19G21G22G24G27
  24386341.620   128151086.925 5        37.500    24386344.940    99858013.26043
        30.000
  24349203.120   127956002.501 6        39.750    24349206.280    99706025.26844
        35.000
  23236322.980   122107766.999 7        42.000    23236324.760    95148951.09745
        37.250
  22186074.600   116588782.647 8        47.750    22186075.280    90848497.38647
        44.000
  20488540.160   107668160.053 8        48.750    20488539.660    83897342.63449
        49.750
  24677940.200   129683477.793 6        39.250    24677941.100   101052079.52245
        37.500
  21019873.680   110460184.069 8        48.000    21019873.560    86072869.66348
        46.000
  21636703.060   113701734.022 8        48.500    21636701.280    88598796.49248
        46.250
  21229523.240   111561991.793 8        48.500    21229526.280    86931481.16748
        48.250
  23942940.900   125821071.412 6        40.750    23942944.640    98042451.43744
        35.500
 13 10 27  0 44  0.0000000  0 10G03G06G14G15G18G19G21G22G24G27
  24393738.560   128189956.838 6        39.500    24393741.820    99888301.51943
        30.250
  24358821.380   128006547.190 5        38.750    24358824.860    99745410.71445
        38.500
  23219886.680   122021393.917 6        41.500    23219888.260    95081647.44445
        37.250
  22201848.500   116671675.251 8        47.500    22201849.200    90913089.01948
        45.000
  20485914.000   107654359.534 8        48.750    20485913.480    83886589.00349
        49.500
  24673671.820   129661047.646 6        40.250    24673672.760   101034601.52645
        37.500
  21029354.880   110510007.899 8        48.000    21029354.740    86111693.41848
        46.000
  21624682.240   113638564.304 8        48.750    21624680.460    88549573.38548
        46.500
  21225607.840   111541416.606 8        48.500    21225610.940    86915448.58848
        48.500
  23949144.820   125853672.709 6        40.500    23949148.300    98067855.03645
        36.750
 13 10 27  0 44 30.0000000  0 10G03G06G14G15G18G19G21G22G24G27
  24401226.860   128229306.895 5        38.500    24401229.900    99918963.93043
        30.500
  24368507.180   128057446.489 6        39.250    24368510.780    99785072.46645
        36.500
  23203492.260   121935241.531 6        41.000    23203493.780    95014515.80044
        35.750
  22217656.800   116754748.441 8        47.500    22217657.520    90977821.35948
        45.250
  20483341.780   107640842.301 8        48.750    20483341.220    83876056.10549
        49.750
  24669507.540   129639164.352 6        39.500    24669508.420   101017549.68445
        38.000
  21038931.960   110560335.552 8        48.250    21038931.820    86150909.75548
        46.000
  21612695.840   113575575.389 8        48.750    21612694.020    88500491.16348
        46.000
  21221807.040   111521443.574 8        48.250    21221810.200    86899885.21148
        48.500
  23955441.060   125886759.540 6        39.500    23955444.440    98093636.97645
        37.000
 13 10 27  0 45  0.0000000  0 10G03G06G14G15G18G19G21G22G24G27
  24408805.720   128269133.524 6        39.500    24408808.580    99949997.71643
        30.750
  24378259.740   128108696.663 5        38.500    24378263.400    99825007.62645
        38.500
  23187139.760   121849309.848 6        41.750    23187141.320    94947556.12545
        36.750
  22233498.840   116837998.805 8        47.500    22233499.560    91042691.76248
        45.250
  20480823.440   107627608.169 8        48.750    20480822.840    83865743.81149
        49.500
  24665447.080   129617826.921 6        39.500    24665447.980   101000923.18945
        37.500
  21048604.440   110611164.470 8        48.000    21048604.240    86190516.69048
        46.000
  21600743.800   113512767.042 9        49.000    21600741.940    88451549.63748
        46.250
  21218120.680   111502071.892 8        48.250    21218123.900    86884790.42148
        48.500
  23961828.920   125920328.609 6        39.750    23961832.380    98119794.68845
        38.000
 13 10 27  0 45 30.0000000  0 10G03G06G14G15G18G19G21G22G24G27
  24416474.420   128309432.712 6        39.500    24416477.240    99981399.69944
        32.000
  24388078.220   128160293.300 5        38.250    24388081.880    99865212.79844
        34.500
  23170829.100   121763597.674 7        42.750    23170830.760    94880767.48545
        37.750
  22249373.960   116921422.898 8        47.500    22249374.640    91107697.53647
        44.500
  20478358.780   107614656.112 8        48.500    20478358.120    83855651.31149
        49.750
  24661490.240   129597033.810 6        40.000    24661491.180   100984720.83445
        38.500
  21058371.680   110662491.429 8        47.750    21058371.460    86230511.71248
        45.750
  21588825.980   113450138.376 8        48.750    21588824.020    88402748.12348
        46.500
  21214548.640   111483300.853 8        48.250    21214551.840    86870163.66848
        48.250
  23968307.800   125954376.121 6        40.250    23968311.540    98146325.21345
        37.750
 13 10 27  0 46  0.0000000  0 10G03G06G14G15G18G19G21G22G24G27
  24424232.880   128350203.671 6        39.750    24424235.580   100013169.30044
        32.750
  24397962.480   128212235.631 6        39.000    24397966.180    99905687.32544
        32.000
  23154560.800   121678107.314 7        42.750    23154562.520    94814151.71145
        37.000
  22265282.080   117005020.409 8        47.250    22265282.700    91172838.46347
        44.500
  20475948.260   107601988.736 8        48.750    20475947.560    83845780.64949
        49.500
  24657637.360   129576786.828 6        39.750    24657638.280   100968944.04146
        39.750
  21068233.720   110714316.820 8        48.000    21068233.500    86270895.12248
        46.000
  21576942.840   113387692.119 8        48.750    21576940.820    88354088.73948
        46.250
  21211091.280   111465132.558 8        48.250    21211094.500    86856006.58048
        48.500
  23974877.760   125988901.772 6        40.500    23974881.700    98173228.27045
        38.250
 13 10 27  0 46 30.0000000  0 10G03G06G14G15G18G19G21G22G24G27
  24432080.620   128391444.225 6        39.250    24432083.200   100045304.80344
        32.500
  24407912.160   128264521.248 6        39.750    24407915.800    99946429.37443
        30.000
  23138335.020   121592839.894 7        42.250    23138336.760    94747709.64345
        37.750
  22281222.780   117088789.371 8        47.250    22281223.360    91238112.98547
        44.500
  20473591.980   107589606.653 8        48.750    20473591.300    83836132.28749
        49.750
  24653888.600   129557086.904 6        40.500    24653889.320   100953593.51045
        38.500
  21078190.400   110766639.621 8        48.000    21078190.200    86311666.12348
        45.750
  21565094.620   113325429.348 8        48.750    21565092.540    88305572.33548
        46.250
  21207748.740   111447567.726 8        48.250    21207751.960    86842319.72448
        48.250
  23981538.400   126023903.598 6        40.500    23981542.400    98200502.40445
        37.750
 13 10 27  0 47  0.0000000  0 10G03G06G14G15G18G19G21G22G24G27
  24440017.520   128433153.402 6        40.250    24440020.320   100077805.52644
        33.250
  24417926.940   128317149.057 6        39.250    24417930.540    99987438.03845
        36.750
  23122151.960   121507797.351 7        42.000    23122153.680    94681442.83745
        36.000
  22297196.060   117172729.706 8        47.250    22297196.700    91303521.00547
        44.500
  20471290.520   107577512.552 8        48.500    20471289.840    83826708.32849
        49.500
  24650244.280   129537935.639 6        40.750    24650244.880   100938670.47944
        35.000
  21088241.760   110819459.832 8        48.000    21088241.580    86352824.71348
        45.500
  21553281.800   113263352.612 8        48.750    21553279.660    88257200.89048
        46.250
  21204521.500   111430608.712 8        48.250    21204524.720    86829104.94148
        48.500
  23988289.560   126059381.130 6        40.750    23988293.580    98228147.23945
        38.750
 13 10 27  0 47 30.0000000  0 10G03G06G14G15G18G19G21G22G24G27
  24448042.780   128475326.596 6        41.250    24448045.720   100110667.73644
        33.750
  24428005.840   128370114.183 6        40.000    24428009.400   100028709.59644
        33.500
  23106011.440   121422978.466 7        43.000    23106013.080    94615350.28244
        34.500
  22313201.120   117256837.163 8        47.000    22313201.840    91369059.28347
        44.250
  20469043.520   107565704.658 8        48.750    20469042.860    83817507.38649
        49.750
  24646703.900   129519330.848 6        41.000    24646704.480   100924173.30344
        34.750
  21098387.060   110872773.754 8        48.000    21098386.880    86394368.01448
        45.750
  21541504.060   113201460.418 8        48.750    21541501.940    88208973.24448
        46.500
  21201409.160   111414253.528 8        48.250    21201412.400    86816360.66448
        48.500
  23995130.440   126095329.890 6        41.500    23995134.460    98256159.26146
        39.750
 13 10 27  0 48  0.0000000  0 10G03G06G14G15G18G19G21G22G24G27
  24456156.160   128517962.541 6        39.500    24456159.220   100143890.55545
        36.250
  24438148.700   128423415.125 6        40.500    24438152.220   100070242.79944
        35.750
  23089913.760   121338384.779 7        42.750    23089915.380    94549433.20245
        38.250
  22329237.860   117341110.966 8        47.000    22329238.640    91434727.17647
        44.500
  20466851.300   107554184.561 8        48.750    20466850.660    83808530.70049
        49.750
  24643267.720   129501273.821 6        39.000    24643268.300   100910102.93545
        37.500
  21108626.340   110926581.418 8        48.000    21108626.160    86436296.04648
        45.500
  21529761.900   113139755.486 8        48.750    21529759.840    88160891.51548
        46.500
  21198411.960   111398503.373 8        48.250    21198415.240    86804087.84848
        48.500
  24002060.860   126131748.967 7        42.500    24002064.860    98284537.74745
        38.250
 13 10 27  0 48 30.0000000  0 10G03G06G14G15G18G19G21G22G24G27
  24464356.980   128561058.186 6        40.250    24464360.100   100177471.57644
        32.500
  24448354.960   128477048.711 6        40.500    24448358.300   100112035.20044
        32.000
  23073859.020   121254016.598 7        42.750    23073860.640    94483691.83846
        39.250
  22345305.820   117425548.747 8        46.750    22345306.640    91500522.85847
        44.750
  20464713.960   107542952.832 8        48.750    20464713.320    83799778.71949
        50.000
  24639935.640   129483764.219 5        38.750    24639936.260   100896459.14944
        32.250
  21118959.160   110980880.688 8        47.750    21118958.980    86478607.15148
        45.750
  21518055.380   113078237.879 8        48.750    21518053.400    88112955.75148
        46.750
  21195529.980   111383358.500 8        48.500    21195533.260    86792286.66948
        48.750
  24009080.320   126168635.604 6        41.750    24009084.260    98313280.57045
        38.250
 13 10 27  0 49  0.0000000  0 10G03G06G14G15G18G19G21G22G24G27
  24472645.380   128604614.116 5        38.250    24472648.640   100211411.27944
        34.750
  24458624.560   128531015.182 6        39.750    24458627.680   100154087.03644
        34.250
  23057847.820   121169877.285 7        42.250    23057849.500    94418128.83745
        38.250
  22361405.140   117510151.274 8        47.250    22361406.040    91566446.88447
        44.750
  20462632.180   107532012.978 8        48.500    20462631.520    83791254.17249
        49.750
  24636708.160   129466804.654 5        37.000    24636708.780   100883243.93245
        38.750
  21129385.780   111035673.001 8        47.750    21129385.640    86521302.44148
        45.500
  21506385.240   113016911.150 8        48.750    21506383.280    88065168.72748
        46.750
  21192763.860   111368822.317 8        48.500    21192767.080    86780959.81048
        48.500
  24016188.800   126205990.432 6        40.750    24016192.660    98342388.23546
        39.750
 13 10 27  0 49 30.0000000  0 10G03G06G14G15G18G19G21G22G24G27
  24481020.300   128648625.317 5        38.500    24481023.720   100245705.71943
        29.500
  24468956.540   128585309.507 5        38.500    24468959.380   100196394.26443
        31.000
  23041879.780   121085965.209 7        43.750    23041881.540    94352742.89745
        36.500
  22377535.020   117594914.176 8        47.000    22377535.960    91632495.90547
        44.250
  20460605.540   107521363.094 8        48.500    20460604.900    83782955.57449
        49.750
  24633584.980   129450393.517 6        39.500    24633585.620   100870456.08044
        34.500
  21139905.420   111090954.219 8        47.750    21139905.340    86564378.69948
        45.750
  21494751.200   112955773.951 9        49.000    21494749.260    88017529.38248
        47.250
  21190113.180   111354892.771 8        48.500    21190116.340    86770105.64148
        48.500
  24023385.400   126243808.855 6        40.750    24023389.320    98371857.10146
        39.500
 13 10 27  0 50  0.0000000  0 10G03G06G14G15G18G19G21G22G24G27
  24489481.540   128693089.951 5        37.500    24489485.080   100280353.45944
        32.250
  24479350.320   128639929.844 5        37.750    24479353.320   100238955.52045
        37.750
  23025955.320   121002281.928 7        43.000    23025956.960    94287535.21445
        38.500
  22393695.240   117679836.548 8        47.000    22393696.180    91698669.16547
        44.000
  20458634.420   107511004.852 8        48.500    20458633.760    83774884.23049
        50.000
  24630566.380   129434531.242 5        38.500    24630566.900   100858095.90744
        35.000
  21150518.000   111146723.577 8        48.000    21150517.920    86607835.33148
        45.500
  21483153.620   112894828.205 9        49.000    21483151.680    87970039.22748
        47.000
  21187578.120   111341570.760 8        48.500    21187581.220    86759724.88448
        48.750
  24030669.920   126282089.497 6        41.250    24030673.860    98401686.14046
        40.250
 13 10 27  0 50 30.0000000  0 10G03G06G14G15G18G19G21G22G24G27
  24498028.580   128738005.348 5        37.750    24498032.180   100315352.46044
        32.500
  24489805.560   128694873.265 5        37.250    24489808.880   100281768.55944
        33.750
  23010074.480   120918827.734 7        42.250    23010075.980    94222506.04446
        39.000
  22409885.340   117764915.961 8        47.000    22409886.260    91764964.81347
        43.750
  20456718.860   107500938.697 8        48.500    20456718.200    83767040.49449
        50.000
  24627652.200   129419217.619 5        38.000    24627652.760   100846163.23844
        33.750
  21161223.220   111202979.683 8        48.000    21161223.100    86651671.24448
        45.250
  21471592.660   112834074.884 9        49.000    21471590.700    87922699.01248
        47.000
  21185158.680   111328856.490 8        48.750    21185161.720    86749817.68348
        48.500
  24038041.920   126320829.876 6        40.750    24038045.940    98431873.43246
        39.250
 13 10 27  0 51  0.0000000  0 10G03G06G14G15G18G19G21G22G24G27
  24506661.100   128783369.868 5        37.750    24506664.720   100350701.49144
        35.500
  24500321.840   128750137.814 5        37.750    24500325.500   100324831.84044
        35.250
  22994237.460   120835604.050 7        43.000    22994238.940    94157656.49845
        37.750
  22426105.180   117850151.506 8        47.250    22426106.000    91831382.11647
        44.000
  20454859.220   107491166.231 8        48.500    20454858.560    83759425.60249
        50.000
  24624842.600   129404453.566 6        39.250    24624843.080   100834658.81445
        36.000
  21172020.920   111259721.654 8        47.750    21172020.780    86695885.75247
        44.750
  21460068.600   112773515.569 9        49.000    21460066.620    87875509.97048
        46.750
  21182855.080   111316750.804 8        48.750    21182858.080    86740384.70848
        48.500
  24045501.140   126360028.617 6        39.250    24045505.280    98462417.88946
        40.750
 13 10 27  0 51 30.0000000  0 10G03G06G14G15G18G19G21G22G24G27
  24515378.340   128829179.323 5        37.000    24515382.000   100386397.12844
        35.500
  24510898.680   128805719.613 6        39.750    24510902.460   100368142.31044
        35.750
  22978444.160   120752610.405 7        43.250    22978445.680    94092986.20845
        38.750
  22442354.220   117935540.494 8        46.500    22442354.960    91897918.98347
        44.250
  20453055.380   107481686.946 8        48.750    20453054.720    83752039.16449
        50.000
  24622137.420   129390237.862 5        38.750    24622137.780   100823581.68144
        33.500
  21182910.540   111316946.772 8        47.500    21182910.360    86740476.73748
        45.250
  21448581.400   112713149.975 9        49.000    21448579.360    87828471.87448
        46.750
  21180667.180   111305253.281 8        48.500    21180670.160    86731425.62148
        48.750
  24053046.780   126399682.145 5        38.750    24053051.200    98493316.70545
        37.500
 13 10 27  0 52  0.0000000  0 10G03G06G14G15G18G19G21G22G24G27
  24524180.120   128875433.228 5        36.500    24524183.860   100422439.12243
        30.000
  24521535.840   128861617.963 6        39.750    24521539.600   100411699.43844
        34.750
  22962695.180   120669849.296 7        43.250    22962696.700    94028497.12545
        38.750
  22458632.300   118021082.395 8        47.000    22458633.040    91964575.00747
        43.250
  20451307.880   107472503.648 8        48.500    20451307.200    83744883.36649
        49.750
  24619536.960   129376572.318 5        38.500    24619537.340   100812933.26344
        35.500
  21193892.140   111374655.425 8        47.500    21193891.960    86785444.50048
        45.250
  21437131.620   112652981.241 9        49.000    21437129.560    87781587.17848
        46.750
  21178595.440   111294366.226 8        48.750    21178598.400    86722942.22748
        48.500
  24060678.920   126439790.140 6        39.000    24060683.560    98524569.66346
        40.000
 13 10 27  0 52 30.0000000  0 10G03G06G14G15G18G19G21G22G24G27
  24533065.780   128922128.162 5        36.750    24533069.680   100458824.75044
        35.000
  24532232.600   128917829.202 6        40.000    24532236.220   100455500.39242
        26.750
  22946990.440   120587320.477 7        43.500    22946992.000    93964189.04546
        39.250
  22474939.060   118106774.810 8        47.000    22474939.720    92031348.31847
        43.500
  20449616.620   107463616.151 8        48.500    20449615.920    83737958.06249
        49.750
  24617040.960   129363455.999 5        38.000    24617041.360   100802712.75844
        33.250
  21204965.240   111432845.045 8        47.500    21204965.080    86830787.04548
        45.250
  21425719.340   112593009.557 9        49.000    21425717.280    87734856.03348
        46.750
  21176639.620   111284088.257 8        48.500    21176642.520    86714933.44848
        48.500
  24068397.020   126480349.368 6        39.000    24068401.760    98556174.23045
        38.250