     2.11           OBSERVATION DATA    G (GPS)             RINEX VERSION / TYPE
teqc  2012Jun6      gpsops              20130423 00:26:44UTCPGM / RUN BY / DATE
    30.0000                                                 INTERVAL
     1     1                                                WAVELENGTH FACT L1/2
     7    L1    L2    P1    P2    C1    S1    S2            # / TYPES OF OBSERV
Linux 2.4.21-27.ELsmp|Opteron|gcc -static|Linux x86_64|=+   COMMENT
     2.10           OBSERVATION DATA    GPS                 COMMENT
soc2rnx ver 1.20    gpsops              23-Apr-2013 00:26:43COMMENT
S1, if present, is the SNR for the C/A data stream on L1.   COMMENT
 SNR is mapped to RINEX snr flag value [1,4-9]              COMMENT
    SNR:   >316  >100  >31.6  >10  >3.2    >0 bad=0         COMMENT
L1 & L2:      9     8     7     6     5     4     1         COMMENT
GGN                 SHANGHAI OBSERVATORY                    OBSERVER / AGENCY
429                 AOAD/M_T        JPLA                    ANT # / TYPE
 -2831733.5830  4675665.9580  3275369.4100                  APPROX POSITION XYZ
        0.0814        0.0000        0.0000                  ANTENNA: DELTA H/E/N
UC2200524020        ASHTECH UZ-12       CQ00                REC # / TYPE / VERS
SHAO                                                        MARKER NAME
21605M002                                                   MARKER NUMBER
                                                            COMMENT
This data is provided as a public service by NASA/JPL.      COMMENT
No warranty is expressed or implied regarding suitability   COMMENT
for use.  For further information, contact:                 COMMENT
Dave Stowers, NASA/JPL m/s 238-600                          COMMENT
4800 Oak Grove Drive, Pasadena CA 91109 USA                 COMMENT
                                                            COMMENT
Forced Modulo Decimation to 30 seconds                      COMMENT
  2013     4    22     0     0    0.0000000     GPS         TIME OF FIRST OBS
                                                            END OF HEADER
 13  4 22  0  0  0.0000000  0  9G15G02G05G26G21G18G29G09G24
 107080262.62947  83439157.30947  20376702.2914   20376706.5234   20376702.2194
        56.000          52.000
 129208527.11447 100681937.38847  24587587.9944   24587595.2784   24587588.8324
        43.000          37.000
 119103191.88447  92807675.45647  22664589.0444   22664595.0934   22664588.9294
        51.000          46.000
 112618896.20147  87754973.41347  21430672.5994   21430677.8604   21430672.8214
        54.000          47.000
 118661518.24547  92463515.65547  22580538.0514   22580542.1994   22580537.8804
        50.000          45.000
 127321593.31247  99211602.80547  24228514.5524   24228519.8384   24228515.2964
        45.000          39.000
 123380511.71747  96140635.38447  23478546.5604   23478552.4854   23478546.1934
        48.000          42.000
 111695241.36847  87035232.37747  21254912.9084   21254918.2284   21254912.5574
        53.000          48.000
 115475666.87847  89981014.28647  21974307.9234   21974315.1254   21974307.0374
        52.000          47.000
 13  4 22  0  0 30.0000000  0  9G15G02G05G26G21G18G29G09G24
 107094976.05647  83450622.29847  20379502.2704   20379506.2804   20379501.7954
        56.000          52.000
 129323100.76747 100771215.39747  24609392.2524   24609398.1364   24609392.2164
        42.000          37.000
 119157465.78947  92849966.77647  22674917.0704   22674922.1164   22674917.0634
        51.000          46.000
 112703075.96547  87820567.98247  21446691.4054   21446697.0164   21446691.3824
        53.000          48.000
 118581368.55047  92401061.37847  22565285.5514   22565290.6864   22565285.7374
        50.000          45.000
 127249984.04547  99155803.42447  24214887.0134   24214893.6294   24214887.9974
        45.000          39.000
 123453076.47947  96197179.30047  23492355.1314   23492361.2924   23492355.3154
        48.000          42.000
 111723269.25947  87057072.26047  21260246.0354   21260251.6804   21260246.1484
        54.000          48.000
 115385477.04147  89910736.51647  21957145.1964   21957152.5494   21957144.6234
        52.000          48.000
 13  4 22  0  1  0.0000000  0  9G15G02G05G26G21G18G29G09G24
 107110026.64347  83462350.01347  20382366.2964   20382370.1754   20382365.8954
        56.000          52.000
 129437744.00447 100860547.61347  24631209.1614   24631213.9054   24631208.3834
        44.000          38.000
 119211912.07347  92892392.40847  22685278.0494   22685283.4494   22685277.6754
        51.000          46.000
 112787474.10347  87886332.70947  21462751.8494   21462758.0394   21462751.5894
        53.000          48.000
 118501520.26047  92338841.95647  22550090.9774   22550095.6824   22550091.5244
        50.000          45.000
 127178320.80747  99099961.97647  24201250.0584   24201256.6684   24201250.9434
        46.000          39.000
 123525796.59847  96253844.27047  23506193.9354   23506199.7274   23506194.0784
        48.000          42.000
 111751941.95947  87079414.60647  21265702.4174   21265707.6494   21265702.3134
        53.000          48.000
 115295597.37347  89840700.43447  21940041.6054   21940048.9524   21940041.1514
        53.000          48.000
 13  4 22  0  1 30.0000000  0  9G15G02G05G26G21G18G29G09G24
 107125414.26047  83474340.34947  20385294.4464   20385298.5074   20385294.1524
        56.000          52.000
 129552455.31747 100949932.91847  24653037.4264   24653042.4184   24653037.9384
        43.000          38.000
 119266532.59047  92934953.80747  22695672.1314   22695677.5574   22695671.7504
        51.000          46.000
 112872089.08647  87952266.40647  21478853.5744   21478859.9234   21478853.4394
        53.000          48.000
 118421976.94647  92276860.17147  22534954.4804   22534959.2114   22534954.7214
        50.000          45.000
 127106605.11347  99044079.67347  24187602.9804   24187609.3304   24187603.4424
        46.000          39.000
 123598669.79747  96310628.50447  23520061.3174   23520067.4844   23520061.7344
        48.000          42.000
 111781259.56647  87102259.47147  21271281.2084   21271286.6894   21271281.2054
        54.000          48.000
 115206032.15647  89770909.37847  21922997.7044   21923005.3524   21922997.4674
        52.000          48.000
 13  4 22  0  2  0.0000000  0  9G15G02G05G26G21G18G29G09G24
 107141136.10647  83486591.12747  20388286.1564   20388290.2834   20388285.7924
        56.000          52.000
 129667231.10847 101039368.43747  24674878.3774   24674884.0994   24674879.3074
        46.000          39.000
 119321326.40347  92977650.25347  22706098.7054   22706104.5104   22706098.3794
        51.000          46.000
 112956917.14847  88018366.14247  21494996.0254   21495002.3364   21494995.9234
        53.000          48.000
 118342739.29047  92215116.57647  22519875.4504   22519881.0504   22519875.8024
        50.000          45.000
 127034835.74547  98988155.52147  24173946.0504   24173951.6614   24173945.9724
        46.000          39.000
 123671691.58147  96367528.53547  23533957.1104   23533962.8874   23533957.4204
        47.000          42.000
 111811219.83147  87125605.11847  21276982.7854   21276988.3204   21276982.9174
        54.000          48.000
 115116782.65147  89701364.34247  21906013.9114   21906021.7914   21906013.2824
        52.000          48.000
 13  4 22  0  2 30.0000000  0  9G15G02G05G26G21G18G29G09G24
 107157190.25547  83499100.84147  20391341.2214   20391345.3184   20391340.8774
        56.000          52.000
 129782068.68047 101128852.09347  24696731.4304   24696737.6854   24696732.3544
        45.000          38.000
 119376293.64047  93020481.83547  22716558.8754   22716563.9474   22716558.4644
        51.000          45.000
 113041955.51347  88084629.74647  21511178.5904   21511184.6274   21511178.6534
        53.000          48.000
 118263810.38647  92153613.56047  22504856.0124   22504861.2874   22504856.1604
        50.000          45.000
 126963012.79947  98932189.61347  24160278.5794   24160284.1944   24160279.4474
        45.000          39.000
 123744858.91647  96424541.95547  23547880.3334   23547886.3374   23547880.1744
        47.000          43.000
 111841821.26547  87149450.36847  21282805.7064   21282811.7504   21282805.7414
        53.000          48.000
 115027851.52647  89632067.38547  21889091.0944   21889098.7994   21889090.5414
        52.000          48.000
 13  4 22  0  3  0.0000000  0  9G15G02G05G26G21G18G29G09G24
 107173574.76647  83511867.99247  20394459.2144   20394463.1474   20394458.7834
        56.000          52.000
 129896965.43547 101218381.86947  24718595.5134   24718602.0934   24718596.4634
        44.000          38.000
 119431434.04047  93063448.34947  22727052.0364   22727056.7924   22727051.8664
        51.000          46.000
 113127201.19247  88151054.88947  21527400.4614   21527406.3074   21527400.4034
        53.000          48.000
 118185191.98747  92092352.49047  22489895.8744   22489900.5524   22489896.1164
        51.000          46.000
 126891136.26247  98876181.93847  24146600.9894   24146606.7684   24146601.7924
        46.000          40.000
 123818167.98047  96481665.82847  23561830.6364   23561836.4754   23561830.4934
        48.000          42.000
 111873062.37647  87173794.06947  21288751.0334   21288756.5374   21288750.9864
        53.000          48.000
 114939240.84047  89563020.11647  21872229.0774   21872236.6874   21872228.4204
        53.000          48.000
 13  4 22  0  3 30.0000000  0  9G15G02G05G26G21G18G29G09G24
 107190290.93447  83524893.57547  20397640.2254   20397644.3204   20397639.8904
        56.000          52.000
 130011921.08347 101307957.50247  24740470.7014   24740477.4754   24740471.5244
        43.000          37.000
 119486750.72647  93106552.22047  22737578.0644   22737583.4974   22737577.8254
        50.000          46.000
 113212654.19147  88217641.59847  21543661.3874   21543667.1334   21543661.2704
        53.000          47.000
 118106888.52047  92031336.82647  22474995.4464   22475000.0074   22474995.8744
        51.000          46.000
 126819208.72647  98820134.54447  24132913.8064   24132920.3034   24132913.8354
        44.000          40.000
 123891618.49347  96538899.92747  23575807.2974   23575813.7094   23575807.1214
        47.000          42.000
 111904944.61447  87198637.35447  21294817.6124   21294824.2494   21294817.8354
        53.000          48.000
 114850956.02847  89494226.78547  21855429.0264   21855436.6614   21855428.4964
        52.000          48.000
 13  4 22  0  4  0.0000000  0  9G15G02G05G26G21G18G29G09G24
 107207334.97047  83538174.63747  20400883.6264   20400887.8824   20400883.3464
        56.000          52.000
 130126931.66247 101397575.96347  24762357.1304   24762363.6544   24762357.1714
        42.000          36.000
 119542241.81447  93149792.01447  22748137.7774   22748142.9944   22748137.2254
        51.000          45.000
 113298310.17047  88284386.46047  21559960.9544   21559966.8354   21559960.5854
        53.000          47.000
 118028901.67447  91970567.88147  22460154.8044   22460159.6894   22460155.2274
        51.000          46.000
 126747228.89447  98764046.39947  24119215.4594   24119222.5464   24119215.9994
        45.000          40.000
 123965205.45647  96596240.35547  23589810.8114   23589816.5834   23589810.5444
        47.000          42.000
 111937465.11147  87223977.98347  21301005.9214   21301012.6094   21301005.9244
        53.000          48.000
 114762998.17747  89425688.21847  21838691.0374   21838698.8094   21838690.4504
        53.000          48.000
 13  4 22  0  4 30.0000000  0  9G15G02G05G26G21G18G29G09G24
 107224706.37047  83551710.79047  20404189.4494   20404193.4404   20404189.1024
        56.000          52.000
 130241995.88647 101487236.17447  24784252.3114   24784258.8924   24784253.0914
        39.000          34.000
 119597908.68047  93193168.76747  22758730.9174   22758735.5774   22758730.5804
        50.000          45.000
 113384167.52147  88351288.23547  21576299.4314   21576305.1694   21576299.3474
        53.000          47.000
 117951234.72947  91910048.21647  22445375.1864   22445379.9864   22445375.4764
        51.000          46.000
 126675197.68047  98707918.23347  24105508.3404   24105516.2144   24105508.4844
        45.000          40.000
 124038926.64147  96653685.36247  23603839.3414   23603846.0254   23603839.0304
        46.000          42.000
 111970623.23947  87249815.47147  21307316.1054   21307322.0444   21307316.2054
        53.000          48.000
 114675371.05647  89357407.36547  21822016.4054   21822023.9614   21822015.9454
        53.000          48.000
 13  4 22  0  5  0.0000000  0  9G15G02G05G26G21G18G29G09G24
 107242402.74647  83565500.17247  20407556.7794   20407560.9704   20407556.4314
        56.000          52.000
 130357110.04547 101576935.28947  24806158.9394   24806166.3384   24806159.2914
        40.000          34.000
 119653750.51047  93236681.85447  22769356.8274   22769362.8264   22769356.4274
        50.000          45.000
 113470222.72947  88418344.18247  21592675.2254   21592680.8394   21592675.1804
        53.000          47.000
 117873888.43947  91849778.40547  22430656.6614   22430661.3974   22430657.4184
        51.000          46.000
 126603114.33647  98651749.41647  24091791.1114   24091798.5204   24091790.9234
        45.000          40.000
 124112777.90647  96711231.74147  23617892.5124   23617899.6064   23617892.2604
        47.000          42.000
 112004416.82147  87276148.11847  21313746.7494   21313752.5914   21313746.6274
        53.000          48.000
 114588075.96047  89289385.23947  21805404.7674   21805412.1884   21805404.4184
        53.000          48.000
 13  4 22  0  5 30.0000000  0  8G15G05G26G21G18G29G09G24
 107260423.21547  83579542.09347  20410985.8994   20410990.1084   20410985.4444
        56.000          52.000
 119709768.51847  93280332.20747  22780016.7254   22780022.5954   22780016.6344
        50.000          45.000
 113556474.18147  88485553.05347  21609088.3994   21609093.8354   21609088.4214
        53.000          47.000
 117796866.16247  91789761.07847  22415999.4844   22416004.5004   22415999.9744
        51.000          46.000
 126530980.38147  98595541.14347  24078064.8744   24078071.7034   24078064.5964
        44.000          40.000
 124186757.06147  96768877.76647  23631970.3554   23631976.5434   23631969.6574
        46.000          42.000
 112038845.46747  87302975.60547  21320298.6154   21320304.0754   21320298.8084
        54.000          48.000
 114501116.86947  89221624.92847  21788856.8214   21788864.3864   21788856.4164
        53.000          48.000
 13  4 22  0  6  0.0000000  0  8G15G05G26G21G18G29G09G24
 107278764.25547  83593833.80647  20414476.1074   20414480.3084   20414475.6504
        56.000          52.000
 119765961.16147  93324118.65747  22790710.0114   22790715.1534   22790709.4714
        49.000          45.000
 113642917.67847  88552911.56247  21625537.9244   21625543.2384   21625537.7054
        53.000          47.000
 117720168.88147  91729996.98747  22401404.6044   22401409.4074   22401405.0604
        51.000          46.000
 126458794.19347  98539292.19647  24064328.1554   24064334.8004   24064328.5804
        45.000          40.000
 124260859.55647  96826619.87847  23646072.0484   23646077.9354   23646071.8764
        47.000          42.000
 112073906.23847  87330295.66547  21326970.5524   21326976.0484   21326970.8384
        53.000          48.000
 114414494.46147  89154126.96847  21772372.8834   21772380.6674   21772372.3774
        53.000          48.000
 13  4 22  0  6 30.0000000  0  8G15G05G26G21G18G29G09G24
 107297426.62147  83608375.90947  20418027.3764   20418031.5134   20418027.0564
        56.000          52.000
 119822331.03047  93368043.20447  22801436.5894   22801441.9734   22801435.9534
        49.000          45.000
 113729553.12647  88620419.65847  21642024.3904   21642029.5324   21642024.2504
        53.000          47.000
 117643801.63947  91670490.07747  22386872.2734   22386877.3194   22386872.8234
        51.000          46.000
 126386558.64647  98483004.79347  24050581.8454   24050588.7814   24050582.2024
        45.000          40.000
 124335084.50447  96884457.42947  23660196.5184   23660202.5134   23660196.5344
        47.000          42.000
 112109600.24647  87358109.14847  21333762.4214   21333768.4834   21333762.2574
        54.000          48.000
 114328214.27747  89086895.67547  21755954.2584   21755961.9334   21755953.9394
        53.000          48.000
 13  4 22  0  7  0.0000000  0  8G15G05G26G21G18G29G09G24
 107316406.85647  83623165.69347  20421639.3304   20421643.2664   20421638.9704
        56.000          52.000
 119878876.42647  93412104.51647  22812197.4244   22812202.9244   22812196.8874
        50.000          45.000
 113816375.79447  88688073.63147  21658545.8084   21658551.4914   21658545.5864
        52.000          47.000
 117567764.43247  91611240.32847  22372402.8914   22372408.0284   22372403.1654
        51.000          46.000
 126314271.53347  98426677.21847  24036825.6064   24036832.6114   24036825.6254
        45.000          40.000
 124409426.43547  96942386.11347  23674343.4784   23674349.1874   23674342.9914
        47.000          42.000
 112145923.78847  87386413.17047  21340675.0474   21340680.3414   21340675.3844
        54.000          48.000
 114242276.55547  89019931.23447  21739601.0044   21739608.3374   21739600.3504
        52.000          48.000
 13  4 22  0  7 30.0000000  0  8G15G05G26G21G18G29G09G24
 107335706.95647  83638204.72047  20425312.1144   20425315.8254   20425311.9384
        56.000          52.000
 119935601.12347  93456305.53547  22822991.8964   22822997.1584   22822991.2914
        51.000          45.000
 113903386.89547  88755874.43247  21675103.2444   21675109.6024   21675103.1634
        52.000          47.000
 117492063.63747  91552252.73247  22357997.4774   22358002.6764   22357997.8984
        51.000          46.000
 126241936.91147  98370312.61847  24023060.8984   24023067.8204   24023061.0374
        45.000          40.000
 124483886.22347  97000406.65747  23688512.4734   23688518.9354   23688511.8444
        48.000          42.000
 112182879.24447  87415209.59847  21347707.4664   21347712.5144   21347707.8054
        53.000          48.000
 114156687.63647  88953238.57747  21723314.0954   21723321.4684   21723313.4104
        53.000          48.000
 13  4 22  0  8  0.0000000  0  8G15G05G26G21G18G29G09G24
 107355321.18747  83653488.52247  20429044.6314   20429048.3494   20429044.4234
        56.000          52.000
 119992501.37347  93500643.35947  22833819.3664   22833824.7754   22833819.0694
        50.000          45.000
 113990579.83447  88823816.92147  21691696.0064   21691701.9524   21691695.8884
        53.000          47.000
 117416697.17447  91493525.63747  22343655.8204   22343660.7104   22343655.9684
        51.000          46.000
 126169550.90647  98313907.97047  24009286.1634   24009293.6624   24009287.2634
        45.000          40.000
 124558456.46047  97058513.24647  23702703.2164   23702709.5834   23702703.1374
        47.000          42.000
 112220460.94147  87444494.02247  21354858.4654   21354864.3284   21354858.3804
        53.000          47.000
 114071446.27447  88886816.76047  21707093.0194   21707100.5734   21707092.4394
        52.000          48.000
 13  4 22  0  8 30.0000000  0  8G15G05G26G21G18G29G09G24
 107375250.08047  83669017.52047  20432836.5444   20432840.7194   20432836.1784
        56.000          52.000
 120049579.17747  93545119.51447  22844680.7324   22844686.3414   22844680.0204
        50.000          45.000
 114077954.12647  88891900.72847  21708322.8204   21708329.0384   21708322.7894
        52.000          47.000
 117341669.36647  91435062.43147  22329378.4414   22329383.3644   22329378.7844
        52.000          46.000
 126097116.12747  98257465.34947  23995502.5314   23995509.7984   23995502.4754
        46.000          40.000
 124633136.01247  97116705.02647  23716914.3324   23716921.0874   23716913.5474
        48.000          42.000
 112258669.39447  87474266.81147  21362129.3244   21362135.3304   21362129.5014
        53.000          47.000
 113986556.86247  88820669.18647  21690938.9254   21690946.5734   21690938.5274
        52.000          48.000
 13  4 22  0  9  0.0000000  0  8G15G05G26G21G18G29G09G24
 107395491.61747  83684790.13347  20436688.1964   20436692.6444   20436687.6264
        55.000          52.000
 120106834.74147  93589734.18747  22855576.2114   22855582.1644   22855576.0804
        50.000          45.000
 114165507.08947  88960123.74747  21724983.6554   21724989.8124   21724983.6844
        53.000          47.000
 117266982.85047  91376865.16047  22315165.8244   22315170.5544   22315166.4634
        51.000          46.000
 126024632.78547  98200984.86147  23981709.9324   23981716.9074   23981710.4314
        46.000          40.000
 124707921.65247  97174979.48247  23731145.3914   23731152.2704   23731145.1364
        47.000          42.000
 112297503.24847  87504526.93147  21369519.1514   21369524.7714   21369519.2714
        53.000          47.000
 113902022.06447  88754797.92647  21674852.6414   21674860.1364   21674852.0264
        52.000          48.000
 13  4 22  0  9 30.0000000  0  8G15G05G26G21G18G29G09G24
 107416045.21547  83700805.91147  20440599.4974   20440603.8754   20440599.0264
        56.000          52.000
 120164269.28747  93634488.32847  22866506.1954   22866511.6984   22866505.5904
        50.000          45.000
 114253237.39347  89028484.96647  21741678.3634   21741684.3754   21741678.2754
        52.000          47.000
 117192641.07147  91318936.51447  22301019.0574   22301023.7684   22301019.5074
        52.000          46.000
 125952101.82147  98144467.28047  23967907.8254   23967914.3254   23967908.2644
        47.000          40.000
 124782811.40947  97233335.07047  23745396.9154   23745403.1564   23745396.2464
        48.000          42.000
 112336961.90447  87535273.91147  21377027.9194   21377033.9854   21377027.6294
        53.000          48.000
 113817845.28447  88689205.65347  21658834.1084   21658841.9834   21658833.4484
        52.000          48.000
 13  4 22  0 10  0.0000000  0  8G15G05G26G21G18G29G09G24
 107436909.32147  83717063.64747  20444570.1294   20444574.2364   20444569.7174
        56.000          52.000
 120221882.96947  93679382.06847  22877469.4494   22877474.5184   22877469.2354
        50.000          45.000
 114341142.37347  89096982.27947  21758406.2674   21758412.1294   21758406.2484
        53.000          46.000
 117118646.12747  91261278.12847  22286938.5734   22286943.3724   22286938.8654
        51.000          46.000
 125879523.83247  98087913.06947  23954096.2254   23954103.4994   23954096.6604
        46.000          40.000
 124857801.89647  97291769.14947  23759667.0344   23759673.3794   23759667.0764
        47.000          42.000
 112377043.43047  87566506.23147  21384655.5114   21384661.4894   21384655.4564
        53.000          48.000
 113734029.40947  88623894.60147  21642884.5974   21642892.1004   21642883.9844
        52.000          48.000
 13  4 22  0 10 30.0000000  0  8G15G05G26G21G18G29G09G24
 107458079.31147  83733559.72347  20448598.6384   20448602.9444   20448598.2264
        56.000          52.000
 120279672.83047  93724413.07847  22888466.6134   22888471.7814   22888466.4674
        50.000          45.000
 114429216.73547  89165611.59147  21775166.4754   21775171.6884   21775166.5404
        53.000          47.000
 117044997.55847  91203889.65347  22272923.7814   22272928.6034   22272924.3574
        52.000          46.000
 125806896.47147  98031320.37647  23940275.5694   23940282.6144   23940275.7634
        44.000          40.000
 124932887.32647  97350277.21547  23773955.2384   23773961.6484   23773955.0464
        47.000          42.000
 112417743.32747  87598220.38747  21392400.3534   21392406.0474   21392400.6274
        53.000          48.000
 113650573.97047  88558864.41047  21627003.5704   21627010.9324   21627003.0484
        52.000          48.000
 13  4 22  0 11  0.0000000  0  8G15G05G26G21G18G29G09G24
 107479556.96447  83750295.54347  20452685.7814   20452690.0434   20452685.4614
        56.000          52.000
 120337642.73447  93769584.38047  22899497.9274   22899503.1234   22899497.5674
        50.000          45.000
 114517461.56147  89234373.72847  21791958.5494   21791964.3394   21791958.5374
        52.000          46.000
 116971701.18547  91146775.60447  22258975.8194   22258980.6184   22258976.4824
        52.000          46.000
 125734222.93947  97974691.71147  23926446.3454   23926453.4274   23926446.2314
        46.000          40.000
 125008067.87847  97408859.37047  23788262.1194   23788268.1964   23788261.4234
        47.000          42.000
 112459063.65647  87630418.00747  21400263.4004   21400269.0314   21400263.3984
        53.000          48.000
 113567485.19347  88494119.92447  21611192.4354   21611199.7484   21611191.6634
        53.000          48.000
 13  4 22  0 11 30.0000000  0  8G15G05G26G21G18G29G09G24
 107501341.11447  83767270.18947  20456831.1874   20456835.3084   20456830.7384
        56.000          52.000
 120395793.51847  93814896.62947  22910563.3294   22910568.9464   22910562.9024
        50.000          45.000
 114605874.85247  89303267.13047  21808782.8474   21808788.9194   21808782.3784
        52.000          46.000
 116898760.14747  91089938.44547  22245095.3824   22245100.2704   22245095.6324
        52.000          46.000
 125661504.32147  97918027.90747  23912608.6574   23912615.1744   23912608.9364
        46.000          40.000
 125083341.10847  97467513.76847  23802586.3804   23802592.6874   23802586.1454
        47.000          42.000
 112501003.33747  87663098.23247  21408244.4314   21408250.5214   21408244.7364
        53.000          48.000
 113484765.80847  88429663.26947  21595451.4094   21595458.8584   21595450.7554
        53.000          49.000
 13  4 22  0 12  0.0000000  0  8G15G05G26G21G18G29G09G24
 107523427.31647  83784480.20247  20461033.9354   20461038.2994   20461033.5634
        56.000          52.000
 120454122.20447  93860347.49147  22921663.2374   22921669.1404   22921662.9694
        50.000          45.000
 114694451.35947  89372287.71847  21825638.3754   21825644.3304   21825638.1574
        52.000          46.000
 116826173.89647  91033377.73747  22231282.7244   22231287.5664   22231282.9814
        52.000          46.000
 125588738.09647  97861326.99147  23898761.6274   23898768.2704   23898761.6664
        45.000          40.000
 125158701.16647  97526235.83647  23816926.3334   23816933.2634   23816926.2714
        47.000          41.000
 112543557.81247  87696257.53147  21416342.2634   21416348.2794   21416342.4674
        53.000          47.000
 113402415.90247  88365494.53747  21579780.8064   21579788.3704   21579780.4444
        53.000          49.000
 13  4 22  0 12 30.0000000  0  8G15G05G26G21G18G29G09G24
 107545816.27647  83801926.12947  20465294.3134   20465298.8434   20465293.8654
        56.000          52.000
 120512631.41347  93905939.06547  22932797.5004   22932803.3064   22932797.0574
        50.000          45.000
 114783190.76047  89441435.23947  21842525.2864   21842531.3834   21842525.1584
        52.000          46.000
 116753946.71547  90977096.83047  22217538.3134   22217543.2094   22217538.5714
        52.000          46.000
 125515926.76247  97804590.94647  23884906.0734   23884912.9304   23884906.0604
        46.000          41.000
 125234146.79547  97585024.54147  23831282.5374   23831289.4164   23831281.9514
        45.000          41.000
 112586727.23947  87729896.00547  21424556.6724   21424562.9564   21424556.9194
        53.000          47.000
 113320440.10147  88301617.30547  21564181.2874   21564188.7624   21564180.8624
        53.000          49.000
 13  4 22  0 13  0.0000000  0  8G15G05G26G21G18G29G09G24
 107568504.20347  83819605.02747  20469611.8554   20469616.0324   20469611.5824
        56.000          52.000
 120571319.30247  93951669.84747  22943964.9494   22943970.9844   22943964.1504
        49.000          45.000
 114872088.90047  89510706.44047  21859442.3404   21859448.2674   21859442.2574
        52.000          46.000
 116682079.14247  90921096.13047  22203862.5854   22203867.4434   22203863.0704
        52.000          46.000
 125443069.19847  97747818.87547  23871041.4064   23871048.5264   23871041.8944
        47.000          41.000
 125309673.14747  97643876.19947  23845654.2654   23845661.3754   23845653.3334
        45.000          40.000
 112630508.30847  87764011.06547  21432888.0854   21432894.1534   21432888.2474
        53.000          47.000
 113238838.83347  88238031.91847  21548653.0844   21548660.4014   21548652.4944
        53.000          49.000
 13  4 22  0 13 30.0000000  0  8G15G05G26G21G18G29G09G24
 107591492.13947  83837517.68547  20473986.2844   20473990.5004   20473985.8444
        56.000          52.000
 120630188.96647  93997542.25147  22955167.0014   22955173.3004   22955166.2014
        49.000          44.000
 114961146.01447  89580101.51847  21876389.5684   21876395.3484   21876389.5984
        53.000          46.000
 116610576.32447  90865379.66447  22190256.0354   22190260.9084   22190256.2164
        52.000          47.000
 125370167.97147  97691012.77547  23857168.5394   23857175.5294   23857168.2304
        46.000          40.000
 125385280.02747  97702790.59247  23860041.8704   23860049.1134   23860040.7514
        45.000          41.000
 112674902.04447  87798603.53447  21441336.0614   21441341.9644   21441336.2874
        53.000          47.000
 113157617.79147  88174742.81347  21533197.0734   21533204.4144   21533196.4124
        53.000          49.000
 13  4 22  0 14  0.0000000  0  8G15G05G26G21G18G29G09G24
 107614775.07047  83855660.21647  20478417.1014   20478421.2144   20478416.8644
        56.000          52.000
 120689236.86047  94043553.56647  22966404.1134   22966409.3114   22966403.5504
        49.000          44.000
 115050356.22447  89649615.89847  21893365.7134   21893371.5304   21893365.6624
        52.000          46.000
 116539436.89647  90809946.36647  22176718.3704   22176723.4474   22176718.5784
        52.000          46.000
 125297220.39647  97634170.57047  23843287.0854   23843293.8344   23843287.3544
        45.000          40.000
 125460960.66047  97761762.44947  23874443.7864   23874450.9074   23874443.3994
        45.000          40.000
 112719903.04347  87833669.20147  21449899.7874   21449905.5834   21449899.8194
        54.000          47.000
 113076775.95047  88111749.19847  21517813.3094   21517820.8304   21517812.9074
        53.000          49.000
 13  4 22  0 14 30.0000000  0  8G15G05G26G21G18G29G09G24
 107638356.08847  83874035.02147  20482904.3094   20482908.5654   20482903.9834
        55.000          52.000
 120748468.20147  94089707.81047  22977675.6744   22977680.9364   22977675.1184
        50.000          44.000
 115139722.12047  89719251.57147  21910370.8804   21910377.4594   21910370.9384
        52.000          46.000
 116468668.51747  90754802.19647  22163251.8844   22163256.8034   22163252.2324
        52.000          47.000
 125224231.49847  97577296.16747  23829397.5294   23829404.1614   23829397.3354
        46.000          41.000
 125536716.90647  97820793.21947  23888860.0564   23888867.1074   23888859.8094
        46.000          41.000
 112765514.57947  87869210.61747  21458579.4344   21458585.1874   21458579.7844
        53.000          47.000
 112996320.45447  88049056.63047  21502503.1494   21502510.6434   21502502.7014
        53.000          49.000
 13  4 22  0 15  0.0000000  0  8G15G05G26G21G18G29G09G24
 107662230.19547  83892638.20747  20487447.1994   20487451.5784   20487446.8504
        56.000          52.000
 120807879.51047  94136002.28747  22988981.1494   22988986.7074   22988980.8184
        49.000          44.000
 115229237.56147  89789003.77947  21927405.0044   21927411.5754   21927404.6754
        51.000          45.000
 116398269.68547  90699945.98247  22149855.3804   22149860.0434   22149855.7154
        52.000          46.000
 125151198.20447  97520387.16947  23815500.1484   23815507.3094   23815500.6824
        46.000          41.000
 125612542.12947  97879877.74947  23903289.8014   23903296.4094   23903289.1464
        46.000          41.000
 112811731.11747  87905223.46147  21467374.2404   21467380.0214   21467374.1804
        53.000          47.000
 112916250.36647  87986664.36947  21487266.3784   21487273.8654   21487265.8104
        53.000          49.000
 13  4 22  0 15 30.0000000  0  8G15G05G26G21G18G29G09G24
 107686397.57647  83911469.91647  20492046.2864   20492050.5554   20492045.9514
        56.000          52.000
 120867472.63747  94182438.45447  23000320.9964   23000327.3704   23000320.1194
        49.000          44.000
 115318902.27847  89858872.30847  21944467.9714   21944474.1094   21944468.1304
        52.000          46.000
 116328244.65347  90645381.04347  22136529.9734   22136534.5254   22136530.3754
        52.000          47.000
 125078122.83247  97463445.37347  23801593.7144   23801601.5054   23801593.4564
        46.000          40.000
 125688435.03047  97939015.01947  23917731.8014   23917738.4514   23917731.6884
        47.000          41.000
 112858552.64647  87941707.72047  21476283.9594   21476289.7384   21476284.0414
        53.000          47.000
 112836569.99747  87924575.78547  21472103.8384   21472111.0504   21472103.3744
        53.000          49.000
 13  4 22  0 16  0.0000000  0  8G15G05G26G21G18G29G09G24
 107710855.41647  83930527.96647  20496700.3484   20496704.6894   20496699.9004
        55.000          52.000
 120927247.10247  94229015.91447  23011696.0484   23011702.0884   23011695.7974
        49.000          44.000
 115408712.80847  89928854.45147  21961558.5314   21961564.6984   21961558.6944
        52.000          45.000
 116258594.66147  90591108.35147  22123276.1344   22123280.7844   22123276.6424
        52.000          47.000
 125005004.64147  97406470.20447  23787679.6114   23787686.7514   23787680.0744
        46.000          40.000
 125764391.49647  97998201.82247  23932186.1394   23932192.6324   23932185.9074
        47.000          41.000
 112905976.33547  87978661.20247  21485308.5364   21485314.0904   21485308.4804
        53.000          47.000
 112757280.84747  87862792.05147  21457015.5074   21457022.9354   21457014.9324
        53.000          49.000
 13  4 22  0 16 30.0000000  0  8G15G05G26G21G18G29G09G24
 107735601.61747  83949810.70347  20501409.5114   20501413.7314   20501409.1074
        56.000          52.000
 120987202.64447  94275734.45947  23023105.8214   23023110.9654   23023105.6504
        49.000          44.000
 115498666.61247  89998948.23847  21978676.0334   21978682.2964   21978676.0724
        51.000          45.000
 116189321.82447  90537129.55047  22110093.7604   22110098.7914   22110094.4634
        52.000          47.000
 124931844.16947  97349462.10147  23773757.9154   23773764.9664   23773758.1224
        45.000          40.000
 125840408.43347  98057435.72047  23946651.7834   23946658.2474   23946651.3094
        48.000          41.000
 112953999.94347  88016082.15847  21494447.2034   21494452.9404   21494447.4064
        53.000          47.000
 112678385.41047  87801315.10947  21442002.3944   21442009.6944   21442001.8634
        53.000          49.000
 13  4 22  0 17  0.0000000  0  8G15G05G26G21G18G29G09G24
 107760634.13447  83969316.54847  20506173.2104   20506177.3294   20506172.9404
        56.000          52.000
 121047338.70647  94322593.69147  23034548.7644   23034554.2854   23034548.6404
        49.000          44.000
 115588760.86947  90069151.46847  21995820.6124   21995826.9094   21995820.5104
        51.000          45.000
 116120428.13347  90483446.18047  22096983.7594   22096988.8384   22096984.0514
        53.000          47.000
 124858641.10347  97292420.80247  23759827.7264   23759835.2144   23759828.1364
        47.000          40.000
 125916482.33347  98116714.03547  23961128.0694   23961134.2304   23961128.0614
        47.000          41.000
 113002621.43847  88053968.99447  21503699.6524   21503705.3894   21503699.7574
        53.000          47.000
 112599885.34047  87740146.24447  21427064.1424   21427071.3904   21427063.8004
        53.000          49.000
 13  4 22  0 17 30.0000000  0  8G15G05G26G21G18G29G09G24
 107785955.08747  83989047.14647  20510991.6244   20510995.7574   20510991.2304
        56.000          52.000
 121107659.05747  94369596.49147  23046027.9174   23046033.0994   23046027.1454
        50.000          45.000
 115678996.44447  90139464.82347  22012992.0334   22012998.3514   22012991.9254
        51.000          45.000
 116051918.75847  90430062.26647  22083947.2064   22083951.6744   22083947.6674
        53.000          47.000
 124785398.86647  97235348.96447  23745890.5454   23745896.6984   23745890.8414
        46.000          41.000
 125992613.01847  98176036.60347  23975614.8744   23975621.7914   23975614.8714
        46.000          41.000
 113051841.75647  88092322.46047  21513066.0014   21513071.5464   21513066.1954
        53.000          47.000
 112521786.34147  87679289.89847  21412202.3014   21412209.3284   21412201.7724
        53.000          49.000
 13  4 22  0 18  0.0000000  0  8G15G05G26G21G18G29G09G24
 107811559.58047  84008998.68847  20515864.0714   20515868.1424   20515863.8254
        56.000          52.000
 121168160.54547  94416740.44947  23057541.2004   23057546.3924   23057540.8604
        50.000          45.000
 115769368.14747  90209884.25147  22030189.3864   22030195.6374   22030189.1564
        51.000          45.000
 115983793.30547  90376977.51547  22070983.0694   22070987.5574   22070983.7204
        53.000          47.000
 124712115.66347  97178245.21647  23731945.7684   23731951.7254   23731946.1454
        47.000          41.000
 126068794.57447  98235398.76347  23990112.3674   23990118.3784   23990112.1624
        46.000          41.000
 113101656.29047  88131138.95247  21522545.0684   21522550.6324   21522545.1814
        53.000          47.000
 112444088.18747  87618745.90247  21397416.4224   21397424.0334   21397415.8124
        53.000          49.000
 13  4 22  0 18 30.0000000  0  8G15G05G26G21G18G29G09G24
 107837448.59447  84029171.92847  20520790.4714   20520794.7854   20520790.0934
        56.000          52.000
 121228846.06747  94464027.79747  23069088.8104   23069094.5394   23069088.4034
        50.000          44.000
 115859876.10347  90280409.85347  22047412.4384   22047418.7464   22047412.1844
        52.000          45.000
 115916056.34147  90324195.48547  22058093.0244   22058097.9304   22058093.5854
        52.000          47.000
 124638793.88547  97121111.42147  23717992.7654   23717998.7924   23717993.2744
        46.000          41.000
 126145026.61647  98294800.29647  24004618.4974   24004624.9574   24004618.3334
        47.000          41.000
 113152065.13047  88170418.53447  21532137.3084   21532143.5144   21532137.5064
        53.000          47.000
 112366795.56947  87558517.91247  21382708.2574   21382715.9964   21382707.7104
        54.000          49.000
 13  4 22  0 19  0.0000000  0  8G15G05G26G21G18G29G09G24
 107863618.70847  84049564.20947  20525770.5694   20525774.7304   20525770.3504
        56.000          52.000
 121289714.29447  94511457.52647  23080671.6044   23080677.2284   23080671.3254
        49.000          44.000
 115950516.82447  90351038.89747  22064660.6554   22064667.5184   22064660.5814
        51.000          45.000
 115848709.31647  90271717.30247  22045277.1904   22045282.3454   22045277.5154
        52.000          47.000
 124565433.21947  97063947.31747  23704032.8324   23704038.6544   23704033.4034
        48.000          41.000
 126221304.72347  98354237.74147  24019133.9234   24019140.5694   24019133.9234
        47.000          41.000
 113203065.41647  88210158.98647  21541842.4194   21541849.0064   21541842.5314
        53.000          47.000
 112289909.81647  87498606.95347  21368077.5404   21368085.2234   21368076.9344
        54.000          49.000
 13  4 22  0 19 30.0000000  0  8G15G05G26G21G18G29G09G24
 107890067.04647  84070173.29047  20530803.4424   20530807.8724   20530803.1194
        55.000          52.000
 121350764.04947  94559028.69447  23092289.2874   23092294.8104   23092288.8534
        49.000          44.000
 116041286.71747  90421768.59047  22081933.5114   22081940.5114   22081933.2424
        51.000          45.000
 115781752.79047  90219543.40447  22032535.8344   22032540.7554   22032536.0014
        52.000          47.000
 124492032.34547  97006751.87447  23690065.1054   23690070.8084   23690065.8684
        47.000          41.000
 126297624.30547  98413707.46347  24033657.0264   24033663.9104   24033657.3944
        45.000          40.000
 113254653.42747  88250357.41347  21551659.5794   21551666.2614   21551659.7334
        53.000          47.000
 112213431.74847  87439013.67747  21353524.4434   21353531.7774   21353523.9504
        54.000          49.000
 13  4 22  0 20  0.0000000  0  8G15G05G26G21G18G29G09G24
 107916794.85547  84091000.14147  20535889.5324   20535893.9404   20535889.1694
        56.000          52.000
 121411998.53547  94606743.80647  23103941.6814   23103947.3914   23103940.9654
        48.000          44.000
 116132186.25947  90492599.32647  22099231.1994   22099237.6394   22099230.8584
        51.000          45.000
 115715191.93147  90167677.81547  22019869.7264   22019874.4504   22019869.8424
        53.000          47.000
 124418594.60647  96949527.72847  23676090.0684   23676096.2104   23676090.7194
        47.000          41.000
 126373985.38147  98473209.51747  24048188.0444   24048195.1264   24048187.2344
        46.000          41.000
 113306830.21347  88291014.62747  21561588.7414   21561595.2684   21561588.8074
        53.000          47.000
 112137366.80947  87379742.31447  21339049.6674   21339057.1024   21339049.1334
        54.000          49.000
 13  4 22  0 20 30.0000000  0  8G15G05G26G21G18G29G09G24
 107943799.35447  84112042.58947  20541028.1974   20541032.5864   20541027.8134
        55.000          51.000
 121473416.09147  94654601.58147  23115628.7714   23115634.6494   23115628.3234
        49.000          44.000
 116223211.92847  90563528.35047  22116552.9854   22116559.6154   22116552.6904
        51.000          45.000
 115649027.87947  90116121.42247  22007279.1374   22007283.9494   22007279.6564
        52.000          47.000
 124345119.35347  96892274.34347  23662107.8624   23662114.3774   23662107.9754
        47.000          41.000
 126450383.69447  98532740.62647  24062726.1414   24062733.1234   24062726.3954
        45.000          41.000
 113359592.33047  88332127.93847  21571628.9174   21571635.1744   21571628.8404
        53.000          47.000
 112061716.15247  87320793.77747  21324653.6354   21324661.1704   21324653.2484
        54.000          49.000
 13  4 22  0 21  0.0000000  0  8G15G05G26G21G18G29G09G24
 107971077.63247  84133298.37347  20546219.0674   20546223.5104   20546218.5534
        55.000          51.000
 121535015.88247  94702601.35547  23127350.8954   23127356.9164   23127349.9494
        49.000          44.000
 116314360.39447  90634553.04447  22133898.1564   22133905.1684   22133898.0444
        51.000          46.000
 115583261.33447  90064874.77647  21994764.1104   21994769.2994   21994764.6924
        52.000          47.000
 124271606.15347  96834991.40147  23648118.5514   23648125.7784   23648119.1834
        47.000          41.000
 126526815.22947  98592297.60847  24077270.2234   24077277.6394   24077270.1474
        46.000          40.000
 113412936.58047  88373694.84947  21581779.6714   21581785.9564   21581779.9004
        52.000          47.000
 111986480.75447  87262168.81247  21310336.7804   21310344.2664   21310336.2234
        54.000          50.000
 13  4 22  0 21 30.0000000  0  8G15G05G26G21G18G29G09G24
 107998630.87247  84154768.41247  20551462.2674   20551466.8164   20551461.8664
        55.000          51.000
 121596801.09947  94750745.60447  23139108.8574   23139114.3184   23139108.6954
        50.000          44.000
 116405632.23147  90705673.86747  22151267.1564   22151273.7694   22151267.1604
        52.000          46.000
 115517897.80747  90013942.16647  21982325.8764   21982331.0784   21982326.4784
        52.000          47.000
 124198058.25647  96777681.43447  23634122.9174   23634129.9394   23634123.6284
        47.000          41.000
 126603279.49947  98651880.11647  24091821.0304   24091828.0314   24091820.7284
        44.000          40.000
 113466863.53347  88415715.82347  21592041.6954   21592048.2224   21592041.5124
        53.000          47.000
 111911666.00247  87203871.62047  21296100.1804   21296107.3764   21296099.4694
        54.000          49.000
 13  4 22  0 22  0.0000000  0  8G15G05G26G21G18G29G09G24
 108026455.26347  84176449.74147  20556757.2634   20556761.4824   20556757.0664
        55.000          51.000
 121658769.58647  94799032.68447  23150901.3754   23150906.5274   23150900.8874
        50.000          44.000
 116497023.15747  90776887.47847  22168657.6694   22168664.3494   22168657.5424
        50.000          45.000
 115452937.35347  89963323.65247  21969964.1884   21969969.1704   21969964.4304
        52.000          47.000
 124124474.23347  96720343.26747  23620120.7774   23620126.5524   23620121.6884
        47.000          41.000
 126679771.43847  98711484.17947  24106377.0044   24106384.1364   24106377.3274
        46.000          41.000
 113521368.81547  88458187.43447  21602413.4824   21602420.1884   21602413.4644
        53.000          47.000
 111837272.14147  87145902.39847  21281943.3384   21281950.5684   21281942.8864
        54.000          49.000
 13  4 22  0 22 30.0000000  0  8G15G05G26G21G18G29G09G24
 108054550.03847  84198341.76847  20562103.7944   20562107.5594   20562103.5834
        56.000          51.000
 121720922.10047  94847463.13247  23162728.4794   23162733.5664   23162728.0314
        49.000          44.000
 116588531.56547  90848192.66747  22186071.5164   22186077.4494   22186071.1054
        51.000          45.000
 115388382.76747  89913021.39947  21957680.1374   21957684.8294   21957680.4584
        52.000          47.000
 124050854.88247  96662977.59647  23606111.6284   23606117.1974   23606112.5024
        48.000          42.000
 126756288.39247  98771107.74047  24120937.9264   24120944.6864   24120937.5724
        45.000          41.000
 113576451.15547  88501108.71347  21612895.5164   21612901.8934   21612895.6074
        53.000          47.000
 111763302.22047  87088263.51847  21267867.2694   21267874.6614   21267866.6844
        54.000          50.000
 13  4 22  0 23  0.0000000  0  8G15G05G26G21G18G29G09G24
 108082912.84047  84220442.64647  20567500.9674   20567505.0034   20567500.7524
        56.000          51.000
 121783258.25847  94896036.68647  23174590.4924   23174596.2814   23174589.8224
        49.000          44.000
 116680154.83847  90919587.34447  22203506.9384   22203513.2054   22203507.0864
        51.000          45.000
 115324235.91147  89863036.86347  21945473.3914   21945478.3714   21945473.6774
        53.000          47.000
 123977200.63847  96605584.75447  23592095.7604   23592101.4524   23592096.3284
        47.000          41.000
 126832827.36147  98830748.44747  24135503.4934   24135508.6944   24135503.3424
        45.000          40.000
 113632108.04747  88544477.68847  21623486.4664   21623492.9184   21623486.1414
        52.000          47.000
 111689758.09147  87030956.42147  21253872.4444   21253879.7954   21253872.1554
        55.000          50.000
 13  4 22  0 23 30.0000000  0  8G15G05G26G21G18G29G09G24
 108111543.00047  84242751.85347  20572949.0634   20572953.2644   20572948.6414
        56.000          52.000
 121845779.00247  94944754.07547  23186487.6614   23186493.7694   23186487.3194
        49.000          44.000
 116771891.53747  90991070.39147  22220963.6024   22220969.9294   22220963.5174
        50.000          45.000
 115260499.65547  89813372.27447  21933344.8154   21933349.5384   21933345.1074
        53.000          47.000
 123903512.75447  96548165.69147  23578073.2204   23578078.7334   23578073.1294
        48.000          42.000
 126909385.98747  98890404.46647  24150072.1004   24150077.1664   24150072.0344
        45.000          40.000
 113688337.84747  88588293.08147  21634186.9464   21634193.0374   21634187.1104
        53.000          47.000
 111616642.48147  86973983.23847  21239958.9394   21239966.3634   21239958.5254
        54.000          50.000
 13  4 22  0 24  0.0000000  0  8G15G05G26G21G18G29G09G24
 108140440.58447  84265269.43947  20578448.0604   20578452.4084   20578447.7334
        56.000          52.000
 121908486.17447  94993616.73347  23198420.5854   23198426.4904   23198419.7674
        49.000          45.000
 116863741.30847  91062641.55647  22238442.1764   22238448.5074   22238442.1244
        51.000          45.000
 115197177.65547  89764030.47247  21921294.8544   21921299.4754   21921295.2244
        52.000          47.000
 123829793.60647  96490722.26847  23564044.7484   23564050.6854   23564045.0064
        48.000          41.000
 126985963.04747  98950074.84847  24164643.9184   24164649.8354   24164643.6234
        45.000          40.000
 113745140.23347  88632554.64847  21644996.4944   21645002.4294   21644996.5744
        53.000          47.000
 111543959.61647  86917347.25647  21226127.8314   21226135.1134   21226127.2994
        55.000          50.000
 13  4 22  0 24 30.0000000  0  8G15G05G26G21G18G29G09G24
 108169602.48247  84287992.98747  20583997.3114   20584001.7834   20583996.8234
        55.000          51.000
 121971378.31947  95042623.52447  23210389.1854   23210394.7704   23210388.5974
        50.000          45.000
 116955700.52547  91134298.02047  22255941.7274   22255947.7424   22255941.6664
        51.000          45.000
 115134271.40447  89715012.63547  21909324.0284   21909328.6454   21909324.5794
        52.000          47.000
 123756042.01547  96433253.55947  23550009.8984   23550016.4124   23550010.5744
        47.000          41.000
 127062554.20347  99009756.23947  24179218.9004   24179225.1774   24179218.3744
        44.000          40.000
 113802511.22547  88677259.29647  21655914.2604   21655919.7174   21655914.4954
        53.000          47.000
 111471710.60347  86861049.34347  21212379.3684   21212386.6224   21212378.7604
        55.000          50.000
 13  4 22  0 25  0.0000000  0  8G15G05G26G21G18G29G09G24
 108199023.86047  84310918.73347  20589595.9844   20589600.4284   20589595.5954
        55.000          51.000
 122034452.66747  95091772.29247  23222391.5624   23222397.3254   23222391.2834
        49.000          44.000
 117047763.98747  91206035.70047  22273460.7464   22273466.9664   22273460.5564
        51.000          44.000
 115071779.75947  89666317.87147  21897432.2794   21897436.9474   21897432.8044
        52.000          47.000
 123682255.58247  96375757.69447  23535968.8594   23535975.0814   23535969.7334
        48.000          41.000
 127139153.26147  99069443.78447  24193795.0184   24193802.2894   24193795.0454
        44.000          41.000
 113860445.92747  88722403.19047  21666938.7274   21666944.4194   21666938.9494
        53.000          47.000
 111399894.48247  86805088.75847  21198713.1504   21198720.5804   21198712.7274
        55.000          50.000
 13  4 22  0 25 30.0000000  0  8G15G05G26G21G18G29G09G24
 108228708.54547  84334049.64747  20595244.6444   20595249.3084   20595244.1954
        55.000          51.000
 122097714.36547  95141067.06047  23234429.6524   23234435.5104   23234428.9664
        48.000          44.000
 117139934.77447  91277857.01947  22291000.3084   22291006.2924   22291000.4174
        51.000          44.000
 115009709.72647  89617951.63747  21885620.7054   21885625.6944   21885621.2754
        52.000          47.000
 123608440.75347  96318239.69647  23521922.3454   23521928.2984   23521922.8664
        48.000          42.000
 127215762.44247  99129139.20447  24208373.1694   24208380.5804   24208372.4964
        44.000          41.000
 113918947.28247  88767988.62747  21678070.9004   21678076.7414   21678070.9774
        52.000          47.000
 111328518.85747  86749471.40947  21185130.7614   21185138.2574   21185130.3204
        55.000          50.000
 13  4 22  0 26  0.0000000  0  8G15G05G26G21G18G29G09G24
 108258651.12547  84357381.51947  20600942.2574   20600947.1824   20600941.9054
        55.000          51.000
 122161159.96147  95190505.10047  23246502.5254   23246509.2144   23246502.1364
        49.000          44.000
 117232206.95947  91349757.34047  22308559.6264   22308565.3654   22308559.4084
        51.000          45.000
 114948059.92047  89569912.85447  21873888.9914   21873894.2454   21873889.3764
        52.000          47.000
 123534593.92547  96260696.78447  23507870.0634   23507875.8214   23507870.3034
        48.000          42.000
 127292375.07747  99188837.31347  24222951.8074   24222959.2454   24222951.4724
        44.000          40.000
 113978009.03047  88814010.74747  21689309.7604   21689315.8274   21689309.8534
        52.000          47.000
 111257582.03247  86694195.98747  21171631.9234   21171639.2944   21171631.2634
        55.000          50.000
 13  4 22  0 26 30.0000000  0  8G15G05G26G21G18G29G09G24
 108288851.74147  84380914.46147  20606689.5904   20606694.1534   20606689.1984
        55.000          51.000
 122224791.37347  95240087.94647  23258611.5884   23258617.9934   23258611.0174
        50.000          44.000
 117324580.56347  91421736.69747  22326137.4474   22326144.3374   22326137.4394
        50.000          45.000
 114886834.74947  89522204.95447  21862238.3224   21862243.1684   21862238.8644
        53.000          47.000
 123460718.02147  96203131.18547  23493812.0254   23493817.2204   23493812.5784
        48.000          42.000
 127368990.29647  99248537.45947  24237531.9014   24237537.8654   24237531.7544
        46.000          40.000
 114037630.79147  88860469.24847  21700655.2374   21700661.4574   21700655.2384
        52.000          47.000
 111187088.39247  86639265.90247  21158217.4774   21158224.7154   21158216.8864
        55.000          50.000
 13  4 22  0 27  0.0000000  0  8G15G05G26G21G18G29G09G24
 108319310.35247  84404648.43947  20612485.7354   20612490.1064   20612485.3624
        55.000          51.000
 122288610.17247  95289816.82147  23270756.2914   23270762.1054   23270756.0034
        49.000          44.000
 117417054.88047  91493794.51947  22343734.6264   22343741.9164   22343734.6684
        51.000          45.000
 114826037.72747  89474830.66647  21850669.0744   21850673.6424   21850669.3684
        53.000          47.000
 123386814.75147  96145544.27747  23479748.3014   23479754.0494   23479749.0934
        48.000          42.000
 127445606.42947  99308238.33547  24252111.7034   24252117.9234   24252111.7434
        45.000          40.000
 114097811.75147  88907363.46347  21712107.7614   21712113.5944   21712107.7764
        53.000          47.000
 111117041.44947  86584683.88747  21144888.0294   21144895.0814   21144887.5254
        55.000          50.000
 13  4 22  0 27 30.0000000  0  8G15G05G26G21G18G29G09G24
 108350023.23347  84428580.55547  20618330.2444   20618334.5304   20618329.9324
        55.000          51.000
 122352614.06047  95339689.88747  23282935.8484   23282942.1084   23282935.5344
        49.000          44.000
 117509625.52347  91565927.38847  22361350.6354   22361357.8244   22361350.6324
        51.000          45.000
 114765668.45547  89427789.68347  21839181.1254   21839185.5774   21839181.4244
        53.000          47.000
 123312882.42547  96087934.71647  23465679.7964   23465685.4094   23465680.1254
        48.000          42.000
 127522218.34047  99367935.89747  24266689.7224   24266696.9404   24266689.4474
        45.000          40.000
 114158547.37547  88954689.89247  21723665.6044   21723671.0744   21723665.8114
        53.000          47.000
 111047441.51747  86530450.20447  21131643.4274   21131650.4604   21131642.8584
        55.000          50.000
 13  4 22  0 28  0.0000000  0  8G15G05G26G21G18G29G09G24
 108380988.55847  84452709.37747  20624222.8234   20624226.9494   20624222.5434
        55.000          51.000
 122416802.88147  95389707.07347  23295150.1024   23295156.8684   23295149.7984
        49.000          44.000
 117602290.47147  91638133.76147  22378984.6114   22378990.6544   22378984.7204
        51.000          44.000
 114705729.08347  89381083.70047  21827775.1644   21827779.5884   21827775.6694
        53.000          47.000
 123238921.78447  96030303.09347  23451605.5064   23451610.7624   23451605.6594
        49.000          42.000
 127598823.14747  99427627.93347  24281267.1454   24281274.4864   24281267.0144
        44.000          40.000
 114219835.50647  89002446.82947  21735328.4184   21735333.9624   21735328.4944
        52.000          47.000
 110978290.53147  86476566.34547  21118484.4774   21118491.5304   21118483.9704
        55.000          50.000
 13  4 22  0 28 30.0000000  0  8G15G05G26G21G18G29G09G24
 108412203.50747  84477032.70647  20630162.8934   20630166.9424   20630162.6474
        55.000          51.000
 122481176.18647  95439868.02047  23307400.0964   23307406.9244   23307399.6434
        49.000          44.000
 117695046.46047  91710411.08347  22396635.2434   22396641.0224   22396635.6204
        51.000          44.000
 114646220.84147  89334713.65547  21816451.0284   21816455.7014   21816451.5034
        52.000          47.000
 123164932.35447  95972649.02947  23437525.5884   23437531.0504   23437526.3314
        48.000          42.000
 127675416.59547  99487311.08047  24295841.9984   24295849.6684   24295841.0914
        43.000          40.000
 114281672.25947  89050631.27147  21747095.4644   21747101.1544   21747095.3524
        52.000          46.000
 110909589.17047  86423032.84647  21105411.1324   21105418.0574   21105410.5024
        56.000          50.000
 13  4 22  0 29  0.0000000  0  8G15G05G26G21G18G29G09G24
 108443670.63247  84501552.53947  20636150.8284   20636154.9794   20636150.4804
        55.000          51.000
 122545737.29147  95490175.27647  23319686.1344   23319692.5514   23319685.3234
        50.000          44.000
 117787895.58747  91782760.97347  22414303.3904   22414309.3664   22414303.2834
        50.000          44.000
 114587149.90647  89288684.37247  21805209.9814   21805214.8834   21805210.3894
        52.000          47.000
 123090919.18047  95914976.49447  23423441.1474   23423447.2174   23423441.9084
        48.000          42.000
 127752000.23847  99546986.61647  24310415.9134   24310422.4594   24310415.7584
        45.000          40.000
 114344059.28147  89099244.48747  21758967.4024   21758973.0704   21758967.5004
        53.000          47.000
 110841344.18247  86369854.96747  21092424.5054   21092431.5044   21092424.0184
        55.000          50.000
 13  4 22  0 29 30.0000000  0  8G15G05G26G21G18G29G09G24
 108475385.56447  84526265.46247  20642185.7624   20642190.1964   20642185.4254
        55.000          51.000
 122610483.94947  95540627.13247  23332007.7324   23332013.0854   23332007.5184
        49.000          44.000
 117880832.99847  91855179.64947  22431989.0184   22431994.9764   22431988.9154
        50.000          44.000
 114528515.70047  89242995.38847  21794052.2224   21794057.2394   21794052.6604
        53.000          47.000
 123016880.02547  95857283.69047  23409351.9724   23409357.8994   23409352.3864
        48.000          41.000
 127828568.06747  99606649.81647  24324986.7734   24324993.1674   24324986.7174
        44.000          40.000
 114406991.68247  89148282.68847  21770943.1734   21770949.0154   21770943.1844
        52.000          47.000
 110773554.74647  86317032.05947  21079524.5894   21079531.6344   21079524.0204
        56.000          50.000
 13  4 22  0 30  0.0000000  0  8G15G05G26G21G18G29G09G24
 108507347.97047  84551171.21847  20648268.0574   20648272.4944   20648267.6564
        55.000          51.000
 122675417.70647  95591224.78647  23344364.0894   23344369.2674   23344363.7124
        49.000          44.000
 117973858.06547  91927666.62847  22449691.5964   22449697.7344   22449691.7314
        51.000          45.000
 114470321.87347  89197649.56747  21782978.6594   21782983.3424   21782979.0034
        53.000          47.000
 122942816.89747  95799572.21747  23395258.2044   23395264.0494   23395258.6604
        49.000          42.000
 127905118.49247  99666299.46247  24339553.6194   24339561.6354   24339553.8144
        44.000          40.000
 114470468.31147  89197744.95847  21783022.1214   21783028.2594   21783022.2084
        52.000          47.000
 110706224.41647  86264566.89547  21066711.9834   21066719.1984   21066711.6414
        56.000          50.000
 13  4 22  0 30 30.0000000  0  8G15G05G26G21G18G29G09G24
 108539554.98447  84576267.58547  20654396.9884   20654401.1984   20654396.5634
        55.000          51.000
 122740537.02447  95641967.02847  23356754.9984   23356761.4724   23356754.4574
        48.000          44.000
 118066967.36847  92000219.24247  22467410.1064   22467416.2574   22467410.0454
        50.000          44.000
 114412568.53147  89152646.97247  21771988.4544   21771993.2334   21771989.0724
        53.000          47.000
 122868729.14747  95741841.56247  23381159.7274   23381165.7864   23381160.6094
        48.000          42.000
 127981647.29747  99725932.25547  24354116.0014   24354123.7364   24354116.1114
        44.000          39.000
 114534485.04647  89247628.07247  21795204.1254   21795210.3954   21795204.3844
        53.000          47.000
 110639353.83547  86212459.97447  21053986.9874   21053993.9234   21053986.4014
        56.000          50.000
 13  4 22  0 31  0.0000000  0  8G15G05G26G21G18G29G09G24
 108572005.24647  84601553.49947  20660572.1404   20660576.3944   20660571.7884
        55.000          51.000
 122805842.16147  95692854.03747  23369182.6274   23369189.1574   23369182.3894
        48.000          44.000
 118160159.10247  92072836.09847  22485144.2024   22485150.3534   22485143.8524
        51.000          44.000
 114355258.22447  89107989.60047  21761082.5824   21761087.2874   21761083.0124
        53.000          47.000
 122794617.64547  95684092.39647  23367056.7134   23367062.6304   23367057.0554
        49.000          42.000
 128058151.85947  99785546.14347  24368674.1304   24368682.2254   24368673.1534
        44.000          39.000
 114599039.97847  89297930.57347  21807488.7884   21807494.5224   21807488.9674
        52.000          47.000
 110572945.49847  86160713.24347  21041349.7584   21041356.7514   21041349.2544
        56.000          50.000
 13  4 22  0 31 30.0000000  0  8G15G05G26G21G18G29G09G24
 108604701.22047  84627030.86947  20666793.8964   20666798.4044   20666793.5294
        55.000          51.000
 122871337.46347  95743889.25647  23381645.7834   23381652.1454   23381645.0614
        48.000          44.000
 118253435.62947  92145519.02347  22502893.8074   22502900.0204   22502894.0784
        50.000          44.000
 114298397.67847  89063682.68647  21750262.3054   21750267.1104   21750262.5504
        52.000          47.000
 122720487.30347  95626328.55347  23352950.3114   23352955.7444   23352950.8364
        49.000          42.000
 128134633.90547  99845142.50447  24383228.3494   24383236.0154   24383227.6144
        44.000          39.000
 114664134.91547  89348653.84847  21819875.8914   21819881.8684   21819875.9364
        53.000          47.000
 110507005.42247  86109331.39547  21028801.8124   21028808.9954   21028801.2994
        56.000          50.000
 13  4 22  0 32  0.0000000  0  8G15G05G26G21G18G29G09G24
 108637632.05247  84652691.24847  20673060.5134   20673064.9454   20673060.2514
        55.000          51.000
 122937013.93947  95795065.66347  23394143.6284   23394149.4754   23394142.9124
        49.000          44.000
 118346785.60947  92218259.17047  22520657.0604   22520664.0614   22520657.0004
        50.000          44.000
 114241979.12347  89019720.17847  21739526.0294   21739530.8514   21739526.2764
        52.000          47.000
 122646329.64247  95568543.42047  23338838.1274   23338844.0694   23338838.5714
        48.000          42.000
 128211080.65547  99904711.34147  24397776.6894   24397782.6664   24397776.1824
        43.000          39.000
 114729757.59947  89399788.34747  21832363.4114   21832369.3574   21832363.6984
        53.000          46.000
 110441526.91547  86058309.21647  21016341.6734   21016348.9734   21016341.1284
        56.000          50.000
 13  4 22  0 32 30.0000000  0  8G15G05G26G21G18G29G09G24
 108670804.80247  84678540.12047  20679372.9734   20679377.6564   20679372.6784
        55.000          51.000
 123002879.63047  95846389.50447  23406678.0744   23406683.1854   23406677.7574
        49.000          44.000
 118440215.61347  92291061.70447  22538435.9294   22538442.6774   22538435.5674
        50.000          44.000
 114186013.26247  88976110.42347  21728876.1184   21728880.6524   21728876.4454
        53.000          47.000
 122572154.41447  95510744.58347  23324723.3554   23324728.8934   23324723.9084
        49.000          42.000
 128287497.91047  99964257.22847  24412318.4774   24412324.8954   24412318.3594
        43.000          39.000
 114795914.20447  89451338.89547  21844952.7924   21844958.2714   21844953.0044
        53.000          46.000
 110376520.08047  86007654.56847  21003971.0974   21003978.5614   21003970.4604
        55.000          50.000
 13  4 22  0 33  0.0000000  0  8G15G05G26G21G18G29G09G24
 108704215.62247  84704574.50847  20685730.7374   20685735.3864   20685730.3434
        55.000          51.000
 123068931.85847  95897858.66347  23419247.5814   23419253.4554   23419246.9954
        49.000          44.000
 118533721.07647  92363923.00547  22556229.9814   22556236.9964   22556229.8114
        51.000          44.000
 114130499.98747  88932853.34047  21718312.4024   21718317.0774   21718312.8664
        53.000          47.000
 122497959.23747  95452930.21447  23310604.2844   23310609.9284   23310604.5334
        49.000          42.000
 128363880.17347 100023775.80647  24426853.2564   24426860.9384   24426852.8334
        44.000          39.000
 114862599.60447  89503301.49547  21857642.6304   21857647.9434   21857642.7874
        52.000          46.000
 110311984.68147  85957367.27247  20991690.3054   20991697.6564   20991689.6684
        56.000          50.000
 13  4 22  0 33 30.0000000  0  8G15G05G26G21G18G29G09G24
 108737862.64447  84730792.94947  20692133.4754   20692138.1094   20692133.0394
        55.000          51.000
 123135170.92747  95949473.42947  23431851.8684   23431858.1204   23431851.3384
        47.000          43.000
 118627300.15247  92436841.68447  22574038.3774   22574044.7794   22574038.6214
        50.000          44.000
 114075440.70547  88889950.00747  21707835.1524   21707839.7104   21707835.5774
        53.000          47.000
 122423745.03847  95395101.03347  23296481.7654   23296487.2934   23296482.0044
        49.000          42.000
 128440224.77247 100083265.02947  24441380.6264   24441388.8694   24441380.3034
        43.000          39.000
 114929811.44947  89555674.29947  21870432.4404   21870438.6644   21870432.4744
        52.000          46.000
 110247922.89647  85907449.02747  20979499.8474   20979507.0734   20979499.4374
        55.000          50.000
 13  4 22  0 34  0.0000000  0  8G15G05G26G21G18G29G09G24
 108771745.74447  84757195.34947  20698581.4164   20698585.9044   20698581.0444
        55.000          51.000
 123201598.43247  96001235.00647  23444492.4974   23444499.0364   23444492.0934
        49.000          43.000
 118720952.35847  92509817.34447  22591859.3694   22591866.0164   22591859.3114
        50.000          44.000
 114020839.09147  88847403.30047  21697444.7984   21697449.4954   21697445.2194
        53.000          47.000
 122349514.04647  95337258.75447  23282355.6874   23282361.8644   23282356.1564
        49.000          42.000
 128516530.22347 100142723.79547  24455901.4994   24455909.2884   24455901.1174
        44.000          39.000
 114997548.75347  89608456.55747  21883322.3314   21883329.1874   21883322.3234
        52.000          46.000
 110184337.49947  85857901.98747  20967399.9394   20967407.0464   20967399.2454
        56.000          51.000
 13  4 22  0 34 30.0000000  0  8G15G05G26G21G18G29G09G24
 108805859.61147  84783777.56247  20705072.9674   20705077.5904   20705072.4854
        55.000          51.000
 123268210.76747  96053140.65747  23457168.9614   23457174.7174   23457168.7884
        48.000          43.000
 118814672.11047  92582845.63447  22609693.6344   22609700.2924   22609693.4954
        50.000          44.000
 113966693.38147  88805211.83847  21687141.1754   21687145.9094   21687141.5964
        53.000          47.000
 122275263.53847  95279401.29547  23268226.1544   23268232.5854   23268226.5184
        48.000          42.000
 128592790.33747 100202147.17147  24470413.8504   24470420.9634   24470413.4124
        43.000          39.000
 115065805.04747  89661643.20947  21896310.9584   21896318.2244   21896311.4384
        52.000          46.000
 110121227.29947  85808725.22847  20955390.6174   20955397.5604   20955390.1064
        56.000          51.000
 13  4 22  0 35  0.0000000  0  8G15G05G26G21G18G29G09G24
 108840205.79247  84810540.80447  20711608.9584   20711613.5144   20711608.6264
        55.000          51.000
 123335010.98447  96105192.70347  23469880.6054   23469886.6244   23469880.5724
        48.000          43.000
 118908460.66947  92655927.54447  22627540.8544   22627547.7384   22627540.5034
        49.000          43.000
 113913008.62547  88763379.57747  21676924.8884   21676929.8424   21676924.9304
        52.000          47.000
 122200997.36847  95221531.61747  23254093.9854   23254100.1164   23254094.3344
        48.000          42.000
 128669004.98447 100261535.17647  24484917.0054   24484923.8494   24484916.8174
        44.000          39.000
 115134580.85547  89715234.70047  21909398.7454   21909404.9874   21909398.7234
        52.000          46.000
 110058597.97247  85759923.17347  20943472.8494   20943479.6904   20943472.3834
        56.000          51.000
 13  4 22  0 35 30.0000000  0  8G15G05G26G21G18G29G09G24
 108874782.09547  84837483.35747  20718188.5194   20718193.1194   20718188.0354
        55.000          51.000
 123401998.44847  96157390.63947  23482627.8354   23482634.3184   23482627.5904
        49.000          44.000
 119002315.53147  92729061.12447  22645401.0364   22645407.8244   22645400.9664
        49.000          43.000
 113859786.23547  88721907.59547  21666797.3684   21666802.0484   21666797.6014
        53.000          47.000
 122126715.59847  95163649.77047  23239958.5504   23239964.2084   23239959.0384
        49.000          42.000
 128745171.11547 100320885.38747  24499411.2364   24499416.9234   24499410.9654
        45.000          40.000
 115203873.15147  89769228.63647  21922584.9674   21922590.6044   21922584.9954
        52.000          46.000
 109996449.57647  85711495.88047  20931646.2914   20931653.4024   20931645.9144
        55.000          51.000
 13  4 22  0 36  0.0000000  0  8G15G05G26G21G18G29G09G24
 108909586.31347  84864603.50647  20724811.6034   20724816.1844   20724811.2504
        55.000          51.000
 123469172.65047  96209734.08447  23495411.2074   23495417.6214   23495411.0034
        49.000          44.000
 119096234.09047  92802244.33647  22663273.2144   22663279.6794   22663273.0654
        49.000          43.000
 113807027.48847  88680796.89247  21656757.8994   21656762.2874   21656758.3914
        53.000          47.000
 122052418.24047  95105755.79447  23225819.9904   23225825.9094   23225820.3984
        48.000          42.000
 128821285.01647 100380194.87447  24513894.9274   24513901.7454   24513894.2884
        43.000          39.000
 115273678.56547  89823622.39847  21935868.5824   21935874.5894   21935868.6874
        52.000          46.000
 109934784.24947  85663445.00447  20919911.5564   20919918.8454   20919911.1164
        55.000          51.000
 13  4 22  0 36 30.0000000  0  8G15G05G26G21G18G29G09G24
 108944618.38247  84891901.20147  20731478.1564   20731482.5984   20731477.5934
        55.000          51.000
 123536534.49047  96262223.75647  23508229.4654   23508235.7484   23508229.2664
        48.000          43.000
 119190215.94347  92875476.86547  22681157.6024   22681164.5394   22681157.5724
        49.000          43.000
 113754736.12447  88640050.38147  21646807.0204   21646811.6144   21646807.3904
        53.000          47.000
 121978107.62247  95047851.49247  23211679.1294   23211684.9114   23211679.3814
        48.000          42.000
 128897345.19547 100439462.45347  24528366.9774   24528375.8324   24528367.1514
        42.000          38.000
 115343995.71147  89878414.92247  21949249.4874   21949256.0234   21949249.6634
        52.000          46.000
 109873605.18647  85615773.03147  20908269.4624   20908276.6554   20908269.0144
        55.000          51.000
 13  4 22  0 37  0.0000000  0  8G15G05G26G21G18G29G09G24
 108979873.33247  84919372.57647  20738186.9064   20738191.4104   20738186.4684
        55.000          51.000
 123604080.55547  96314856.97247  23521082.8574   23521089.4654   23521082.5834
        48.000          43.000
 119284255.81047  92948754.60747  22699052.5984   22699060.2094   22699052.5504
        49.000          43.000
 113702910.41447  88599666.72347  21636945.0994   21636949.6774   21636945.4534
        53.000          47.000
 121903781.42247  94989935.03947  23197535.4654   23197541.1214   23197535.6994
        48.000          42.000
 128973345.63447 100498683.51747  24542830.0964   24542838.4754   24542829.0214
        45.000          39.000
 115414818.57647  89933601.50647  21962726.5994   21962733.3834   21962726.6604
        51.000          46.000
 109812910.79247  85568478.72547  20896719.5124   20896726.7364   20896719.0524
        55.000          50.000
 13  4 22  0 37 30.0000000  0  8G15G05G26G21G18G29G09G24
 109015355.20547  84947020.77347  20744938.8904   20744943.4064   20744938.4074
        55.000          51.000
 123671816.74847  96367638.33247  23533972.9024   23533979.5724   23533972.5174
        48.000          43.000
 119378357.49847  93022080.51447  22716959.3844   22716966.7024   22716959.1204
        50.000          43.000
 113651557.94747  88559651.82647  21627173.0544   21627177.7744   21627173.5154
        53.000          47.000
 121829446.32847  94932011.65347  23183389.6944   23183395.5474   23183390.1044
        49.000          42.000
 129049289.02547 100557860.14447  24557282.8054   24557289.2404   24557282.8604
        45.000          39.000
 115486150.16747  89989184.51747  21976300.3034   21976306.9524   21976299.9434
        51.000          46.000
 109752708.78147  85521568.08447  20885263.4944   20885270.7614   20885263.0614
        55.000          51.000
 13  4 22  0 38  0.0000000  0  8G15G05G26G21G18G29G09G24
 109051059.81547  84974842.53147  20751733.1674   20751737.7304   20751732.7494
        55.000          51.000
 123739740.65547  96420565.99247  23546898.6004   23546904.8204   23546898.1454
        49.000          43.000
 119472516.63047  93095451.17747  22734877.3594   22734884.2174   22734877.3054
        49.000          43.000
 113600678.11047  88520005.21647  21617490.9564   21617495.4794   21617491.6904
        53.000          47.000
 121755100.08047  94874079.57147  23169241.9544   23169247.1014   23169242.4754
        48.000          42.000
 129125169.76847 100616987.96747  24571723.1674   24571727.6704   24571722.5774
        45.000          39.000
 115557985.07247  90045159.71047  21989969.8184   21989976.6154   21989969.7894
        52.000          46.000
 109692998.35747  85475040.51047  20873900.9854   20873908.2394   20873900.5724
        55.000          51.000
 13  4 22  0 38 30.0000000  0  8G15G05G26G21G18G29G09G24
 109086993.71747  85002842.96347  20758571.2734   20758575.6484   20758571.0544
        55.000          51.000
 123807860.18447  96473646.05347  23559861.6724   23559867.4394   23559861.3934
        48.000          43.000
 119566739.56247  93168871.57747  22752808.0854   22752814.0104   22752808.0554
        50.000          43.000
 113550280.98147  88480734.75047  21607900.4574   21607904.8804   21607900.8424
        53.000          47.000
 121680752.00447  94816146.05347  23155094.2794   23155099.1794   23155094.4374
        49.000          42.000
 129200993.82847 100676071.62747  24586151.5954   24586157.0114   24586151.2694
        44.000          39.000
 115630328.94847  90101531.49147  22003736.7434   22003743.7084   22003737.0694
        52.000          46.000
 109633789.30547  85428903.61347  20862633.9304   20862641.0214   20862633.5744
        55.000          51.000
 13  4 22  0 39  0.0000000  0  8G15G05G26G21G18G29G09G24
 109123137.54447  85031006.97147  20765449.0364   20765453.6654   20765448.4234
        55.000          51.000
 123876157.57347  96526864.72047  23572858.0014   23572864.4904   23572857.6404
        48.000          43.000
 119661006.41747  93242326.18547  22770746.5364   22770752.9204   22770746.6124
        49.000          43.000
 113500349.83647  88441827.38547  21598398.7244   21598403.2674   21598399.0914
        53.000          47.000
 121606384.74047  94758197.59347  23140942.6844   23140948.0714   23140942.8464
        48.000          42.000
 129276740.28447 100735094.79347  24600565.2104   24600572.2334   24600564.7594
        44.000          38.000
 115703161.21647  90158283.84147  22017596.2154   22017603.2314   22017596.0434
        52.000          46.000
 109575065.75147  85383145.02347  20851459.2014   20851466.2594   20851458.7554
        55.000          51.000
 13  4 22  0 39 30.0000000  0  8G15G05G26G21G18G29G09G24
 109159499.36647  85059340.84447  20772368.4184   20772373.0984   20772368.2774
        55.000          51.000
 123944641.84247  96580228.98547  23585889.5294   23585896.7454   23585889.3834
        46.000          43.000
 119755325.13847  93315821.20847  22788694.7924   22788701.1184   22788694.5844
        49.000          43.000
 113450896.79647  88403292.55947  21588988.0794   21588992.6824   21588988.7224
        53.000          47.000
 121532009.17247  94700242.68247  23126789.6014   23126795.1544   23126789.9684
        50.000          43.000
 129352415.75547 100794062.62547  24614965.8434   24614973.2694   24614965.7904
        43.000          39.000
 115776488.59847  90215421.99947  22031550.1214   22031556.5284   22031549.9834
        52.000          46.000
 109516839.23347  85337773.73247  20840379.0424   20840386.0814   20840378.5694
        55.000          51.000
 13  4 22  0 40  0.0000000  0  8G15G05G26G21G18G29G09G24
 109196078.77747  85087844.26647  20779329.3144   20779333.7964   20779328.8064
        55.000          51.000
 124013314.00747  96633739.67347  23598957.6294   23598964.4334   23598957.1864
        47.000          42.000
 119849694.76547  93389355.89647  22806652.5194   22806659.1344   22806652.5764
        49.000          43.000
 113401924.28447  88365132.17547  21579669.0274   21579673.6214   21579669.4654
        53.000          47.000
 121457626.72447  94642282.36247  23112635.4624   23112640.5324   23112635.6564
        49.000          42.000
 129428018.33847 100852973.67247  24629352.5724   24629360.7204   24629352.4944
        43.000          39.000
 115850309.06447  90272944.38547  22045597.8554   22045603.9644   22045597.9104
        52.000          46.000
 109459112.13747  85292791.60447  20829394.0364   20829401.0064   20829393.5234
        55.000          51.000
 13  4 22  0 40 30.0000000  0  8G15G05G26G21G18G29G09G24
 109232871.50947  85116513.92047  20786330.9674   20786335.2514   20786330.6944
        55.000          51.000
 124082171.64747  96687394.88947  23612061.2614   23612067.2844   23612060.9374
        48.000          43.000
 119944111.06947  93462926.97047  22824620.0404   22824626.1504   22824620.1694
        49.000          43.000
 113353431.78447  88327345.82247  21570441.3764   21570446.0454   21570441.6894
        53.000          47.000
 121383236.12347  94584315.70647  23098479.0544   23098484.6134   23098479.4124
        49.000          42.000
 129503542.88047 100911823.92347  24643724.2624   24643731.1364   24643724.1024
        42.000          38.000
 115924617.67347  90330847.12447  22059738.6234   22059744.9674   22059738.6114
        52.000          46.000
 109401883.89547  85248198.19247  20818504.0164   20818510.9124   20818503.4084
        55.000          51.000
 13  4 22  0 41  0.0000000  0  8G15G05G26G21G18G29G09G24
 109269879.07447  85145350.97847  20793373.4104   20793377.6494   20793373.1204
        55.000          51.000
 124151217.58247  96741196.82447  23625200.6844   23625206.5944   23625200.2144
        49.000          43.000
 120038575.43847  93536535.47647  22842595.2534   22842602.4854   22842595.2154
        48.000          43.000
 113305423.98947  88289937.16147  21561305.7154   21561310.6534   21561306.0044
        53.000          47.000
 121308841.01947  94526345.55847  23084322.0134   23084327.3824   23084322.3914
        49.000          42.000
 129578990.01647 100970613.82747  24658081.5354   24658087.8034   24658080.9714
        42.000          38.000
 115999414.62947  90389130.39747  22073972.0984   22073978.2704   22073972.1104
        51.000          46.000
 109345159.22047  85203997.17347  20807709.4174   20807716.5964   20807708.9794
        55.000          51.000
 13  4 22  0 41 30.0000000  0  8G15G05G26G21G18G29G09G24
 109307098.95847  85174353.47347  20800455.9954   20800460.4904   20800455.6174
        55.000          51.000
 124220450.98147  96795144.85447  23638375.3854   23638382.0024   23638374.6704
        48.000          43.000
 120133084.97147  93610179.15847  22860579.3994   22860586.3894   22860579.2664
        48.000          42.000
 113257901.85547  88252906.93947  21552262.3854   21552267.3584   21552262.6354
        53.000          47.000
 121234441.50047  94468371.94947  23070164.3304   23070169.3164   23070164.8064
        50.000          42.000
 129654355.79747 101029340.37647  24672423.1954   24672430.2824   24672422.4364
        43.000          38.000
 116074696.34647  90447791.38847  22088297.5004   22088304.0594   22088297.6534
        52.000          46.000
 109288938.87647  85160189.14147  20797010.6384   20797018.1974   20797010.1624
        55.000          51.000
 13  4 22  0 42  0.0000000  0  8G15G05G26G21G18G29G09G24
 109344526.37447  85203517.68647  20807578.3004   20807582.5994   20807578.1994
        55.000          51.000
 124289868.40547  96849236.24347  23651585.0624   23651591.7034   23651584.2394
        49.000          43.000
 120227634.67147  93683854.18247  22878572.2684   22878578.4184   22878572.1234
        49.000          42.000
 113210864.00447  88216254.06547  21543311.5864   21543316.1324   21543311.8704
        53.000          47.000
 121160035.27647  94410393.11847  23056005.0964   23056010.1884   23056005.5224
        49.000          42.000
 129729634.15347 101087998.80047  24686748.6944   24686755.7394   24686748.7554
        43.000          38.000
 116150456.47247  90506825.19647  22102714.5864   22102720.7524   22102714.6164
        51.000          45.000
 109233221.15047  85116772.75147  20786408.0494   20786415.3734   20786407.3794
        55.000          51.000
 13  4 22  0 42 30.0000000  0  8G15G05G26G21G18G29G09G24
 109382166.26747  85232847.46647  20814740.7374   20814745.0774   20814740.3654
        55.000          51.000
 124359475.94247  96903475.80947  23664830.9904   23664837.3784   23664830.8414
        48.000          43.000
 120322229.40547  93757564.26547  22896573.0624   22896579.7054   22896572.9484
        49.000          43.000
 113164318.39147  88179984.75947  21534454.2224   21534458.7464   21534454.7784
        53.000          47.000
 121085629.70247  94352414.79847  23041846.5814   23041851.6594   23041846.6644
        50.000          43.000
 129804828.65047 101146591.82947  24701056.9734   24701065.3754   24701057.0464
        42.000          38.000
 116226698.67947  90566234.63747  22117222.5724   22117229.4574   22117222.8954
        51.000          45.000
 109178014.46047  85073754.57147  20775902.7194   20775909.9224   20775902.1454
        55.000          51.000
 13  4 22  0 43  0.0000000  0  8G15G05G26G21G18G29G09G24
 109420013.30847  85262338.65947  20821942.4014   20821947.1384   20821941.8684
        55.000          51.000
 124429269.88147  96957860.60547  23678112.0874   23678118.8064   23678111.6144
        48.000          43.000
 120416863.43247  93831304.97147  22914581.6024   22914588.5634   22914581.5834
        49.000          42.000
 113118263.22147  88144097.63047  21525689.9294   21525694.7134   21525690.4394
        52.000          47.000
 121011221.87547  94294434.71247  23027687.3924   23027691.9654   23027688.3804
        49.000          43.000
 129879933.15547 101205114.73147  24715349.1684   24715357.0024   24715348.9984
        41.000          38.000
 116303416.22947  90626014.47047  22131821.8424   22131828.6944   22131821.8524
        51.000          46.000
 109123316.68547  85031132.95247  20765494.2444   20765501.4264   20765493.7574
        55.000          51.000
 13  4 22  0 43 30.0000000  0  8G15G05G26G21G18G29G09G24
 109458065.13747  85291989.42447  20829183.4544   20829188.2934   20829182.9504
        55.000          51.000
 124499249.38647  97012389.98247  23691428.7384   23691435.4174   23691428.0724
        48.000          43.000
 120511534.33847  93905074.41347  22932597.2284   22932603.8274   22932597.0834
        49.000          42.000
 113072699.20747  88108593.21147  21517019.3384   21517024.1434   21517019.6114
        53.000          47.000
 120936811.92247  94236452.99947  23013526.9344   23013532.1674   23013527.4864
        50.000          42.000
 129954943.88847 101263564.62147  24729623.3364   24729630.6904   24729623.0154
        42.000          38.000
 116380605.61347  90686161.97747  22146510.6164   22146516.9504   22146510.6194
        51.000          45.000
 109069128.31247  84988908.26447  20755182.6244   20755189.6674   20755182.0694
        56.000          51.000
 13  4 22  0 44  0.0000000  0  8G15G05G26G21G18G29G09G24
 109496323.14247  85321800.84847  20836463.9354   20836468.5474   20836463.5274
        55.000          51.000
 124569417.13347  97067066.07647  23704781.3894   23704787.6774   23704781.0544
        47.000          42.000
 120606243.10147  93978873.34947  22950619.3344   22950626.3734   22950619.6054
        48.000          42.000
 113027630.66947  88073474.88347  21508443.4164   21508447.9074   21508443.6224
        52.000          47.000
 120862403.47147  94178472.43247  22999367.4924   22999372.8044   22999367.8824
        49.000          43.000
 130029860.74747 101321941.34247  24743879.9024   24743886.3794   24743880.1064
        42.000          38.000
 116458266.54947  90746676.92147  22161289.4374   22161295.7924   22161289.6344
        51.000          45.000
 109015453.99947  84947084.14547  20744968.7354   20744975.6404   20744968.3464
        56.000          51.000
 13  4 22  0 44 30.0000000  0  8G15G05G26G21G18G29G09G24
 109534783.73447  85351770.13047  20843782.8934   20843787.6414   20843782.6004
        55.000          51.000
 124639770.69247  97121886.92047  23718168.8934   23718175.7004   23718168.4874
        48.000          43.000
 120700986.25947  94052699.10047  22968648.7134   22968654.9394   22968648.1374
        49.000          42.000
 112983057.88947  88038742.86247  21499961.3664   21499966.0174   21499961.6104
        53.000          47.000
 120787995.49247  94120492.23347  22985208.2094   22985213.7624   22985208.5184
        50.000          43.000
 130104679.40347 101380241.54147  24758117.6004   24758123.7144   24758118.0774
        42.000          38.000
 116536394.19847  90807555.53047  22176156.4324   22176163.0954   22176156.5554
        51.000          46.000
 108962293.35647  84905660.28147  20734852.4834   20734859.3944   20734851.9344
        56.000          51.000
 13  4 22  0 45  0.0000000  0  8G15G05G26G21G18G29G09G24
 109573446.56147  85381897.00647  20851140.0404   20851144.7404   20851139.6514
        55.000          51.000
 124710311.62647  97176853.79847  23731592.6724   23731599.5984   23731592.3174
        48.000          43.000
 120795763.41947  94126551.34447  22986683.8984   22986690.6054   22986684.1104
        48.000          42.000
 112938983.64447  88004399.31747  21491574.3834   21491578.8724   21491574.4784
        53.000          47.000
 120713590.63047  94062514.46447  22971049.1814   22971054.8374   22971049.7244
        49.000          43.000
 130179398.09747 101438463.81847  24772335.4424   24772342.8984   24772335.8334
        41.000          37.000
 116614987.46547  90868796.96447  22191112.0524   22191119.0494   22191112.4184
        51.000          46.000
 108909649.34147  84864639.00047  20724834.5684   20724841.6634   20724834.1354
        55.000          51.000
 13  4 22  0 45 30.0000000  0  8G15G05G26G21G18G29G09G24
 109612309.37747  85412179.71047  20858535.4104   20858540.1444   20858534.9564
        55.000          51.000
 124781038.40147  97231965.48447  23745052.3404   23745058.2394   23745051.9324
        48.000          43.000
 120890571.71947  94200427.82647  23004725.6504   23004733.0724   23004725.1834
        48.000          43.000
 112895408.11647  87970444.38147  21483282.1744   21483286.6564   21483282.2894
        52.000          47.000
 120639188.74647  94004539.01147  22956890.6954   22956896.3554   22956891.0454
        49.000          43.000
 130254013.27247 101496605.44247  24786534.3914   24786542.4534   24786534.6614
        39.000          37.000
 116694042.32247  90930398.07547  22206156.0334   22206162.9464   22206156.1734
        51.000          45.000
 108857522.13847  84824020.41647  20714914.7174   20714922.2134   20714913.9874
        55.000          51.000
 13  4 22  0 46  0.0000000  0  7G15G05G26G21G18G09G24
 109651370.99447  85442617.32547  20865968.7304   20865973.3684   20865968.3134
        55.000          51.000
 124851951.34047  97287222.24247  23758546.9884   23758552.6564   23758546.5504
        49.000          43.000
 120985409.97247  94274327.67447  23022773.2134   23022780.3734   23022773.1864
        48.000          42.000
 112852333.47847  87936879.74947  21475085.1884   21475089.7544   21475085.7544
        53.000          47.000
 120564791.09847  93946566.85847  22942733.6524   22942738.8754   22942734.6194
        49.000          43.000
 116773556.15547  90992356.83847  22221287.1004   22221293.1684   22221287.3754
        51.000          45.000
 108805914.15447  84783806.42947  20705094.1684   20705101.4664   20705093.7374
        56.000          51.000
 13  4 22  0 46 30.0000000  0  8G15G05G26G21G18G29G09G24
 109690630.04747  85473208.78247  20873439.3514   20873444.0924   20873438.9054
        55.000          51.000
 124923050.77247  97342624.32047  23772076.4374   23772082.9444   23772075.9234
        49.000          43.000
 121080276.63747  94348249.67647  23040825.4584   23040832.3934   23040825.3824
        48.000          42.000
 112809761.36547  87903706.69247  21466983.8394   21466988.5194   21466984.2164
        52.000          47.000
 120490398.58047  93888598.68447  22928577.3844   22928582.8374   22928577.8914
        49.000          43.000
 140402844.42257  91612562.92957  24814869.3675   24814880.0615   24814867.5665
        37.000          35.000
 116853525.90447  91054670.87847  22236504.7414   22236511.0724   22236504.8314
        51.000          45.000
 108754826.74547  84743998.07447  20695372.6714   20695379.7354   20695372.1634
        56.000          51.000
 13  4 22  0 47  0.0000000  0  8G15G05G26G21G18G29G09G24
 109730085.95747  85503953.62847  20880947.4544   20880952.3914   20880946.9214
        55.000          51.000
 124994337.40047  97398172.28447  23785641.5514   23785648.5174   23785641.2364
        48.000          43.000
 121175171.37247  94422193.51047  23058883.2644   23058890.0774   23058883.5524
        48.000          42.000
 112767694.87747  87870927.63547  21458978.7284   21458983.5374   21458979.1044
        52.000          47.000
 120416013.61947  93830636.41147  22914422.4334   22914427.3174   22914422.9814
        49.000          43.000
 120477239.89257 111670553.29157  24829008.6775   24829016.1845   24829008.4495
        40.000          35.000
 116933950.21647  91117339.09747  22251808.9344   22251816.0384   22251809.4154
        51.000          45.000
 108704262.60047  84704597.46247  20685750.6574   20685757.6564   20685750.1364
        56.000          52.000
 13  4 22  0 47 30.0000000  0  8G15G05G26G21G18G29G09G24
 109769736.46547  85534850.11447  20888492.7614   20888497.6354   20888492.2954
        54.000          51.000
 125065810.04847  97453865.17247  23799241.7174   23799249.2944   23799241.1824
        47.000          42.000
 121270091.30147  94496157.01347  23076946.3124   23076952.9634   23076946.1214
        48.000          42.000
 112726134.32247  87838542.80247  21451070.0614   21451074.6484   21451070.4574
        52.000          47.000
 120341636.02247  93772679.88247  22900268.3424   22900274.1244   22900269.1984
        49.000          43.000
 120551417.84647 111728354.18447  24843124.2234   24843133.1454   24843123.6364
        39.000          35.000
 117014824.88047  91180358.24847  22267199.2074   22267205.9194   22267199.4934
        51.000          45.000
 108654222.28747  84665605.02747  20676228.2004   20676235.2524   20676227.5084
        56.000          52.000
 13  4 22  0 48  0.0000000  0  7G15G05G26G21G18G09G24
 109809578.57647  85565895.90347  20896074.2414   20896079.4294   20896073.6554
        55.000          51.000
 125137466.86347  97509701.53647  23812877.7214   23812884.8474   23812877.0524
        48.000          43.000
 121365033.29747  94570137.69147  23095012.8754   23095020.4674   23095012.6634
        48.000          42.000
 112685079.72947  87806552.22847  21443257.7134   21443262.4114   21443257.8914
        52.000          47.000
 120267265.37447  93714728.77847  22886116.0644   22886121.9654   22886116.6064
        49.000          43.000
 117096145.31147  91243724.76747  22282673.7684   22282680.3124   22282673.6924
        51.000          45.000
 108604705.46847  84627020.51747  20666805.4824   20666812.3464   20666804.9294
        56.000          52.000
 13  4 22  0 48 30.0000000  0  7G15G05G26G21G18G09G24
 109849616.06047  85597093.92647  20903693.3514   20903698.3194   20903692.7674
        55.000          51.000
 125209312.85547  97565685.33247  23826550.3364   23826556.7504   23826549.8514
        48.000          43.000
 121460001.09947  94644138.48447  23113085.2334   23113092.5294   23113085.2864
        48.000          42.000
 112644537.86347  87774961.17347  21435542.8724   21435547.3864   21435543.4834
        53.000          47.000
 120192908.10447  93656788.07547  22871966.0534   22871971.5424   22871966.6344
        49.000          43.000
 117177914.07247  91307440.62247  22298233.7994   22298240.5324   22298233.7974
        51.000          45.000
 108555718.86647  84588849.16247  20657483.5974   20657490.5384   20657483.0254
        56.000          52.000
 13  4 22  0 49  0.0000000  0  7G15G05G26G21G18G09G24
 109889842.58347  85628439.25747  20911348.5634   20911353.1854   20911348.1844
        55.000          51.000
 125281343.14347  97621812.73047  23840256.8884   23840263.6124   23840256.1164
        48.000          43.000
 121554988.54247  94718154.55447  23131160.2104   23131168.8294   23131159.9424
        48.000          42.000
 112604505.53447  87743767.16547  21427925.1354   21427929.2214   21427925.7984
        53.000          47.000
 120118560.36747  93598854.83447  22857817.7734   22857823.7474   22857817.9834
        49.000          43.000
 117260123.53447  91371499.88447  22313877.6404   22313884.5204   22313877.7524
        51.000          45.000
 108507259.63247  84551088.74947  20648262.1154   20648269.0644   20648261.5694
        56.000          52.000
 13  4 22  0 49 30.0000000  0  7G15G05G26G21G18G09G24
 109930257.92347  85659931.70847  20919039.3054   20919043.7944   20919038.9324
        55.000          51.000
 125353558.37347  97678084.25347  23853998.9564   23854005.8964   23853998.3164
        48.000          43.000
 121649994.60847  94792185.16047  23149239.5124   23149247.5124   23149239.7344
        48.000          42.000
 112564985.47747  87712972.33547  21420404.5984   21420408.8414   21420405.1634
        53.000          47.000
 120044224.13347  93540930.54447  22843672.4204   22843677.9294   22843672.8704
        49.000          43.000
 117342771.39147  91435900.74547  22329604.6794   22329611.8234   22329604.8144
        51.000          45.000
 108459329.11147  84513740.31547  20639141.2424   20639148.2934   20639140.6824
        56.000          52.000
 13  4 22  0 50  0.0000000  0  7G15G05G26G21G18G09G24
 109970863.63247  85691572.50247  20926766.3714   20926770.6554   20926766.0484
        55.000          51.000
 125425961.91947  97734502.50747  23867777.2354   23867784.4284   23867776.8094
        48.000          43.000
 121745021.12447  94866231.71547  23167322.6064   23167329.8564   23167322.4374
        47.000          42.000
 112525981.95647  87682579.99647  21412982.4284   21412986.9724   21412982.7114
        52.000          47.000
 119969903.79147  93483018.64147  22829529.4784   22829535.4844   22829529.8774
        49.000          43.000
 117425857.81647  91500643.34347  22345415.5484   22345422.1924   22345415.4834
        50.000          45.000
 108411932.97247  84476808.28347  20630122.1114   20630129.1684   20630121.5424
        56.000          52.000
 13  4 22  0 50 30.0000000  0  7G15G05G26G21G18G09G24
 110011651.31647  85723355.08847  20934527.9254   20934532.2404   20934527.6744
        55.000          51.000
 125498546.98147  97791062.18147  23881589.8834   23881597.5554   23881589.4894
        48.000          43.000
 121840060.06647  94940287.94347  23185407.8974   23185415.4474   23185407.9024
        48.000          42.000
 112487489.86047  87652586.15747  21405657.3924   21405662.2674   21405657.3614
        52.000          47.000
 119895593.96047  93425114.91847  22815389.0214   22815394.4614   22815389.5164
        49.000          43.000
 117509373.38847  91565720.33647  22361308.0334   22361314.4214   22361308.4034
        50.000          44.000
 108365065.25147  84440288.00147  20621203.5244   20621210.5444   20621202.9074
        56.000          52.000
 13  4 22  0 51  0.0000000  0  7G15G05G26G21G18G09G24
 110052627.74047  85755284.74247  20942325.3394   20942329.7964   20942325.0424
        55.000          51.000
 125571320.72647  97847768.90747  23895438.1824   23895445.2144   23895437.8324
        46.000          42.000
 121935117.49147  95014358.56647  23203496.3944   23203504.5204   23203496.5334
        47.000          41.000
 112449518.44547  87622998.05147  21398431.6124   21398436.5394   21398431.8484
        52.000          47.000
 119821303.12347  93367226.01847  22801252.3554   22801257.6154   22801252.8174
        50.000          43.000
 117593322.86547  91631135.42147  22377283.5384   22377289.7124   22377283.9984
        50.000          45.000
 108318735.23547  84404186.71547  20612387.2174   20612394.1194   20612386.7914
        56.000          52.000
 13  4 22  0 51 30.0000000  0  7G15G05G26G21G18G09G24
 110093784.99747  85787355.30647  20950157.1584   20950162.0384   20950156.7364
        55.000          51.000
 125644276.68047  97904617.57947  23909321.2474   23909328.5654   23909320.3744
        48.000          43.000
 122030185.58847  95088437.50447  23221587.2174   23221595.2934   23221586.4314
        48.000          42.000
 112412062.98547  87593811.98447  21391304.1964   21391308.8774   21391304.5494
        52.000          47.000
 119747026.17747  93309347.93447  22787117.8054   22787123.0044   22787118.0664
        50.000          44.000
 117677696.79647  91696881.25247  22393339.4224   22393345.5054   22393339.5764
        50.000          45.000
 108272938.06047  84368500.62347  20603672.1584   20603678.9714   20603671.7034
        56.000          52.000
 13  4 22  0 52  0.0000000  0  7G15G05G26G21G18G09G24
 110135127.30347  85819570.06247  20958024.5454   20958029.3064   20958024.1054
        55.000          51.000
 125717420.55547  97961612.73247  23923240.5214   23923247.8054   23923240.0614
        48.000          43.000
 122125268.57347  95162528.03847  23239681.4894   23239689.3664   23239681.1814
        47.000          42.000
 112375130.74247  87565033.62647  21384276.4544   21384281.1534   21384276.9024
        53.000          47.000
 119672770.10947  93251486.12547  22772987.2674   22772992.6274   22772987.8054
        50.000          44.000
 117762497.83947  91762959.89147  22409476.1924   22409482.6594   22409476.0294
        50.000          44.000
 108227680.53547  84333235.04047  20595059.8194   20595066.6884   20595059.3234
        56.000          52.000
 13  4 22  0 52 30.0000000  0  7G15G05G26G21G18G09G24
 110176647.08247  85851923.10847  20965925.5914   20965930.1734   20965925.1924
        55.000          51.000
 125790745.48847  98018748.94047  23937193.8164   23937200.8504   23937193.4484
        48.000          43.000
 122220358.58147  95236624.05147  23257776.8864   23257784.4984   23257776.9454
        47.000          42.000
 112338716.83047  87536659.16647  21377347.0834   21377351.9864   21377347.3984
        53.000          47.000
 119598529.54947  93193636.40547  22758859.3824   22758864.9794   22758860.0194
        50.000          44.000
 117847716.71247  91829364.09747  22425692.8694   22425699.0824   22425692.7374
        50.000          44.000
 108182957.26247  84298385.75347  20586549.2204   20586556.1914   20586548.6534
        56.000          51.000
 13  4 22  0 53  0.0000000  0  7G15G05G26G21G18G09G24
 110218350.24547  85884419.05347  20973861.4364   20973866.1394   20973861.0724
        55.000          51.000
 125864258.91047  98076032.05347  23951182.6034   23951189.6544   23951182.1104
        48.000          42.000
 122315461.43047  95310730.07447  23275874.5194   23275882.0784   23275874.3334
        48.000          42.000
 112302829.35547  87508694.90647  21370517.6744   21370522.3774   21370518.0254
        52.000          47.000
 119524313.06347  93135805.43147  22744736.2984   22744741.9764   22744736.8444
        50.000          44.000
 117933357.72047  91896097.26247  22441989.8024   22441996.3124   22441989.5044
        50.000          44.000
 108138777.32847  84263959.84947  20578142.1684   20578148.8814   20578141.5524
        57.000          52.000
 13  4 22  0 53 30.0000000  0  7G15G05G26G21G18G09G24
 110260229.65747  85917052.33547  20981830.8494   20981835.2744   20981830.4014
        55.000          51.000
 125937954.31847  98133456.95947  23965206.6314   23965213.6154   23965205.8794
        48.000          42.000
 122410570.15747  95384840.67247  23293972.8884   23293980.1354   23293972.9964
        47.000          42.000
 112267464.45747  87481137.85547  21363787.9484   21363792.6004   21363788.1504
        52.000          47.000
 119450116.00947  93077989.59647  22730617.2934   22730622.6154   22730617.5984
        50.000          44.000
 118019412.53547  91963152.87847  22458365.3094   22458372.4654   22458364.8904
        50.000          44.000
 108095136.62147  84229954.11947  20569837.8024   20569844.3144   20569837.4024
        56.000          52.000
 13  4 22  0 54  0.0000000  0  7G15G05G26G21G18G09G24
 110302287.01647  85949824.28047  20989834.0924   20989838.5164   20989833.7874
        55.000          51.000
 126011835.22347  98191026.39147  23979266.1384   23979272.8884   23979265.7414
        47.000          42.000
 122505686.39647  95458957.10647  23312072.9464   23312080.6804   23312072.8044
        47.000          42.000
 112232626.46047  87453991.36247  21357158.5774   21357163.4044   21357158.9804
        52.000          47.000
 119375942.31147  93020191.94447  22716502.4904   22716507.6924   22716502.7084
        50.000          44.000
 118105881.23047  92030530.96547  22474820.3194   22474826.8784   22474820.4224
        50.000          44.000
 108052038.93147  84196371.51847  20561636.3284   20561643.3434   20561635.8904
        56.000          52.000
 13  4 22  0 54 30.0000000  0  7G15G05G26G21G18G09G24
 110344519.33947  85982732.56147  20997870.6454   20997875.1084   20997870.1664
        55.000          51.000
 126085899.70047  98248738.86447  23993359.6894   23993366.7204   23993359.5314
        46.000          42.000
 122600806.97747  95533076.94447  23330174.0764   23330181.7344   23330174.0644
        47.000          41.000
 112198315.39947  87427255.48247  21350629.4994   21350634.0544   21350629.7514
        52.000          47.000
 119301792.29047  92962412.75647  22702391.8424   22702397.6814   22702392.1024
        50.000          44.000
 118192758.99847  92098227.82247  22491353.0344   22491359.3784   22491352.8654
        50.000          44.000
 108009483.53447  84163211.49147  20553538.0674   20553545.4964   20553537.4324
        56.000          52.000
 13  4 22  0 55  0.0000000  0  7G15G05G26G21G18G09G24
 110386924.57547  86015775.57847  21005940.0764   21005944.6804   21005939.6524
        55.000          51.000
 126160146.31347  98306593.26147  24007488.2954   24007496.0244   24007487.6104
        47.000          42.000
 122695929.74147  95607198.48247  23348275.1694   23348282.8494   23348274.9654
        47.000          41.000
 112164531.43847  87400930.32647  21344200.7894   21344205.0154   21344201.3104
        53.000          47.000
 119227666.05347  92904652.08447  22688286.5794   22688291.8324   22688286.8794
        51.000          44.000
 118280041.76747  92166240.27047  22507962.6554   22507968.9824   22507962.6104
        50.000          44.000
 107967471.35447  84130474.74247  20545543.4664   20545550.7564   20545542.7874
        56.000          52.000
 13  4 22  0 55 30.0000000  0  7G15G05G26G21G18G09G24
 110429504.30647  86048954.57447  21014042.7214   21014047.3644   21014042.3944
        55.000          51.000
 126234578.17847  98364592.02347  24021652.6104   24021659.9684   24021652.5224
        48.000          43.000
 122791056.49647  95681323.12347  23366377.2944   23366384.9634   23366377.5034
        47.000          41.000
 112131279.32047  87375019.59347  21337873.0784   21337877.4794   21337873.5824
        53.000          47.000
 119153567.78347  92846913.22347  22674185.9484   22674191.4874   22674186.2124
        51.000          45.000
 118367729.97747  92234568.66047  22524649.2264   22524655.4614   22524649.6464
        49.000          44.000
 107926006.37847  84098164.39447  20537653.0484   20537660.2364   20537652.4574
        56.000          52.000
 13  4 22  0 56  0.0000000  0  7G15G05G26G21G18G09G24
 110472255.21347  86082266.94947  21022178.0514   21022182.7314   21022177.6464
        55.000          51.000
 126309193.02947  98422733.36447  24035852.1404   24035858.7104   24035851.7884
        48.000          43.000
 122886183.81747  95755448.21647  23384479.4004   23384487.4014   23384479.4284
        46.000          41.000
 112098557.90947  87349522.39647  21331646.3934   21331650.9634   21331646.7944
        53.000          47.000
 119079496.71247  92789195.54247  22660090.4064   22660096.3514   22660090.8194
        51.000          45.000
 118455818.30247  92303208.82547  22541411.4724   22541418.6634   22541411.5074
        50.000          44.000
 107885087.89347  84066279.87847  20529866.4794   20529873.9694   20529865.9094
        56.000          52.000
 13  4 22  0 56 30.0000000  0  8G15G22G05G26G21G18G09G24
 110515176.44147  86115712.04947  21030345.9064   21030350.5194   21030345.6194
        55.000          51.000
 142507255.39557  93252372.88657  25215317.9745   25215326.8665   25215317.9485
        43.000          37.000
 126383991.07047  98481017.42447  24050085.8314   24050092.3194   24050085.0164
        48.000          43.000
 122981310.52947  95829572.81447  23402580.9794   23402589.1734   23402580.6214
        46.000          41.000
 112066368.82947  87324440.01047  21325520.9844   21325525.3024   21325521.3694
        53.000          47.000
 119005454.48747  92731500.35647  22646000.5394   22646006.5704   22646001.1064
        51.000          45.000
 118544304.11247  92372158.74547  22558249.4564   22558256.6944   22558249.4764
        49.000          44.000
 107844717.15947  84034822.18347  20522184.1514   20522191.5024   20522183.5684
        56.000          52.000
 13  4 22  0 57  0.0000000  0  8G15G22G05G26G21G18G09G24
 110558265.81947  86149288.16847  21038545.4944   21038550.1444   21038545.2874
        55.000          51.000
 142421980.52747  93185925.01347  25199090.5744   25199099.2514   25199091.8574
        43.000          37.000
 126458970.98647  98539443.23247  24064354.0354   24064360.8924   24064353.8004
        47.000          42.000
 123076434.46747  95903695.25147  23420682.2374   23420690.6904   23420682.0474
        46.000          40.000
 112034712.70147  87299772.90947  21319496.7744   21319501.3674   21319497.0334
        53.000          47.000
 118931441.39947  92673827.85947  22631916.1844   22631922.1584   22631916.5034
        51.000          45.000
 118633183.68447  92441415.46647  22575162.3614   22575170.3244   22575162.0984
        49.000          43.000
 107804894.86847  84003791.84247  20514606.1984   20514613.3254   20514605.5674
        56.000          52.000
 13  4 22  0 57 30.0000000  0  8G15G22G05G26G21G18G09G24
 110601523.72347  86182995.61647  21046777.2394   21046781.5434   21046777.0394
        55.000          51.000
 142336622.81447  93119412.57847  25182848.2054   25182856.4324   25182849.7824
        42.000          37.000
 126534134.36347  98598012.00347  24078657.3564   24078664.2304   24078657.1354
        47.000          42.000
 123171556.33947  95977816.08347  23438783.4244   23438791.7074   23438783.7464
        46.000          41.000
 112003592.78647  87275523.63747  21313575.0424   21313579.6874   21313575.3064
        53.000          47.000
 118857460.74547  92616180.64947  22617838.4024   22617844.0444   22617838.8914
        51.000          45.000
 118722456.00447  92510978.24347  22592150.5524   22592158.0164   22592150.5514
        50.000          44.000
 107765623.36147  83973190.68547  20507133.1494   20507140.3544   20507132.5904
        56.000          52.000
 13  4 22  0 58  0.0000000  0  8G15G22G05G26G21G18G09G24
 110644947.98847  86216832.69547  21055040.3734   21055044.8284   21055039.8814
        55.000          51.000
 142251181.73747  93052835.17547  25166589.6104   25166596.9544   25166590.5234
        44.000          38.000
 126609480.09747  98656722.84847  24092994.7054   24093001.9574   24092994.4194
        47.000          42.000
 123266673.66347  96051933.38947  23456884.5524   23456892.4144   23456885.2214
        46.000          41.000
 111973009.18447  87251692.26947  21307755.2194   21307759.9214   21307755.6054
        53.000          47.000
 118783512.99047  92558559.08747  22603766.5954   22603772.1244   22603767.1454
        52.000          45.000
 118812116.89647  92580843.80047  22609212.5724   22609219.7164   22609212.3074
        49.000          43.000
 107726903.34047  83943019.25847  20499764.8864   20499772.1684   20499764.5074
        56.000          52.000
 13  4 22  0 58 30.0000000  0  8G15G22G05G26G21G18G09G24
 110688537.39047  86250798.45647  21063335.3944   21063339.6864   21063335.1024
        55.000          51.000
 142165658.32647  92986193.61347  25150314.3734   25150321.9424   25150314.7254
        44.000          37.000
 126685007.81647  98715575.53847  24107366.3784   24107374.0344   24107366.2034
        46.000          42.000
 123361785.13747  96126046.13147  23474984.1954   23474991.3544   23474984.1044
        47.000          40.000
 111942963.30147  87228279.91047  21302037.4234   21302041.9874   21302037.6634
        52.000          47.000
 118709599.10947  92500963.90547  22589701.3964   22589706.9684   22589702.0924
        52.000          45.000
 118902163.16247  92651009.66547  22626348.5064   22626355.1384   22626348.4854
        49.000          43.000
 107688735.24447  83913277.90147  20492501.6464   20492508.7654   20492501.1344
        56.000          52.000
 13  4 22  0 59  0.0000000  0  8G15G22G05G26G21G18G09G24
 110732291.32347  86284892.41647  21071661.3554   21071666.0384   21071660.9654
        55.000          51.000
 142080054.31947  92919489.21347  25134024.1094   25134031.3854   25134024.4454
        43.000          37.000
 126760718.44047  98774570.73647  24121773.5214   24121782.1094   24121772.7424
        47.000          42.000
 123456890.42147  96200154.03447  23493081.9884   23493090.0294   23493082.0114
        46.000          41.000
 111913456.81447  87205287.86047  21296422.5344   21296426.9814   21296422.8214
        53.000          47.000
 118635721.35247  92443396.88247  22575643.0574   22575648.4434   22575643.8064
        52.000          45.000
 118992592.59347  92721474.07647  22643557.0434   22643563.7054   22643557.1704
        49.000          43.000
 107651121.33847  83883968.38447  20485344.1934   20485351.1114   20485343.4654
        56.000          52.000
 13  4 22  0 59 30.0000000  0  8G15G22G05G26G21G18G09G24
 110776205.21447  86319111.02047  21080017.9504   21080022.5924   21080017.5324
        55.000          51.000
 141994366.82147  92852719.75047  25117717.6784   25117725.7524   25117718.2264
        43.000          37.000
 126836607.87947  98833705.24647  24136215.4164   24136223.2394   24136214.7614
        46.000          42.000
 123551984.70347  96274253.36747  23511177.5824   23511185.9544   23511177.3774
        46.000          40.000
 111884487.47647  87182714.36147  21290909.7284   21290914.4804   21290910.0874
        53.000          47.000
 118561877.59247  92385856.34247  22561591.2884   22561596.3674   22561591.9594
        52.000          45.000
 119083398.96447  92792232.17447  22660836.8044   22660843.8484   22660836.9964
        49.000          44.000
 107614059.34847  83855088.94147  20478291.5294   20478298.4514   20478291.0714
        56.000          52.000
 13  4 22  1  0  0.0000000  0  8G15G22G05G26G21G18G09G24
 110820280.84647  86353455.65947  21088405.4534   21088409.7174   21088405.0764
        55.000          51.000
 141908599.41647  92785888.04147  25101396.7964   25101404.0034   25101397.3774
        42.000          37.000
 126912678.95047  98892981.29247  24150691.5374   24150698.9084   24150691.3284
        47.000          42.000
 123647069.97747  96348345.64147  23529271.2504   23529280.6234   23529271.3014
        45.000          40.000
 111856059.44847  87160562.67047  21285500.1464   21285504.8734   21285500.5984
        53.000          47.000
 118488072.23447  92328345.73647  22547546.3534   22547551.2254   22547547.2194
        52.000          45.000
 119174582.38347  92863284.09047  22678188.0934   22678195.3964   22678188.4874
        49.000          43.000
 107577552.93147  83826642.40147  20471344.5654   20471351.3964   20471343.9704
        56.000          52.000
 13  4 22  1  0 30.0000000  0  8G15G22G05G26G21G18G09G24
 110864520.40047  86387928.03047  21096823.7124   21096828.1544   21096823.3844
        55.000          50.000
 141822755.93947  92718997.11047  25085062.0724   25085068.9294   25085062.2114
        43.000          38.000
 126988934.66147  98952401.22847  24165202.6354   24165209.9254   24165202.3364
        47.000          42.000
 123742148.16347  96422432.43047  23547364.3074   23547372.8464   23547363.9364
        45.000          40.000
 111828177.30247  87138836.33147  21280194.4744   21280199.1864   21280194.7514
        53.000          47.000
 118414309.69747  92270868.48547  22533509.8614   22533514.7504   22533510.4954
        52.000          46.000
 119266142.95447  92934629.88747  22695611.4234   22695618.8704   22695611.9664
        49.000          43.000
 107541606.62047  83798632.31247  20464504.2344   20464511.0964   20464503.8084
        56.000          52.000
 13  4 22  1  1  0.0000000  0  8G15G22G05G26G21G18G09G24
 110908914.81547  86422521.07447  21105271.4644   21105276.1324   21105271.0964
        55.000          50.000
 141736829.81847  92652041.81247  25068710.4574   25068717.6514   25068711.8114
        42.000          38.000
 127065367.50247  99011959.18147  24179747.5164   24179754.6144   24179746.6924
        47.000          42.000
 123837210.47847  96496506.84147  23565454.5484   23565462.8364   23565455.1764
        46.000          40.000
 111800834.80547  87117530.50447  21274991.4164   21274996.1074   21274991.6724
        52.000          47.000
 118340583.98747  92213419.93647  22519480.1474   22519485.1054   22519480.5264
        52.000          46.000
 119358070.22347  93006261.42647  22713104.6664   22713111.9764   22713104.9634
        48.000          43.000
 107506213.77247  83771053.49747  20457769.0074   20457776.1354   20457768.3644
        56.000          52.000
 13  4 22  1  1 30.0000000  0  8G15G22G05G26G21G18G09G24
 110953469.13947  86457238.71647  21113749.7794   21113754.5614   21113749.3694
        55.000          50.000
 141650827.80747  92585027.41047  25052344.4654   25052351.6484   25052345.6554
        42.000          38.000
 127141982.95847  99071659.42647  24194327.3354   24194334.4384   24194327.1384
        47.000          42.000
 123932261.69147  96570572.61447  23583542.4434   23583550.3284   23583541.6674
        46.000          40.000
 111774038.67047  87096650.40747  21269892.2174   21269896.8754   21269892.4544
        52.000          47.000
 118266902.49347  92156005.83947  22505458.8244   22505463.8494   22505459.2054
        52.000          46.000
 119450366.95747  93078180.83847  22730668.4044   22730675.3294   22730668.6224
        48.000          43.000
 107471381.32547  83743911.34947  20451140.4634   20451147.6664   20451139.8584
        56.000          52.000
 13  4 22  1  2  0.0000000  0  8G15G22G05G26G21G18G09G24
 110998180.08647  86492078.39947  21122258.2744   21122263.0644   21122257.9054
        55.000          51.000
 141564749.05847  92517953.19947  25035964.2344   25035970.9914   25035965.3874
        43.000          38.000
 127218778.93047  99131500.32047  24208941.5674   24208948.3274   24208941.2044
        47.000          42.000
 124027298.88147  96644627.45147  23601627.2154   23601635.3174   23601627.2964
        46.000          40.000
 111747788.46747  87076195.71147  21264896.8864   21264901.5814   21264897.3264
        53.000          47.000
 118193264.76247  92098625.84747  22491445.8434   22491450.9914   22491446.1784
        52.000          46.000
 119543028.33347  93150384.39047  22748301.6884   22748308.8454   22748301.9444
        48.000          43.000
 107437108.39447  83717205.19547  20444618.5864   20444625.6824   20444617.9424
        56.000          52.000
 13  4 22  1  2 30.0000000  0  8G15G22G05G26G21G18G09G24
 111043043.61947  86527036.98847  21130795.6504   21130800.3954   21130795.3604
        55.000          51.000
 141478590.57647  92450816.83647  25019568.3924   25019575.6504   25019570.1144
        41.000          36.000
 127295751.69247  99191478.97947  24223588.3854   24223596.2794   24223588.1834
        47.000          42.000
 124122317.87547  96718668.09147  23619708.8634   23619717.4124   23619708.0964
        45.000          40.000
 111722082.51247  87056165.10247  21260005.5034   21260009.8324   21260006.0584
        53.000          47.000
 118119669.14747  92041278.66947  22477440.7424   22477446.1894   22477440.9454
        52.000          46.000
 119636048.32347  93222867.38747  22766002.9914   22766010.3324   22766003.1474
        48.000          43.000
 107403392.48647  83690933.08847  20438202.8384   20438209.7654   20438202.2684
        56.000          52.000
 13  4 22  1  3  0.0000000  0  8G15G22G05G26G21G18G09G24
 111088063.10047  86562117.09947  21139362.5494   21139367.2104   21139362.2854
        55.000          50.000
 141392358.38747  92383623.06047  25003159.4134   25003167.0644   25003160.9944
        42.000          36.000
 127372906.35947  99251599.38947  24238270.9464   24238278.7024   24238270.4814
        47.000          42.000
 124217322.00447  96792697.13847  23637788.1214   23637796.6804   23637788.7384
        46.000          40.000
 111696926.01447  87036562.64547  21255218.2914   21255222.3874   21255218.7564
        53.000          47.000
 118046121.86647  91983969.15947  22463444.9434   22463450.5664   22463445.2214
        52.000          46.000
 119729428.57247  93295631.10547  22783772.6354   22783780.0804   22783772.6704
        49.000          43.000
 107370239.45447  83665099.57947  20431893.9944   20431900.9524   20431893.3564
        56.000          52.000
 13  4 22  1  3 30.0000000  0  8G15G22G05G26G21G18G09G24
 111133233.97847  86597315.17447  21147958.2134   21147963.0324   21147957.8224
        55.000          50.000
 141306049.55047  92316369.54747  24986735.8414   24986741.7824   24986737.7834
        44.000          37.000
 127450238.69647  99311858.23447  24252986.6164   24252994.0494   24252986.1144
        46.000          41.000
 124312306.72247  96866711.08947  23655863.3434   23655872.0304   23655862.0064
        46.000          40.000
 111672316.97647  87017386.78247  21250535.3034   21250539.3204   21250535.7094
        53.000          47.000
 117972620.79247  91926695.65547  22449458.1514   22449463.9284   22449458.6174
        52.000          46.000
 119823162.85047  93368670.69447  22801609.2084   22801617.1664   22801608.7304
        48.000          43.000
 107337646.58147  83639702.55747  20425691.7454   20425698.7874   20425691.2674
        56.000          52.000
 13  4 22  1  4  0.0000000  0  8G15G22G05G26G21G18G09G24
 111178555.71447  86632630.80047  21156582.4274   21156587.5834   21156581.8174
        55.000          50.000
 141219665.68447  92249057.57347  24970297.8074   24970304.0624   24970298.5774
        44.000          38.000
 127527749.36547  99372256.02947  24267736.3964   24267743.8734   24267736.0964
        47.000          41.000
 124407271.75447  96940709.67747  23673934.1974   23673942.7164   23673934.6834
        45.000          39.000
 111648256.65547  86998638.48947  21245956.6524   21245961.0144   21245957.1464
        53.000          47.000
 117899168.20347  91869459.92947  22435480.8314   22435486.5524   22435481.1214
        52.000          46.000
 119917248.54647  93441984.11547  22819513.6784   22819521.4524   22819513.3714
        48.000          43.000
 107305615.32647  83614743.16247  20419596.4724   20419603.4054   20419595.9794
        56.000          52.000
 13  4 22  1  4 30.0000000  0  8G15G22G05G26G21G18G09G24
 111224029.57847  86668064.95847  21165236.1144   21165240.9194   21165235.6124
        55.000          50.000
 141133210.00347  92181689.64147  24953844.7984   24953852.4234   24953845.1174
        42.000          38.000
 127605440.56447  99432794.50847  24282520.8764   24282527.9004   24282520.4454
        47.000          41.000
 124502218.35647  97014693.91347  23692001.6324   23692010.5174   23692001.3034
        45.000          39.000
 111624748.69147  86980320.60347  21241483.1464   21241487.6984   21241483.6254
        52.000          47.000
 117825767.69247  91812264.78047  22421513.2914   22421518.8294   22421513.5064
        53.000          46.000
 120011685.29347  93515571.10147  22837484.6164   22837491.7754   22837485.1104
        48.000          43.000
 107274149.06247  83590224.01347  20413608.6684   20413615.4074   20413608.0614
        56.000          52.000
 13  4 22  1  5  0.0000000  0  8G15G22G05G26G21G18G09G24
 111269652.44347  86703615.22447  21173918.0644   21173922.6914   21173917.6224
        55.000          51.000
 141046680.96447  92114264.52847  24937379.0774   24937385.6994   24937380.0624
        41.000          38.000
 127683309.72247  99493471.64247  24297338.7314   24297345.7324   24297338.0544
        46.000          41.000
 124597143.26447  97088661.27847  23710065.4724   23710074.3714   23710065.2074
        45.000          39.000
 111601791.90647  86962432.20347  21237114.7484   21237119.2114   21237115.1374
        53.000          47.000
 117752418.76347  91755109.82647  22407555.5034   22407560.7834   22407555.9674
        53.000          46.000
 120106467.83347  93589427.54147  22855521.2084   22855529.0144   22855521.1654
        48.000          43.000
 107243246.69147  83566144.26447  20407727.9324   20407735.0114   20407727.2994
        56.000          52.000
 13  4 22  1  5 30.0000000  0  8G15G22G05G26G21G18G09G24
 111315420.88047  86739278.92347  21182627.6104   21182632.2264   21182627.3444
        55.000          51.000
 140960077.52147  92046781.49147  24920898.7314   24920905.9514   24920899.8214
        43.000          37.000
 127761354.12647  99554285.32947  24312190.2134   24312197.7964   24312189.6194
        47.000          42.000
 124692042.99447  97162608.97047  23728124.1864   23728133.0954   23728124.1564
        44.000          39.000
 111579385.15447  86944972.40347  21232850.6824   21232855.4114   21232850.9634
        52.000          47.000
 117679120.74447  91697994.53447  22393607.1874   22393612.0854   22393607.6564
        53.000          46.000
 120201590.64447  93663549.12747  22873622.0524   22873630.4784   22873622.7384
        48.000          43.000
 107212906.13347  83542502.28747  20401954.3834   20401961.4004   20401953.7964
        56.000          52.000
 13  4 22  1  6  0.0000000  0  8G15G22G05G26G21G18G09G24
 111361338.91947  86775059.19347  21191365.4174   21191370.0834   21191364.9534
        55.000          50.000
 140873405.28347  91979244.72847  24904405.8954   24904411.4474   24904406.8624
        43.000          37.000
 127839578.66247  99615239.39547  24327076.1444   24327084.4184   24327075.9894
        46.000          42.000
 124786921.80447  97236540.39147  23746179.4154   23746188.0014   23746179.0824
        45.000          40.000
 111557534.30647  86927945.77047  21228692.6384   21228697.1844   21228692.8994
        53.000          47.000
 117605880.04847  91640923.92047  22379669.9854   22379674.8924   22379670.7114
        53.000          46.000
 120297056.00647  93737937.61447  22891788.3594   22891796.9864   22891788.9474
        47.000          43.000
 107183133.74347  83519303.03947  20396288.8244   20396295.8334   20396288.2544
        56.000          52.000
 13  4 22  1  6 30.0000000  0  8G15G22G05G26G21G18G09G24
 111407399.59747  86810950.61047  21200130.4504   21200135.2354   21200130.0524
        55.000          50.000
 140786659.48447  91911650.67747  24887899.1244   24887904.2414   24887899.6354
        43.000          38.000
 127917977.26347  99676329.07947  24341995.1514   24342003.2224   24341994.9044
        46.000          42.000
 124881772.97947  97310450.29147  23764229.4804   23764237.7484   23764230.1904
        44.000          39.000
 111536234.74247  86911348.71947  21224639.6074   21224643.9624   21224640.0814
        53.000          47.000
 117532692.60347  91583894.79247  22365742.9184   22365747.7294   22365743.4724
        53.000          46.000
 120392855.52247  93812586.50147  22910019.1434   22910027.2884   22910019.6184
        48.000          43.000
 107153924.26347  83496542.41747  20390730.5154   20390737.5244   20390729.9414
        56.000          52.000
 13  4 22  1  7  0.0000000  0  9G15G22G12G05G26G21G18G09G24
 111453608.86847  86846957.81147  21208923.6464   21208928.4264   21208923.3114
        55.000          50.000
 140699848.25947  91844005.67847  24871378.9644   24871384.8694   24871379.9764
        43.000          38.000
 141365555.53957  92362728.00157  24998066.8395   24998077.3975   24998066.6375
        42.000          37.000
 127996556.81447  99737559.74047  24356948.1104   24356955.6774   24356947.8544
        46.000          41.000
 124976602.40847  97384343.22747  23782274.7194   23782283.5004   23782274.6084
        43.000          39.000
 111515494.34647  86895187.37647  21220692.8224   21220697.2314   21220693.2284
        53.000          47.000
 117459566.73547  91526913.64347  22351827.4594   22351832.3914   22351827.8754
        53.000          46.000
 120488992.89747  93887498.67647  22928313.7094   22928321.4074   22928314.0564
        48.000          43.000
 107125285.85747  83474226.78747  20385280.7694   20385287.8474   20385280.2194
        56.000          52.000
 13  4 22  1  7 30.0000000  0  9G15G22G12G05G26G21G18G09G24
 111499956.78747  86883073.05247  21217743.4904   21217748.5074   21217743.2004
        55.000          50.000
 140612963.32247  91776303.25747  24854843.8644   24854851.1454   24854844.8334
        41.000          37.000
 121281017.06057 112296866.25057  24981969.1555   24981978.4765   24981968.6475
        42.000          37.000
 128075308.15747  99798924.30347  24371934.2564   24371942.0694   24371933.7104
        46.000          42.000
 125071400.22247  97458211.52847  23800313.7364   23800323.2994   23800313.3514
        45.000          39.000
 111495305.11647  86879455.51647  21216850.9504   21216855.5264   21216851.2054
        53.000          47.000
 117386495.24047  91469974.85447  22337922.6584   22337927.1454   22337923.3274
        53.000          46.000
 120585456.22747  93962664.81247  22946670.3324   22946677.9474   22946669.8564
        48.000          43.000
 107097210.08647  83452349.57047  20379938.0304   20379945.0424   20379937.4214
        56.000          52.000
 13  4 22  1  8  0.0000000  0  9G15G22G12G05G26G21G18G09G24
 111546448.76947  86919300.54647  21226590.6984   21226595.4344   21226590.5174
        55.000          50.000
 140526012.30747  91708549.27147  24838297.6994   24838303.6174   24838298.5134
        41.000          37.000
 121196263.35347 112230824.45447  24965840.8334   24965851.1624   24965840.3334
        43.000          37.000
 128154237.30847  99860427.40947  24386953.9134   24386962.4234   24386953.6894
        46.000          42.000
 125166171.80947  97532059.42047  23818348.8954   23818357.0244   23818349.3954
        45.000          39.000
 111475674.41147  86864158.86347  21213115.1624   21213119.8644   21213115.5914
        53.000          47.000
 117313486.32647  91413084.84547  22324029.2404   22324034.0824   22324029.7514
        53.000          46.000
 120682249.18147  94038087.79047  22965089.4324   22965097.7284   22965089.2494
        48.000          43.000
 107069704.00047  83430916.26047  20374703.8954   20374710.7624   20374703.2534
        56.000          52.000
 13  4 22  1  8 30.0000000  0  9G15G22G12G05G26G21G18G09G24
 111593065.94947  86955625.60147  21235462.0084   21235466.3154   21235461.6784
        56.000          50.000
 140438978.29647  91640730.63147  24821735.9684   24821741.7744   24821737.4454
        43.000          37.000
 121111335.70347 112164647.09747  24949679.9774   24949689.2964   24949679.8694
        44.000          38.000
 128233326.01047  99922054.83047  24402003.7464   24402012.4964   24402002.9684
        46.000          41.000
 125260898.50847  97605872.29847  23836374.8904   23836383.5274   23836374.5654
        45.000          39.000
 111456585.00147  86849284.00047  21209482.6324   21209487.3064   21209482.6904
        53.000          47.000
 117240523.68047  91356230.87247  22310145.0524   22310149.5694   22310145.6814
        53.000          46.000
 120779350.82847  94113751.30247  22983567.2714   22983575.5224   22983566.9834
        48.000          43.000
 107042750.49047  83409913.53147  20369574.7854   20369581.9314   20369574.2134
        56.000          52.000
 13  4 22  1  9  0.0000000  0  9G15G22G12G05G26G21G18G09G24
 111639841.42047  86992073.99547  21244363.1014   21244367.4404   21244362.9544
        55.000          50.000
 140351895.98947  91572874.39447  24805165.0274   24805171.4164   24805165.9944
        41.000          38.000
 121026270.45347 112098362.56047  24933492.1084   24933501.5124   24933491.5244
        43.000          38.000
 128312608.09247  99983832.92247  24417090.3834   24417099.1464   24417089.7324
        45.000          41.000
 125355613.17747  97679675.82947  23854398.7594   23854406.4554   23854399.0344
        45.000          38.000
 111438072.02347  86834858.30247  21205959.8994   21205964.5444   21205960.2164
        53.000          47.000
 117167642.81047  91299440.62247  22296276.0834   22296280.7284   22296276.3454
        53.000          46.000
 120876792.11047  94189679.46247  23002109.8154   23002117.9974   23002108.9424
        48.000          43.000
 107016384.09347  83389368.29147  20364557.1844   20364564.6694   20364556.4764
        56.000          52.000
 13  4 22  1  9 30.0000000  0  9G15G22G12G05G26G21G18G09G24
 111686754.40047  87028629.53947  21253290.1174   21253294.8964   21253289.6664
        55.000          50.000
 140264746.96347  91504966.19647  24788580.9044   24788587.8434   24788581.7944
        44.000          38.000
 120941050.48747 112031957.44447  24917275.5044   24917284.2574   24917275.2314
        43.000          38.000
 128392063.64347 100045746.19247  24432210.6534   24432218.8634   24432209.6714
        45.000          41.000
 125450295.27647  97753453.91047  23872415.9854   23872423.6674   23872417.0134
        44.000          39.000
 111420116.45847  86820866.95347  21202542.8284   21202547.7804   21202543.1044
        52.000          47.000
 117094825.45347  91242699.87047  22282419.3424   22282424.4494   22282419.8194
        53.000          46.000
 120974550.29447  94265854.56047  23020712.8984   23020720.4334   23020712.8794
        48.000          42.000
 106990585.95947  83369265.85247  20359648.0154   20359655.3404   20359647.3964
        56.000          52.000
 13  4 22  1 10  0.0000000  0  9G15G22G12G05G26G21G18G09G24
 111733803.24447  87065290.95647  21262243.0604   21262247.8684   21262242.5574
        55.000          50.000
 140177531.56847  91437006.20947  24771984.3394   24771990.4444   24771985.2794
        44.000          38.000
 120855678.48447 111965433.90047  24901029.4804   24901039.0034   24901029.5364
        41.000          38.000
 128471691.97747 100107794.10547  24447363.7944   24447371.2794   24447363.4114
        45.000          41.000
 125544943.48247  97827205.65247  23890427.8284   23890435.4304   23890426.7524
        43.000          39.000
 111402718.75147  86807310.30447  21199232.0854   21199237.0014   21199232.4824
        52.000          47.000
 117022072.98247  91186009.67247  22268574.7574   22268580.0524   22268575.1634
        53.000          46.000
 121072622.10847  94342274.04347  23039375.7314   23039382.8564   23039375.1354
        48.000          42.000
 106965356.34947  83349606.42547  20354847.0284   20354854.3294   20354846.4724
        56.000          52.000
 13  4 22  1 10 30.0000000  0  9G15G22G12G05G26G21G18G09G24
 111780988.28247  87102058.49847  21271222.1804   21271226.9634   21271221.7774
        55.000          50.000
 140090251.96647  91368996.18647  24755375.6874   24755382.0424   24755376.9644
        43.000          38.000
 120770158.43847 111898795.01447  24884755.9194   24884765.0704   24884755.2264
        39.000          38.000
 128551493.82647 100169977.24547  24462549.3924   24462557.5334   24462548.9044
        45.000          41.000
 125639558.09947  97900931.20747  23908431.6824   23908439.5674   23908432.1464
        44.000          38.000
 111385880.89347  86794189.88847  21196028.2954   21196032.6524   21196028.6274
        53.000          47.000
 116949388.37547  91129372.36147  22254743.1094   22254748.3264   22254743.0734
        53.000          46.000
 121171005.77947  94418936.53247  23058097.8214   23058105.0814   23058098.1994
        48.000          42.000
 106940696.76747  83330391.17647  20350154.5174   20350161.5964   20350154.1414
        56.000          52.000
 13  4 22  1 11  0.0000000  0  9G15G22G12G05G26G21G18G09G24
 111828307.52847  87138930.62347  21280226.7154   21280231.6084   21280226.3694
        55.000          50.000
 140002908.52047  91300936.47747  24738754.1834   24738761.1594   24738755.7564
        42.000          38.000
 120684491.66847 111832041.79947  24868453.2224   24868462.8714   24868452.8734
        41.000          37.000
 128631467.92847 100232294.58247  24477768.5544   24477777.0934   24477768.3084
        46.000          41.000
 125734137.17947  97974629.08847  23926429.2864   23926438.6274   23926429.2224
        44.000          39.000
 111369602.97647  86781505.80047  21192930.6294   21192934.7764   21192930.8114
        53.000          47.000
 116876772.05647  91072788.26447  22240924.7794   22240929.8434   22240925.0314
        53.000          46.000
 121269697.54947  94495839.08047  23076878.1574   23076885.4344   23076878.5234
        47.000          42.000
 106916606.78747  83311619.76747  20345570.3334   20345577.3214   20345569.7954
        56.000          52.000
 13  4 22  1 11 30.0000000  0  9G15G22G12G05G26G21G18G09G24
 111875763.88247  87175909.58547  21289257.6774   21289262.2334   21289257.3664
        55.000          50.000
 139915505.75547  91232830.53447  24722122.9684   24722129.5494   24722123.8714
        44.000          39.000
 120598685.09147 111765179.62147  24852125.2324   24852134.2444   24852124.6824
        40.000          37.000
 128711617.60047 100294748.69447  24493020.7144   24493029.1584   24493020.0874
        45.000          41.000
 125828683.73247  98048301.57547  23944421.9334   23944430.0684   23944421.3454
        44.000          39.000
 111353889.01847  86769261.16247  21189940.3074   21189944.4354   21189940.7974
        53.000          47.000
 116804229.68347  91016261.78547  22227120.6094   22227125.6334   22227120.9424
        53.000          46.000
 121368698.01847  94572982.17647  23095717.1904   23095724.7984   23095717.4024
        47.000          42.000
 106893091.08047  83293295.84847  20341095.7584   20341102.4754   20341095.4404
        57.000          52.000
 13  4 22  1 12  0.0000000  0  9G15G22G12G05G26G21G18G09G24
 111923351.09847  87212990.51747  21298313.1274   21298317.7624   21298312.7394
        55.000          50.000
 139828039.50547  91164675.15647  24705478.4164   24705485.2754   24705479.9194
        44.000          39.000
 120512736.22947 111698206.53347  24835769.4814   24835778.8164   24835768.8404
        41.000          38.000
 128791937.50947 100357335.50047  24508305.0854   24508312.9144   24508304.9584
        46.000          41.000
 125923191.63347  98121944.00847  23962406.3964   23962414.1844   23962406.4804
        45.000          39.000
 111338734.68647  86757452.60047  21187056.5054   21187061.1064   21187056.8834
        53.000          47.000
 116731757.71647  90959790.16647  22213329.7184   22213334.5954   22213330.5184
        53.000          46.000
 121467999.04547  94650359.49147  23114613.6974   23114621.5344   23114614.2504
        47.000          42.000
 106870144.74747  83275415.60047  20336729.0784   20336736.1154   20336728.7824
        56.000          52.000
 13  4 22  1 12 30.0000000  0  9G15G22G12G05G26G21G18G09G24
 111971071.75647  87250175.42647  21307393.8094   21307398.6984   21307393.4264
        55.000          50.000
 139740514.39347  91096473.91147  24688822.3614   24688829.8474   24688824.3624
        43.000          39.000
 120426651.16547 111631127.31147  24819386.8754   24819397.3134   24819386.8784
        39.000          36.000
 128872430.85347 100420057.41647  24523623.0614   24523630.3434   24523622.9574
        45.000          41.000
 126017663.59847  98195558.38647  23980383.9544   23980391.7164   23980384.1314
        45.000          39.000
 111324144.20847  86746083.39247  21184280.2414   21184284.6604   21184280.6404
        53.000          47.000
 116659361.35247  90903377.47247  22199552.9074   22199557.6574   22199553.7154
        53.000          46.000
 121567601.31647  94727971.52947  23133567.7704   23133575.3094   23133567.7134
        48.000          42.000
 106847771.55147  83257981.95147  20332471.5074   20332478.4174   20332471.0004
        56.000          52.000
 13  4 22  1 13  0.0000000  0  9G15G22G12G05G26G21G18G09G24
 112018922.79047  87287461.92747  21316499.3914   21316504.3304   21316498.8794
        55.000          50.000
 139652929.19747  91028225.82347  24672154.7374   24672163.5654   24672155.4814
        42.000          38.000
 120340430.60447 111563942.50247  24802979.9854   24802990.3874   24802980.1894
        40.000          37.000
 128953095.12547 100482912.53447  24538972.2124   24538980.6834   24538971.6754
        45.000          41.000
 126112096.59547  98269142.44747  23998353.9524   23998360.8044   23998353.0694
        44.000          38.000
 111310116.28247  86735152.54247  21181610.6414   21181615.1164   21181610.9474
        53.000          47.000
 116587039.98047  90847023.20947  22185790.9494   22185795.4084   22185791.5894
        53.000          46.000
 121667499.94247  94805814.51247  23152577.7014   23152584.6604   23152577.8084
        47.000          42.000
 106825970.14347  83240993.85047  20328322.7504   20328329.4914   20328322.1414
        56.000          52.000
 13  4 22  1 13 30.0000000  0  9G15G22G12G05G26G21G18G09G24
 112066904.20947  87324850.02447  21325629.9094   21325634.6484   21325629.4434
        55.000          50.000
 139565285.71547  90959932.35847  24655477.0794   24655485.5384   24655476.9444
        41.000          39.000
 140253996.97957  91496574.85057  24786545.9515   24786557.1075   24786548.0185
        38.000          37.000
 129033930.71647 100545901.13347  24554355.4374   24554363.2694   24554355.3924
        46.000          41.000
 126206490.48047  98342696.01447  24016316.6014   24016323.6974   24016316.5104
        44.000          38.000
 111296652.40847  86724661.20647  21179048.3984   21179053.4004   21179048.5954
        52.000          47.000
 116514796.10047  90790729.32147  22172043.2414   22172047.4784   22172043.7604
        53.000          46.000
 121767692.46147  94883886.48347  23171643.2424   23171650.4364   23171643.5724
        46.000          42.000
 106804741.86647  83224452.34947  20324283.2194   20324290.0824   20324282.6064
        56.000          52.000
 13  4 22  1 14  0.0000000  0  9G15G22G12G05G26G21G18G09G24
 112115011.40447  87362336.13047  21334784.5094   21334789.2604   21334784.0364
        55.000          50.000
 139477581.85447  90891591.88247  24638786.8974   24638795.2704   24638787.6254
        42.000          39.000
 120167527.07757 111429199.11357  24770090.9305   24770099.5755   24770089.7785
        40.000          38.000
 129114933.61947 100609020.11047  24569770.6234   24569778.0284   24569770.3854
        45.000          40.000
 126300841.25647  98416215.97447  24034270.3004   24034278.5094   24034271.5504
        44.000          38.000
 111283749.54547  86714607.02547  21176593.2464   21176597.9154   21176593.3504
        53.000          47.000
 116442628.36747  90734494.76747  22158310.0534   22158314.3614   22158310.7174
        53.000          46.000
 121868172.32247  94962182.35047  23190763.9804   23190771.2194   23190763.7054
        46.000          41.000
 106784083.56547  83208354.98947  20320352.0864   20320358.9724   20320351.5334
        56.000          52.000
 13  4 22  1 14 30.0000000  0  9G15G22G12G05G26G21G18G09G24
 112163250.87147  87399925.30547  21343964.2574   21343968.9274   21343963.8584
        55.000          50.000
 139389825.90647  90823210.79147  24622087.0524   24622095.7964   24622087.6034
        42.000          38.000
 120080919.99547 111361713.15147  24753610.3294   24753618.6144   24753609.3024
        41.000          38.000
 129196111.22947 100672275.24847  24585217.6064   24585226.1134   24585217.7144
        46.000          41.000
 126395155.39247  98489707.38447  24052217.7764   24052227.3124   24052217.9484
        44.000          38.000
 111271415.49947  86704996.07547  21174246.1084   21174250.6224   21174246.5624
        53.000          47.000
 116370545.47947  90678326.33347  22144592.7274   22144597.5384   22144593.1804
        52.000          46.000
 121968944.42447  95040705.94947  23209940.2304   23209947.6284   23209941.5344
        46.000          41.000
 106764002.98747  83192707.80047  20316530.7394   20316537.7414   20316530.1554
        56.000          52.000
 13  4 22  1 15  0.0000000  0  9G15G22G12G05G26G21G18G09G24
 112211615.17747  87437611.75547  21353167.6054   21353172.5834   21353167.2734
        55.000          50.000
 139302012.32547  90754784.75847  24605376.8274   24605384.6434   24605377.1714
        42.000          38.000
 119994186.83447 111294128.95247  24737105.1794   24737113.7264   24737104.6664
        42.000          39.000
 129277456.48347 100735661.00647  24600697.0584   24600706.0874   24600696.7384
        44.000          41.000
 126489425.37747  98563164.42347  24070157.6354   24070166.0514   24070157.5424
        43.000          38.000
 111259644.71247  86695824.03447  21172006.1344   21172010.8254   21172006.6014
        53.000          47.000
 116298542.81847  90622220.40647  22130891.1324   22130895.9434   22130891.3854
        53.000          46.000
 122069998.89347  95119449.59347  23229170.1334   23229177.7994   23229170.3884
        46.000          41.000
 106744494.04847  83177506.04747  20312818.3904   20312825.2564   20312817.8044
        57.000          52.000
 13  4 22  1 15 30.0000000  0  9G15G22G12G05G26G21G18G09G24
 112260104.69147  87475395.77647  21362395.0334   21362399.7444   21362394.4514
        55.000          50.000
 139214143.51147  90686315.70547  24588656.2874   24588663.4504   24588656.8464
        43.000          39.000
 119907331.78547 111226449.74047  24720576.6484   24720586.6854   24720576.2944
        43.000          38.000
 129358970.35047 100799178.12747  24616209.0154   24616217.5724   24616208.5344
        43.000          40.000
 126583651.81747  98636587.52947  24088087.3324   24088095.5424   24088088.0254
        43.000          38.000
 111248438.97047  86687092.28947  21169873.7194   21169878.4364   21169874.2134
        53.000          47.000
 116226623.12147  90566179.13347  22117205.2824   22117210.1994   22117205.4344
        52.000          46.000
 122171334.12847  95198412.01047  23248453.3434   23248461.3994   23248453.7674
        46.000          41.000
 106725557.98647  83162750.69347  20309214.8744   20309221.7174   20309214.3434
        56.000          52.000
 13  4 22  1 16  0.0000000  0  9G15G22G12G05G26G21G18G09G24
 112308719.89247  87513277.72647  21371646.4274   21371651.2244   21371646.1564
        55.000          50.000
 139126221.89947  90617805.46747  24571925.4784   24571931.9664   24571926.6254
        42.000          39.000
 119820359.42947 111158679.17647  24704026.4584   24704036.1574   24704025.7294
        42.000          38.000
 129440653.73547 100862827.34547  24631752.7574   24631760.5164   24631752.2674
        45.000          40.000
 126677835.32847  98709977.18247  24106009.5854   24106018.4484   24106008.9884
        42.000          38.000
 111237800.11147  86678802.27447  21167849.4534   21167853.7954   21167850.0194
        53.000          47.000
 116154789.80747  90510205.16847  22103535.7444   22103540.8294   22103536.1744
        52.000          46.000
 122272948.79447  95277592.16947  23267790.1924   23267798.5994   23267790.2924
        45.000          41.000
 106707196.88647  83148443.36147  20305720.8694   20305727.6974   20305720.3424
        56.000          52.000
 13  4 22  1 16 30.0000000  0 10G15G22G12G05G26G14G21G18G09G24
 112357455.25947  87551253.31747  21380920.4834   21380925.2954   21380920.1244
        55.000          50.000
 139038244.18947  90549251.59147  24555183.3664   24555190.7074   24555184.4124
        43.000          39.000
 119733267.22147 111090815.19247  24687453.9084   24687463.5024   24687452.6824
        44.000          39.000
 129522501.61147 100926604.74347  24647328.1454   24647335.9924   24647327.9574
        44.000          40.000
 126771970.54247  98783329.18147  24123923.4934   24123932.6714   24123923.1434
        43.000          38.000
 141263690.60357  92283366.72657  24978671.4985   24978678.5245   24978671.1835
        38.000          35.000
 111227723.71347  86670950.53447  21165931.9214   21165936.3594   21165932.2234
        53.000          47.000
 116083039.77747  90454296.09147  22089882.1644   22089887.3444   22089882.6304
        53.000          46.000
 122374834.91547  95356983.83847  23287177.9924   23287187.0954   23287177.9894
        45.000          41.000
 106689406.74447  83134580.92347  20302335.4584   20302342.2794   20302334.8574
        57.000          52.000
 13  4 22  1 17  0.0000000  0 10G15G22G12G05G26G14G21G18G09G24
 112406319.16447  87589329.06347  21390218.7934   21390223.8024   21390218.4774
        55.000          50.000
 138950220.30447  90480661.68747  24538433.2904   24538440.0114   24538434.0734
        43.000          38.000
 119646067.63247 111022867.52247  24670860.2994   24670870.2174   24670860.7014
        45.000          39.000
 129604522.70847 100990517.11347  24662935.3474   24662944.5134   24662935.5374
        44.000          40.000
 126866065.86747  98856650.09547  24141829.3514   24141838.6564   24141829.7374
        44.000          38.000
 121194574.59257 112229508.11757  24965521.1055   24965529.6085   24965520.7935
        40.000          35.000
 111218219.69647  86663544.81247  21164123.1614   21164127.4854   21164123.4764
        53.000          47.000
 116011384.30147  90398460.69047  22076246.7494   22076251.6094   22076247.4564
        53.000          46.000
 122476999.09047  95436592.16747  23306619.1614   23306628.4074   23306618.9324
        45.000          41.000
 106672196.37547  83121170.25747  20299060.5844   20299067.1994   20299060.1574
        57.000          52.000
 13  4 22  1 17 30.0000000  0 10G15G22G12G05G26G14G21G18G09G24
 112455300.37047  87627496.21447  21399539.3234   21399544.4164   21399538.9034
        55.000          50.000
 138862141.52947  90412028.96247  24521672.2904   24521678.8944   24521673.1554
        42.000          38.000
 119558753.22947 110954830.41947  24654244.1564   24654253.9914   24654244.0274
        42.000          38.000
 129686706.25047 101054556.04647  24678575.3904   24678583.3034   24678575.4504
        44.000          40.000
 126960110.16847  98929931.27747  24159724.9564   24159734.7054   24159724.5284
        43.000          38.000
 121125593.57747 112175756.75047  24952394.4024   24952403.2654   24952394.2694
        41.000          36.000
 111209278.38647  86656577.56247  21162421.8874   21162426.0074   21162422.4504
        53.000          47.000
 115939814.57247  90342692.11347  22062626.9814   22062631.8614   22062627.3684
        52.000          46.000
 122579427.98447  95516406.75847  23326111.0334   23326120.1714   23326111.0054
        45.000          41.000
 106655556.08147  83108203.80247  20295894.1124   20295900.7754   20295893.7074
        57.000          52.000
 13  4 22  1 18  0.0000000  0 10G15G22G12G05G26G14G21G18G09G24
 112504404.64647  87665759.25847  21408883.6634   21408888.7994   21408883.1984
        55.000          50.000
 138774015.31147  90343359.32147  24504902.2144   24504908.9624   24504902.9434
        42.000          39.000
 119471333.77247 110886711.46047  24637607.8054   24637617.8924   24637607.8364
        40.000          37.000
 129769058.58147 101118726.51847  24694246.7644   24694254.7774   24694246.5404
        44.000          40.000
 127054109.52647  99003177.44547  24177612.7754   24177620.9264   24177612.6144
        43.000          38.000
 121056740.54047 112122105.18547  24939292.3204   24939301.5264   24939292.2974
        39.000          35.000
 111200906.81847  86650054.26747  21160828.7144   21160833.1194   21160829.1444
        53.000          47.000
 115868339.01347  90286996.90847  22049025.9024   22049030.6454   22049026.3334
        53.000          46.000
 122682125.42447  95596430.64047  23345653.6764   23345662.5714   23345653.1704
        45.000          40.000
 106639492.88047  83095687.03347  20292837.3334   20292843.9824   20292836.9454
        57.000          52.000
 13  4 22  1 18 30.0000000  0 10G15G22G12G05G26G14G21G18G09G24
 112553626.95647  87704114.28547  21418250.5084   21418255.5744   21418250.1794
        55.000          50.000
 138685838.67447  90274650.38547  24488123.0994   24488129.9404   24488123.7264
        43.000          39.000
 119383807.76947 110818509.47647  24620953.0184   24620962.5494   24620951.7994
        42.000          38.000
 129851574.93247 101183024.80447  24709949.4714   24709957.3664   24709949.8134
        44.000          40.000
 127148058.69847  99076384.47447  24195491.7444   24195501.3964   24195491.5924
        44.000          39.000
 120988011.16147 112068549.92947  24926214.2674   24926222.0054   24926214.1944
        41.000          36.000
 111193100.96547  86643971.78147  21159343.4414   21159347.9204   21159343.8734
        53.000          47.000
 115796955.19747  90231373.19147  22035441.9324   22035446.3684   22035442.2564
        52.000          46.000
 122785083.98147  95676657.96747  23365246.3034   23365255.1204   23365246.1354
        45.000          40.000
 106624002.14747  83083616.33847  20289889.5444   20289896.2274   20289889.0844
        57.000          52.000
 13  4 22  1 19  0.0000000  0 10G15G22G12G05G26G14G21G18G09G24
 112602968.72347  87742562.39247  21427640.1434   21427644.8494   21427639.7814
        55.000          50.000
 138597615.27747  90205905.00247  24471333.7894   24471341.2294   24471334.7974
        42.000          39.000
 119296180.46347 110750228.54947  24604278.6094   24604287.8674   24604278.6004
        43.000          39.000
 129934257.36547 101247452.46847  24725682.9814   24725691.9434   24725682.4164
        44.000          40.000
 127241959.62847  99149553.91347  24213361.0854   24213370.4074   24213360.9854
        44.000          38.000
 120919407.80347 112015092.88947  24913159.5414   24913166.9614   24913160.1764
        40.000          35.000
 111185863.71047  86638332.36947  21157966.3704   21157970.7244   21157966.7584
        52.000          47.000
 115725667.41547  90175824.30847  22021876.3154   22021880.6404   22021876.8874
        52.000          46.000
 122888303.46347  95757088.59547  23384888.6974   23384897.2634   23384888.3474
        46.000          40.000
 106609086.89547  83071994.07147  20287051.2814   20287057.8774   20287050.9144
        57.000          52.000
 13  4 22  1 19 30.0000000  0 10G15G22G12G05G26G14G21G18G09G24
 112652426.73547  87781101.08247  21437051.5714   21437056.5094   21437051.2004
        55.000          50.000
 138509343.88247  90137122.22847  24454536.6104   24454543.6474   24454537.5684
        42.000          39.000
 119208452.60047 110681869.28047  24587584.3664   24587593.2054   24587583.7584
        43.000          38.000
 130017103.46347 101312007.68047  24741448.2424   24741457.6034   24741447.3404
        44.000          40.000
 127335809.20047  99222683.36647  24231219.3144   24231228.6014   24231220.6744
        42.000          37.000
 120850928.15747 111961732.27247  24900125.4344   24900135.4104   24900126.4324
        40.000          34.000
 111179193.22447  86633134.59147  21156696.7934   21156701.2074   21156697.1844
        53.000          47.000
 115654475.23647  90120349.93347  22008328.7044   22008333.2524   22008329.0484
        52.000          46.000
 122991778.39347  95837718.29547  23404579.7304   23404587.8354   23404579.6974
        45.000          40.000
 106594745.08447  83060818.64147  20284322.2034   20284328.9134   20284321.8464
        57.000          52.000
 13  4 22  1 20  0.0000000  0 10G15G22G12G05G26G14G21G18G09G24
 112702005.41647  87819733.79847  21446486.1084   21446491.1264   21446485.6814
        55.000          50.000
 138421030.61247  90068306.83347  24437731.3434   24437738.0454   24437731.6504
        43.000          39.000
 119120632.01247 110613437.75647  24570872.7064   24570881.2664   24570872.4354
        41.000          38.000
 130100117.70047 101376693.92247  24757245.6564   24757254.6094   24757244.9304
        44.000          40.000
 127429611.91847  99295776.30347  24249069.0404   24249079.2464   24249068.2504
        42.000          37.000
 120782577.33947 111908471.98947  24887120.2504   24887128.4164   24887120.9084
        42.000          35.000
 111173094.74647  86628382.53547  21155536.1924   21155540.7224   21155536.5674
        53.000          47.000
 115583385.28947  90064955.21247  21994800.9084   21994805.3774   21994801.4574
        53.000          46.000
 123095510.87047  95918548.66247  23424319.9544   23424328.0464   23424320.4714
        46.000          41.000
 106580981.69847  83050093.92947  20281703.2094   20281709.7304   20281702.8544
        57.000          52.000
 13  4 22  1 20 30.0000000  0 10G15G22G12G05G26G14G21G18G09G24
 112751698.87447  87858455.95647  21455942.5244   21455947.4764   21455942.1194
        55.000          50.000
 138332671.53347  89999455.73347  24420916.8814   24420923.3744   24420917.4784
        43.000          39.000
 119032716.63847 110544932.37747  24554142.7824   24554151.5934   24554142.6204
        43.000          39.000
 130183294.19147 101441506.58147  24773073.4104   24773082.5234   24773073.7094
        44.000          40.000
 127523361.91747  99368828.17447  24266909.9494   24266918.7154   24266909.4604
        43.000          38.000
 120714349.92247 111855307.88347  24874137.8154   24874145.3534   24874137.9404
        43.000          36.000
 111167563.37247  86624072.37047  21154483.5584   21154488.0254   21154483.8734
        53.000          47.000
 115512394.54847  90009637.78547  21981291.9664   21981296.2074   21981292.4634
        53.000          46.000
 123199492.79747  95999573.40847  23444107.4274   23444115.4454   23444108.0754
        46.000          41.000
 106567791.91247  83039816.17747  20279193.1534   20279199.8324   20279192.6404
        57.000          52.000
 13  4 22  1 21  0.0000000  0 10G15G22G12G05G26G14G21G18G09G24
 112801505.40847  87897266.21947  21465420.3174   21465425.2264   21465419.9084
        55.000          50.000
 138244267.17447  89930569.35647  24404093.2704   24404100.7404   24404094.1284
        41.000          39.000
 118944708.41847 110476354.67747  24537394.3934   24537404.5774   24537394.0514
        41.000          38.000
 130266631.78947 101506444.78347  24788931.8794   24788941.2744   24788931.1874
        42.000          40.000
 127617057.55347  99441837.66147  24284738.8064   24284748.3754   24284739.8494
        43.000          37.000
 120646245.06947 111802239.21047  24861177.7354   24861184.6884   24861178.1344
        38.000          36.000
 111162598.87647  86620203.93747  21153539.0054   21153543.3454   21153539.6654
        52.000          47.000
 115441503.75047  89954398.25047  21967801.6614   21967806.2014   21967801.9514
        53.000          46.000
 123303720.49447  96080789.65047  23463940.9744   23463949.6144   23463940.6964
        46.000          41.000
 106555174.86547  83029984.72847  20276792.1114   20276798.9484   20276791.7084
        57.000          52.000
 13  4 22  1 21 30.0000000  0 10G15G22G12G05G26G14G21G18G09G24
 112851426.22347  87936165.52847  21474919.9804   21474924.8764   21474919.7104
        55.000          50.000
 138155821.21247  89861650.60247  24387262.6214   24387270.0534   24387262.3544
        41.000          39.000
 118856612.84647 110407708.89147  24520630.6674   24520640.7254   24520630.0364
        44.000          39.000
 130350132.47947 101571510.03647  24804821.7464   24804831.4714   24804821.0904
        42.000          39.000
 127710700.81447  99514806.31447  24302559.4814   24302568.4414   24302560.2024
        42.000          38.000
 120578265.46647 111749268.23047  24848240.2614   24848249.7424   24848240.6684
        38.000          35.000
 111158203.59847  86616779.05147  21152702.5364   21152707.2504   21152702.8114
        53.000          47.000
 115370717.45647  89899240.13447  21954331.8504   21954336.0044   21954332.2514
        53.000          46.000
 123408193.73347  96162197.25247  23483822.2294   23483829.7084   23483822.7014
        46.000          41.000
 106543132.79847  83020601.30247  20274500.7384   20274507.4294   20274500.2714
        57.000          52.000
 13  4 22  1 22  0.0000000  0 10G15G22G12G05G26G14G21G18G09G24
 112901460.31247  87975153.11547  21484441.2444   21484445.8984   21484440.9284
        55.000          50.000
 138067334.20747  89792699.80347  24370423.8604   24370430.5634   24370424.1384
        43.000          39.000
 118768432.24547 110338996.85147  24503850.6924   24503860.0684   24503850.5694
        43.000          39.000
 130433795.09947 101636701.46147  24820742.5024   24820752.1994   24820741.7214
        42.000          39.000
 127804290.21547  99587733.03447  24320367.8374   24320376.7854   24320366.6704
        42.000          37.000
 120510409.95047 111696393.91547  24835327.8744   24835336.4444   24835327.5974
        40.000          35.000
 111154377.13147  86613797.39447  21151974.4844   21151979.0314   21151974.9914
        53.000          47.000
 115300036.59347  89844164.18047  21940881.4444   21940886.0354   21940881.8844
        53.000          46.000
 123512908.85347  96243793.32547  23503748.8354   23503756.9634   23503748.3354
        45.000          41.000
 106531665.31247  83011665.60947  20272318.4204   20272325.0434   20272317.9874
        56.000          52.000
 13  4 22  1 22 30.0000000  0 10G15G22G12G05G26G14G21G18G09G24
 112951604.11947  88014226.18647  21493983.2304   21493988.2224   21493982.8094
        55.000          50.000
 137978804.45747  89723715.75147  24353577.2034   24353584.1624   24353577.1124
        43.000          39.000
 118680167.24947 110270219.02447  24487054.7044   24487063.8124   24487053.8914
        44.000          39.000
 130517616.26247 101702016.46347  24836692.7534   24836703.2314   24836691.9504
        42.000          38.000
 127897822.48747  99660615.24647  24338167.1714   24338176.2244   24338166.7754
        42.000          37.000
 120442676.04347 111643614.39847  24822439.3364   24822447.4554   24822439.5614
        41.000          35.000
 111151116.94747  86611256.99947  21151354.1284   21151358.1604   21151354.4884
        53.000          47.000
 115229460.51147  89789169.86647  21927451.2494   21927455.9344   21927451.7554
        53.000          46.000
 123617860.11647  96325573.37447  23523720.2964   23523728.6024   23523720.1534
        45.000          41.000
 106520769.39147  83003175.28847  20270244.8694   20270251.5444   20270244.1834
        56.000          52.000
 13  4 22  1 23  0.0000000  0 10G15G22G12G05G26G14G21G18G09G24
 113001862.78647  88053388.76047  21503547.1374   21503551.9254   21503546.8144
        55.000          50.000
 137890239.46947  89654704.21347  24336723.9294   24336729.8544   24336724.1904
        44.000          39.000
 118591826.34347 110201382.06347  24470243.2914   24470252.2574   24470243.2694
        44.000          39.000
 130601602.06247 101767459.71947  24852675.6824   24852684.7934   24852675.8874
        43.000          38.000
 127991302.91447  99733457.00747  24355956.4004   24355965.3064   24355956.7214
        42.000          37.000
 120375069.78247 111590934.20447  24809574.2114   24809582.5854   24809574.4884
        41.000          36.000
 111148429.60447  86609162.96747  21150842.6394   21150846.8184   21150843.0384
        53.000          47.000
 115158997.16547  89734263.40847  21914042.3544   21914047.4324   21914042.8534
        54.000          47.000
 123723050.80947  96407540.03647  23543737.8014   23543745.4724   23543737.1524
        45.000          40.000
 106510451.47747  82995135.37047  20268281.3414   20268288.1864   20268280.8144
        56.000          52.000
 13  4 22  1 23 30.0000000  0 10G15G22G12G05G26G14G21G18G09G24
 113052228.41847  88092634.68647  21513131.4224   21513136.0384   21513131.1194
        55.000          50.000
 137801633.36047  89585660.60947  24319863.0984   24319868.0354   24319864.1454
        44.000          39.000
 118503405.77747 110132483.00047  24453417.4774   24453426.2694   24453417.0124
        44.000          39.000
 130685744.49147 101833025.03447  24868687.2864   24868696.7734   24868687.3964
        43.000          38.000
 128084723.85047  99806252.48647  24373732.8104   24373741.5064   24373733.0624
        40.000          36.000
 120307583.85547 111538347.86547  24796732.1864   24796740.2004   24796732.1484
        42.000          36.000
 111146307.80347  86607509.61647  21150438.8454   21150443.2434   21150439.0664
        52.000          47.000
 115088641.11747  89679440.55247  21900653.9104   21900659.1324   21900654.5674
        54.000          47.000
 123828470.72747  96489685.27847  23563797.5414   23563806.0084   23563797.2884
        45.000          40.000
 106500704.34247  82987540.21047  20266426.5324   20266433.3344   20266426.0094
        57.000          52.000
 13  4 22  1 24  0.0000000  0 10G15G22G12G05G26G14G21G18G09G24
 113102705.35547  88131967.33947  21522736.8494   21522741.7284   21522736.5374
        55.000          50.000
 137712992.12347  89516589.67347  24302994.7434   24303000.8564   24302995.8824
        44.000          39.000
 118414913.28147 110063527.92447  24436577.5764   24436586.3164   24436576.8114
        44.000          38.000
 130770048.59347 101898716.28847  24884731.2394   24884738.7924   24884730.3514
        43.000          38.000
 128178089.85847  99879005.10547  24391499.4984   24391507.0214   24391498.3444
        41.000          35.000
 120240223.35647 111485859.22447  24783913.7224   24783921.1864   24783914.0444
        41.000          37.000
 111144757.02247  86606301.21147  21150143.4504   21150148.2304   21150143.7184
        52.000          47.000
 115018399.24447  89624706.66547  21887287.3494   21887292.6734   21887287.8714
        53.000          47.000
 123934122.09547  96572010.86747  23583903.1754   23583911.3974   23583903.3574
        44.000          41.000
 106491532.76747  82980393.53847  20264681.3884   20264688.0294   20264680.8224
        57.000          52.000
 13  4 22  1 24 30.0000000  0 10G15G22G12G05G26G14G21G18G09G24
 113153289.83647  88171383.79447  21532362.8924   21532367.7774   21532362.4954
        55.000          50.000
 137624314.02147  89447490.00647  24286119.9094   24286126.5514   24286120.7474
        44.000          40.000
 118326348.78947 109994516.68747  24419724.3734   24419732.8944   24419724.4274
        44.000          38.000
 130854510.21747 101964530.31447  24900803.8274   24900811.7584   24900803.1814
        44.000          38.000
 128271397.05447  99951711.93747  24409255.3874   24409263.8874   24409254.3994
        41.000          36.000
 120172984.94547 111433465.74747  24771118.2454   24771125.4774   24771118.4114
        39.000          36.000
 111143773.94447  86605535.17547  21149956.5604   21149961.2234   21149956.9474
        53.000          47.000
 114948270.23647  89570060.72447  21873941.9764   21873947.2274   21873942.3144
        53.000          47.000
 124039998.84947  96654512.09447  23604050.8274   23604058.9894   23604050.1204
        44.000          40.000
 106482933.74347  82973693.00547  20263044.8674   20263051.7964   20263044.2624
        56.000          52.000
 13  4 22  1 25  0.0000000  0 10G15G22G12G05G26G14G21G18G09G24
 113203990.58747  88210890.85047  21542010.8464   21542015.4904   21542010.4694
        55.000          49.000
 137535610.34447  89378370.39747  24269240.6294   24269246.8074   24269241.2714
        44.000          40.000
 118237725.23347 109925459.49647  24402859.8854   24402868.8144   24402859.8794
        43.000          38.000
 130939138.59847 102030474.29047  24916907.7204   24916916.8074   24916908.0354
        42.000          38.000
 128364654.66847 100024380.12647  24427002.7874   24427012.2194   24427002.2504
        43.000          37.000
 120105878.41447 111381175.06247  24758348.3174   24758356.1024   24758349.2224
        41.000          36.000
 111143368.57647  86605219.30347  21149879.4564   21149884.1254   21149879.7664
        53.000          47.000
 114878266.01447  89515512.01247  21860620.7984   21860625.7974   21860621.1974
        54.000          47.000
 124146108.07147  96737194.46747  23624243.1544   23624250.9444   23624243.4644
        45.000          40.000
 106474916.61447  82967445.89947  20261519.3564   20261526.1604   20261518.7894
        56.000          52.000
 13  4 22  1 25 30.0000000  0 10G15G22G12G05G26G14G21G18G09G24
 113254786.38147  88250471.96547  21551677.0844   21551681.5374   21551676.7774
        55.000          49.000
 137446861.59047  89309215.66447  24252351.3844   24252358.0334   24252352.3404
        44.000          39.000
 118149024.96547 109856342.51147  24385980.4464   24385989.3534   24385980.2284
        44.000          38.000
 131023912.58047 102096531.70547  24933039.6464   24933049.1814   24933039.5534
        44.000          38.000
 128457841.59447 100096993.22347  24444735.9954   24444746.8074   24444735.1194
        42.000          37.000
 120038883.01647 111328970.93847  24745599.7024   24745607.6234   24745600.5134
        41.000          37.000
 111143520.48847  86605337.66347  21149908.6464   21149913.0184   21149908.8254
        53.000          47.000
 114808367.99047  89461046.04847  21847319.7974   21847324.6204   21847320.2424
        54.000          47.000
 124252425.97147  96820039.44247  23644474.7744   23644482.9484   23644475.0244
        45.000          40.000
 106467461.05647  82961636.37847  20260100.5294   20260107.3774   20260099.9854
        56.000          52.000
 13  4 22  1 26  0.0000000  0 10G15G22G12G05G26G14G21G18G09G24
 113305692.13747  88290138.76147  21561363.9924   21561368.8994   21561363.6654
        55.000          49.000
 137358084.64647  89240038.94747  24235457.9334   24235463.7524   24235458.5834
        45.000          40.000
 118060266.80247 109787180.38347  24369090.6444   24369099.8474   24369090.4374
        44.000          39.000
 131108847.50047 102162714.51747  24949201.9534   24949211.7424   24949201.7994
        41.000          38.000
 128550972.89547 100169562.98847  24462457.3714   24462467.8224   24462459.1114
        41.000          37.000
 119972014.30047 111276865.53147  24732874.9504   24732883.5264   24732875.6114
        42.000          37.000
 111144244.95847  86605902.17747  21150046.7034   21150050.7744   21150047.0794
        53.000          47.000
 114738594.06447  89406676.80047  21834042.1744   21834047.0414   21834042.3714
        54.000          47.000
 124358965.34947  96903056.99147  23664749.2254   23664757.2104   23664749.7964
        46.000          40.000
 106460582.33647  82956276.34447  20258791.6394   20258798.4054   20258791.1744
        56.000          52.000
 13  4 22  1 26 30.0000000  0 10G15G22G12G05G26G14G21G18G09G24
 113356700.32847  88329885.37747  21571070.5434   21571075.6654   21571070.1054
        55.000          49.000
 137269274.24047  89170836.17047  24218558.2984   24218563.7984   24218559.0354
        43.000          40.000
 117971446.99747 109717970.26447  24352189.1034   24352196.8884   24352189.3514
        45.000          39.000
 131193935.84947 102229016.88947  24965394.2174   24965403.5834   24965393.2524
        42.000          38.000
 128644041.11347 100242083.56447  24480167.4434   24480177.8294   24480168.7214
        41.000          37.000
 119905265.56447 111224853.59847  24720172.6864   24720180.8294   24720172.6774
        41.000          37.000
 111145535.64447  86606907.89447  21150291.8814   21150296.5254   21150292.0984
        53.000          47.000
 114668938.58347  89352399.83347  21820787.0664   21820792.0214   21820787.5624
        54.000          47.000
 124465716.82547  96986239.82547  23685063.5024   23685071.4264   23685063.8084
        46.000          40.000
 106454273.79147  82951360.60047  20257590.9964   20257597.8974   20257590.4674
        56.000          52.000
 13  4 22  1 27  0.0000000  0 10G15G22G12G05G26G14G21G18G09G24
 113407812.84847  88369713.28447  21580796.8484   21580801.8384   21580796.4314
        55.000          49.000
 137180434.15847  89101610.26047  24201651.9774   24201657.7244   24201652.3014
        43.000          39.000
 117882571.29747 109648716.54147  24335276.6454   24335284.8864   24335276.0224
        45.000          39.000
 131279180.00147 102295440.63847  24981616.3754   24981625.0484   24981616.1734
        43.000          38.000
 128737048.27747 100314556.59247  24497866.9614   24497876.3574   24497866.9944
        41.000          37.000
 119838639.07547 111172936.97247  24707494.4154   24707502.6774   24707494.1974
        42.000          36.000
 111147394.82947  86608356.60147  21150645.7094   21150650.2384   21150646.1184
        53.000          47.000
 114599406.38047  89298218.93947  21807555.4244   21807560.3964   21807555.7504
        54.000          47.000
 124572679.97747  97069587.60847  23705418.4244   23705426.4374   23705419.0544
        45.000          40.000
 106448537.08647  82946890.44647  20256499.3854   20256506.1854   20256498.8884
        57.000          52.000
 13  4 22  1 27 30.0000000  0 10G15G22G12G05G26G14G21G18G09G24
 113459029.92247  88409622.67447  21590543.3354   21590548.0224   21590543.0324
        54.000          49.000
 137091566.51647  89032362.86047  24184740.8104   24184746.2374   24184741.5894
        44.000          39.000
 117793643.46447 109579422.21547  24318353.8904   24318362.5854   24318352.8614
        45.000          39.000
 131364580.02347 102361985.86547  24997867.1234   24997877.2894   24997867.1274
        40.000          38.000
 128829994.83847 100386982.38947  24515554.5004   24515563.9644   24515553.7514
        41.000          37.000
 119772135.56847 111121116.10447  24694838.3634   24694845.7654   24694838.6454
        40.000          36.000
 111149823.57247  86610249.11847  21151107.8744   21151112.4494   21151108.2054
        52.000          47.000
 114530000.17947  89244136.22247  21794348.1904   21794352.6454   21794348.7644
        54.000          47.000
 124679852.95247  97153098.85147  23725812.4474   23725821.1554   23725812.9744
        43.000          40.000
 106443373.18947  82942866.62847  20255516.8354   20255523.6074   20255516.2444
        57.000          52.000
 13  4 22  1 28  0.0000000  0 10G15G22G12G05G26G14G21G18G09G24
 113510349.28747  88449611.76147  21600309.0714   21600314.0514   21600308.6034
        55.000          49.000
 137002671.35147  88963094.07147  24167824.6914   24167830.6194   24167825.4104
        45.000          40.000
 117704665.14547 109510088.55947  24301421.7284   24301430.7174   24301420.7464
        46.000          40.000
 131450134.10547 102428651.14147  25014147.4954   25014158.2394   25014147.3994
        40.000          37.000
 128922878.87547 100459359.45147  24533229.2594   24533239.4794   24533228.3394
        41.000          37.000
 119705753.44447 111069389.88947  24682206.8704   24682214.4384   24682206.4324
        43.000          36.000
 111152820.24047  86612584.17447  21151678.2484   21151682.8484   21151678.3594
        52.000          47.000
 114460720.72547  89190152.27447  21781164.6114   21781169.1444   21781165.0834
        54.000          47.000
 124787231.07147  97236769.97047  23746246.1034   23746254.7944   23746245.6664
        43.000          40.000
 106438780.83847  82939288.17747  20254643.0054   20254649.6754   20254642.3704
        56.000          52.000
 13  4 22  1 28 30.0000000  0 10G15G22G12G05G26G14G21G18G09G24
 113561769.73547  88489679.61247  21610094.2034   21610098.9684   21610093.7594
        55.000          49.000
 136913749.26747  88893804.26647  24150903.3324   24150908.7094   24150904.5154
        43.000          40.000
 117615638.61647 109440717.31147  24284480.8624   24284489.6994   24284480.4364
        46.000          39.000
 131535840.87147 102495435.29847  25030458.1084   25030467.9214   25030458.0544
        41.000          37.000
 129015699.13547 100531686.75847  24550892.6964   24550903.0414   24550891.2654
        42.000          37.000
 119639492.10247 111017757.78047  24669598.2744   24669605.1904   24669599.2144
        43.000          37.000
 111156384.07947  86615361.17347  21152356.4524   21152360.6744   21152356.7064
        53.000          47.000
 114391569.25147  89136268.05147  21768005.4864   21768009.9684   21768005.9954
        54.000          47.000
 124894811.30247  97320598.60947  23766718.0504   23766725.9994   23766718.3984
        43.000          39.000
 106434758.58147  82936153.95047  20253877.7204   20253884.2774   20253877.1744
        56.000          52.000
 13  4 22  1 29  0.0000000  0 10G15G22G12G05G26G14G21G18G09G24
 113613293.06947  88529827.63147  21619898.7504   21619903.3504   21619898.4564
        55.000          49.000
 136824804.26847  88824496.62847  24133977.0634   24133983.4364   24133977.7234
        44.000          40.000
 117526569.88847 109371313.19947  24267532.1124   24267539.8504   24267531.8124
        46.000          39.000
 131621702.69947 102562340.39347  25046796.4844   25046807.2074   25046795.6224
        42.000          37.000
 129108457.60347 100603965.98547  24568545.0424   24568553.6034   24568545.0744
        41.000          37.000
 119573354.34647 110966221.92247  24657012.6024   24657019.1614   24657011.9214
        41.000          37.000
 111160517.41547  86618581.94247  21153143.0114   21153147.3154   21153143.2224
        53.000          47.000
 114322550.43847  89082487.20347  21754871.4164   21754876.0754   21754871.6454
        54.000          47.000
 125002593.44147  97404584.55547  23787227.8264   23787236.7184   23787227.0164
        44.000          40.000
 106431309.01547  82933465.97747  20253221.1014   20253227.8064   20253220.4344
        56.000          52.000
 13  4 22  1 29 30.0000000  0 10G15G22G12G05G26G14G21G18G09G24
 113664913.14247  88570051.03347  21629722.0224   21629726.6244   21629721.5174
        55.000          49.000
 136735831.83747  88755167.59147  24117046.9484   24117051.9534   24117046.8344
        45.000          40.000
 117437456.14547 109301873.99647  24250573.7724   24250581.7624   24250573.2684
        45.000          39.000
 131707712.92747 102629361.09847  25063164.7984   25063173.2654   25063164.7864
        41.000          38.000
 129201148.34347 100676192.42047  24586183.0244   24586192.3784   24586183.9054
        41.000          37.000
 119507333.95647 110914777.61247  24644448.4184   24644456.9114   24644449.4004
        40.000          37.000
 111165214.78647  86622242.22047  21154037.1454   21154041.3864   21154037.6094
        53.000          47.000
 114253660.50947  89028806.78047  21741762.0674   21741766.7444   21741762.6304
        55.000          48.000
 125110568.75947  97488721.05547  23807774.7834   23807783.9694   23807775.7524
        43.000          40.000
 106428426.25347  82931219.68047  20252672.5484   20252679.3124   20252672.0304
        56.000          52.000
 13  4 22  1 30  0.0000000  0 10G15G22G12G05G26G14G21G18G09G24
 113716634.93547  88610353.69547  21639564.3844   21639568.9124   21639563.9934
        55.000          49.000
 136646839.71647  88685823.22547  24100111.9224   24100117.7564   24100112.8254
        45.000          40.000
 117348306.72547 109232407.00347  24233609.2364   24233616.5684   24233608.7474
        46.000          39.000
 131793877.00147 102696501.65547  25079561.5584   25079570.2724   25079561.8774
        42.000          38.000
 129293776.73947 100748370.28647  24603808.8494   24603819.0724   24603809.7254
        41.000          37.000
 119441437.04347 110863429.49447  24631907.4584   24631916.8914   24631907.0924
        39.000          36.000
 111170481.73847  86626346.32747  21155039.4964   21155043.6794   21155040.0064
        53.000          47.000
 114184907.19847  88975232.80947  21728678.9134   21728683.2524   21728679.3714
        55.000          48.000
 125218740.41147  97573010.52847  23828358.8134   23828368.6104   23828358.0614
        42.000          39.000
 106426115.98747  82929419.47547  20252232.8504   20252239.8164   20252232.3614
        56.000          52.000
 13  4 22  1 30 30.0000000  0 10G15G22G12G05G26G14G21G18G09G24
 113768454.42447  88650732.49147  21649425.2004   21649430.0504   21649424.7714
        55.000          49.000
 136557825.39247  88616461.56447  24083173.1174   24083178.7244   24083173.8624
        45.000          40.000
 117259121.17747 109162911.84847  24216637.5714   24216645.7794   24216637.4044
        45.000          40.000
 131880190.80947 102763758.87447  25095986.4664   25095995.1284   25095986.9054
        41.000          37.000
 129386338.82047 100820496.50147  24621423.7504   24621434.1294   24621423.4034
        41.000          37.000
 119375659.56947 110812174.38047  24619391.1724   24619399.5814   24619392.1554
        42.000          37.000
 111176314.49147  86630891.31447  21156149.3494   21156153.4654   21156150.0194
        53.000          47.000
 114116289.01247  88921764.13647  21715621.2094   21715625.5824   21715621.6434
        55.000          48.000
 125327101.91547  97657447.93547  23848980.2504   23848989.3164   23848979.8964
        44.000          39.000
 106424374.06447  82928062.13447  20251901.4304   20251908.2924   20251900.8434
        57.000          52.000
 13  4 22  1 31  0.0000000  0 10G15G22G12G05G26G14G21G18G09G24
 113820369.91847  88691186.09147  21659304.2574   21659309.4234   21659303.9434
        55.000          49.000
 136468789.40747  88547083.01847  24066230.1074   24066235.7854   24066231.0764
        45.000          40.000
 117169901.53247 109093390.13447  24199659.4224   24199667.6414   24199659.6554
        46.000          39.000
 131966652.84647 102831131.59647  25112440.0284   25112449.5554   25112439.1074
        41.000          37.000
 129478832.97847 100892569.71247  24639025.0964   24639035.1804   24639025.2624
        41.000          37.000
 119310000.26547 110761011.36547  24606896.8954   24606904.7274   24606897.5644
        42.000          37.000
 111182711.90347  86635876.29947  21157366.6424   21157371.1844   21157367.0234
        53.000          47.000
 114047806.83947  88868401.44547  21702589.2494   21702593.6154   21702589.6004
        55.000          48.000
 125435649.42047  97742030.30847  23869635.5744   23869645.2764   23869635.1464
        44.000          40.000
 106423198.65447  82927146.23847  20251677.7414   20251684.4684   20251677.2924
        56.000          52.000
 13  4 22  1 31 30.0000000  0 10G15G22G12G05G26G14G21G18G09G24
 113872383.88647  88731716.41847  21669201.8224   21669207.3344   21669201.3894
        54.000          49.000
 136379736.56247  88477691.32947  24049284.0024   24049289.4084   24049284.8994
        45.000          40.000
 117080654.58847 109023847.15047  24182675.6964   24182684.1984   24182675.4784
        45.000          40.000
 132053265.79347 102898621.89647  25128922.2124   25128931.3454   25128922.0724
        41.000          37.000
 129571262.25947 100964592.43247  24656613.1524   24656623.1884   24656613.8714
        41.000          36.000
 119244462.66647 110709943.19647  24594425.6334   24594433.7254   24594425.7634
        41.000          37.000
 111189677.15047  86641303.75247  21158692.1364   21158696.6414   21158692.5364
        53.000          47.000
 113979466.27647  88815149.10847  21689584.3224   21689589.1814   21689584.6934
        54.000          48.000
 125544383.92247  97826758.37747  23890327.5234   23890336.3634   23890327.3764
        42.000          40.000
 106422593.09747  82926674.38147  20251562.4204   20251569.2854   20251561.8664
        56.000          52.000
 13  4 22  1 32  0.0000000  0 10G15G22G12G05G26G14G21G18G09G24
 113924491.88847  88772320.01947  21679117.5724   21679123.0384   21679117.2234
        54.000          49.000
 136290664.07947  88408284.33447  24032334.1194   24032339.2744   24032335.2994
        45.000          41.000
 116991378.80347 108954281.70047  24165686.8694   24165695.0884   24165686.0804
        45.000          40.000
 132140025.01847 102966226.21247  25145431.4194   25145441.4794   25145430.7414
        40.000          37.000
 129663621.99247 101036560.94247  24674188.5564   24674198.3184   24674188.7404
        39.000          35.000
 119179042.70847 110658966.71047  24581976.5404   24581984.6874   24581977.0624
        41.000          37.000
 111197205.76547  86647170.18847  21160124.7554   21160129.0414   21160125.2184
        53.000          47.000
 113911265.11547  88762005.38447  21676606.1714   21676610.5514   21676606.5404
        55.000          48.000
 125653298.27247  97911626.55547  23911053.1924   23911062.1664   23911052.5844
        43.000          39.000
 106422553.02647  82926643.15647  20251554.7024   20251561.5554   20251554.0434
        56.000          52.000
 13  4 22  1 32 30.0000000  0 10G15G22G12G05G26G14G21G18G09G24
 113976697.15847  88812999.41847  21689052.1494   21689057.3004   21689051.8024
        54.000          49.000
 136201576.97747  88338865.95547  24015380.6634   24015385.4554   24015381.9574
        45.000          40.000
 116902081.36447 108884699.35047  24148694.4724   24148702.3714   24148694.2164
        45.000          40.000
 132226933.41847 103033946.76247  25161968.3974   25161980.0644   25161967.6034
        41.000          38.000
 129755915.34247 101108477.71247  24691752.3594   24691760.0584   24691752.2944
        41.000          36.000
 119113743.53647 110608084.32047  24569551.7084   24569558.3424   24569551.7864
        42.000          37.000
 111205300.83947  86653478.02447  21161665.0204   21161669.5944   21161665.5334
        53.000          47.000
 113843208.86247  88708974.57247  21663655.6424   21663659.8264   21663656.1424
        55.000          48.000
 125762393.20747  97996635.47947  23931813.2214   23931822.0414   23931813.6394
        44.000          39.000
 106423081.27547  82927054.78247  20251655.3694   20251662.0654   20251654.8234
        56.000          52.000
 13  4 22  1 33  0.0000000  0 10G15G22G12G05G26G14G21G18G09G24
 114028997.24747  88853752.70047  21699004.9184   21699009.7064   21699004.6134
        54.000          49.000
 136112475.16447  88269436.08547  23998425.0874   23998429.5614   23998425.9064
        45.000          41.000
 116812763.95647 108815101.45747  24131697.9394   24131706.1304   24131697.3704
        45.000          40.000
 132313989.12947 103101782.04947  25178535.9774   25178547.2714   25178534.7374
        42.000          38.000
 129848140.54047 101180341.34447  24709302.2904   24709311.4944   24709302.9534
        42.000          36.000
 119048563.70747 110557294.94747  24557146.2154   24557154.3654   24557146.8654
        40.000          37.000
 111213960.91447  86660226.11947  21163313.0614   21163317.8204   21163313.5624
        53.000          47.000
 113775298.39547  88656057.35547  21650732.6524   21650736.8914   21650732.9094
        55.000          48.000
 125871664.47947  98081781.79847  23952607.0624   23952615.8684   23952606.4504
        43.000          39.000
 106424176.04047  82927907.85047  20251863.7544   20251870.4254   20251863.2304
        57.000          52.000
 13  4 22  1 33 30.0000000  0 10G15G22G12G05G26G14G21G18G09G24
 114081389.43947  88894577.75047  21708974.8364   21708979.7604   21708974.5724
        54.000          49.000
 136023357.47447  88199993.88947  23981466.1004   23981471.1124   23981466.5374
        44.000          40.000
 116723427.47947 108745488.70747  24114697.5344   24114705.9644   24114696.9484
        45.000          40.000
 132401189.04847 103169729.75147  25195130.5304   25195141.2484   25195130.2564
        43.000          38.000
 129940294.91647 101252149.81247  24726838.7044   24726847.7934   24726839.4384
        41.000          35.000
 118983500.69447 110506596.60447  24544765.2034   24544774.4654   24544765.0074
        42.000          37.000
 111223183.32147  86667412.39947  21165068.0324   21165072.6384   21165068.3254
        53.000          47.000
 113707533.46347  88603253.55247  21637837.2694   21637841.7824   21637837.7304
        55.000          48.000
 125981107.06347  98167061.57447  23973432.6244   23973442.8654   23973432.8334
        43.000          39.000
 106425834.10947  82929199.85747  20252179.1544   20252185.9674   20252178.6014
        56.000          52.000
 13  4 22  1 34  0.0000000  0 10G15G22G12G05G26G14G21G18G09G24
 114133873.88947  88935474.69747  21718962.2364   21718967.1034   21718961.7094
        55.000          49.000
 135934227.11947  88130541.78547  23964505.1634   23964509.7594   23964506.6204
        46.000          41.000
 116634075.91247 108675864.20547  24097694.3684   24097703.2944   24097694.6284
        45.000          40.000
 132488533.46947 103237790.04947  25211752.0824   25211762.5194   25211751.5064
        43.000          38.000
 130032378.81547 101323903.39747  24744361.2514   24744371.2944   24744360.3694
        40.000          36.000
 118918555.08347 110455989.74447  24532407.0314   24532415.2184   24532406.7234
        43.000          37.000
 111232968.63947  86675037.31747  21166930.2494   21166934.3484   21166930.5034
        53.000          47.000
 113639916.77847  88550565.25347  21624970.4024   21624974.8004   21624970.8974
        55.000          48.000
 126090719.23847  98252473.53047  23994290.7844   23994300.9644   23994291.5744
        43.000          39.000
 106428056.34847  82930931.47447  20252602.1404   20252608.8954   20252601.5354
        56.000          52.000
 13  4 22  1 34 30.0000000  0 10G15G22G12G05G26G14G21G18G09G24
 114186451.43547  88976444.19047  21728967.3754   21728972.1014   21728966.9164
        54.000          49.000
 135845086.93347  88061082.04747  23947542.5224   23947547.4654   23947543.1884
        46.000          41.000
 116544713.90047 108606231.57847  24080689.4344   24080698.1194   24080688.9834
        46.000          40.000
 132576023.18247 103305963.55547  25228400.5884   25228411.2574   25228400.3944
        41.000          37.000
 130124393.62847 101395603.10147  24761871.1854   24761880.6094   24761870.8154
        41.000          35.000
 118853728.72547 110405475.72347  24520071.7964   24520077.9084   24520071.7264
        42.000          37.000
 111243317.97047  86683101.72347  21168899.5164   21168903.7224   21168899.8724
        53.000          47.000
 113572452.41147  88497995.64347  21612132.4774   21612136.7524   21612132.9334
        55.000          48.000
 126200499.75647  98338016.62947  24015181.2754   24015192.2664   24015179.9444
        43.000          38.000
 106430843.64247  82933103.39347  20253132.5194   20253139.3954   20253132.0504
        56.000          52.000
 13  4 22  1 35  0.0000000  0 10G15G22G12G05G26G14G21G18G09G24
 114239120.97247  89017485.35947  21738989.8614   21738994.8344   21738989.3564
        54.000          49.000
 135755937.43747  87991615.03947  23930577.4584   23930582.8064   23930578.0354
        45.000          40.000
 116455344.15947 108536592.89147  24063682.8064   24063690.9694   24063682.8684
        45.000          40.000
 132663657.08347 103374249.36447  25245076.2544   25245087.7924   25245074.9494
        40.000          37.000
 130216337.98447 101467247.95647  24779368.6394   24779377.8384   24779369.1884
        40.000          35.000
 118789020.32347 110355053.64647  24507756.7424   24507764.4494   24507757.1544
        40.000          36.000
 111254229.85847  86691604.48647  21170976.0044   21170980.4264   21170976.6024
        53.000          47.000
 113505141.26747  88445545.43347  21599323.5754   21599327.8954   21599323.9544
        55.000          48.000
 126310444.89547  98423688.01247  24036103.7534   24036113.7594   24036104.4344
        44.000          39.000
 106434194.52747  82935714.47747  20253770.0104   20253777.0444   20253769.4084
        56.000          52.000
 13  4 22  1 35 30.0000000  0 10G15G22G12G05G26G14G21G18G09G24
 114291879.65047  89058595.98247  21749029.6594   21749034.8834   21749029.2754
        54.000          49.000
 135666777.99647  87922140.28447  23913611.0484   23913616.4204   23913611.4434
        45.000          41.000
 116365967.84947 108466949.11647  24046674.5874   24046683.5904   24046673.9734
        46.000          40.000
 132751432.32447 103442645.36347  25261779.1554   25261790.1284   25261779.1414
        40.000          36.000
 130308209.51247 101538836.02047  24796851.0414   24796860.9554   24796851.3934
        37.000          34.000
 118724427.48947 110304721.63747  24495464.9794   24495472.8214   24495465.6534
        40.000          36.000
 111265702.01247  86700543.82347  21173158.9564   21173163.4434   21173159.4144
        53.000          47.000
 113437983.24947  88393214.55047  21586543.8654   21586548.2514   21586544.2684
        55.000          48.000
 126420550.05647  98509484.11747  24057056.3334   24057066.3134   24057056.2614
        44.000          39.000
 106438106.35947  82938762.65847  20254514.4914   20254521.4004   20254513.8394
        56.000          52.000
 13  4 22  1 36  0.0000000  0  9G15G22G12G05G14G21G18G09G24
 114344731.58547  89099779.28447  21759087.2994   21759092.2774   21759087.0224
        54.000          49.000
 135577614.22947  87852662.14947  23896643.8314   23896648.8274   23896644.5444
        46.000          41.000
 116276592.26047 108397305.86447  24029667.1694   24029675.6484   24029667.0424
        45.000          40.000
 132839352.59647 103511154.32647  25278511.1524   25278522.2224   25278511.0494
        41.000          37.000
 118659954.57747 110254483.16047  24483195.4964   24483205.3374   24483195.6454
        41.000          37.000
 111277738.37747  86709922.80247  21175449.3264   21175453.6834   21175449.4794
        53.000          47.000
 113370984.90947  88341008.09647  21573794.3074   21573798.7584   21573794.8254
        55.000          49.000
 126530816.70447  98595406.06847  24078040.3604   24078049.5944   24078040.8414
        44.000          38.000
 106442583.03847  82942250.98547  20255366.4694   20255373.1474   20255365.8954
        56.000          52.000
 13  4 22  1 36 30.0000000  0 10G15G22G12G05G26G14G21G18G09G24
 114397668.55847  89141028.85247  21769160.7774   21769166.2154   21769160.3364
        54.000          49.000
 135488440.38247  87783176.14947  23879674.6884   23879678.7504   23879675.0704
        46.000          41.000
 116187213.11847 108327659.88647  24012658.8204   24012668.1194   24012658.7094
        46.000          40.000
 132927409.25147 103579769.55547  25295268.1884   25295279.3354   25295267.0384
        39.000          36.000
 140491755.04257  91681857.00657  24831778.1765   24831785.5855   24831775.4785
        38.000          33.000
 118595594.07447 110204332.21747  24470948.9824   24470957.8234   24470949.0254
        42.000          38.000
 111290330.77247  86719735.05847  21177845.7344   21177850.1294   21177845.9424
        53.000          47.000
 113304140.75447  88288921.78247  21561074.5264   21561078.7674   21561075.0074
        55.000          49.000
 126641234.67147  98681445.91947  24099052.3154   24099061.8594   24099053.5134
        45.000          39.000
 106447616.29447  82946173.00547  20256324.3334   20256330.9834   20256323.7554
        56.000          52.000
 13  4 22  1 37  0.0000000  0  9G15G22G12G05G14G21G18G09G24
 114450696.91147  89182349.61147  21779251.8134   21779257.1694   21779251.4654
        54.000          49.000
 135399264.98347  87713688.94947  23862705.3304   23862709.4814   23862706.1364
        46.000          41.000
 116097840.68647 108258019.13147  23995651.7134   23995660.7944   23995651.3954
        45.000          40.000
 133015609.59447 103648496.75147  25312051.4474   25312062.2354   25312050.9434
        40.000          36.000
 118531352.76847 110154274.10647  24458725.0674   24458732.5974   24458725.2314
        44.000          38.000
 111303485.68947  86729985.63747  21180348.9944   21180353.7534   21180349.3444
        53.000          47.000
 113237460.10747  88236962.87247  21548385.4434   21548389.8484   21548385.9734
        55.000          49.000
 126751808.23847  98767607.02447  24120094.0694   24120103.6444   24120094.3484
        44.000          39.000
 106453212.63447  82950533.79147  20257389.2354   20257396.0354   20257388.5234
        56.000          52.000
 13  4 22  1 37 30.0000000  0  9G15G22G12G26G14G21G18G09G24
 114503813.70147  89223739.28947  21789359.5434   21789364.5714   21789359.0624
        54.000          48.000
 135310087.09647  87644199.79447  23845734.8674   23845739.0264   23845735.5524
        46.000          41.000
 116008476.22547 108188384.60147  23978646.5424   23978655.1044   23978645.8944
        45.000          40.000
 120674879.03257 111824525.41957  24866644.7065   24866658.2985   24866645.2855
        39.000          33.000
 118467228.21547 110104306.97347  24446523.1584   24446529.0774   24446523.4704
        42.000          37.000
 111317200.33647  86740672.36847  21182958.8424   21182963.4954   21182959.2734
        53.000          47.000
 113170942.74647  88185131.21247  21535727.3694   21535731.8994   21535727.7654
        55.000          49.000
 126862532.27447  98853885.36847  24141164.1924   24141173.6384   24141164.7454
        43.000          38.000
 106459368.76347  82955330.77647  20258560.8484   20258567.5084   20258560.4404
        56.000          52.000
 13  4 22  1 38  0.0000000  0  9G15G22G12G05G14G21G18G09G24
 114557027.23447  89265204.35847  21799485.8504   21799490.6874   21799485.4964
        54.000          48.000
 135220917.02647  87574716.73347  23828766.5984   23828770.7164   23828767.1124
        47.000          41.000
 115919131.47047 108118765.41947  23961644.5514   23961652.4794   23961643.4564
        45.000          40.000
 143192360.34557  93786203.64957  25345702.5385   25345713.4915   25345702.3725
        40.000          37.000
 118403228.31947 110054437.01847  24434342.3564   24434350.2004   24434343.0564
        42.000          36.000
 111331482.61247  86751801.39947  21185676.5494   21185681.2444   21185676.7364
        53.000          47.000
 113104599.12747  88133434.92347  21523102.6914   21523106.7934   21523103.1164
        55.000          49.000
 126973412.78647  98940285.65747  24162263.9124   24162273.3254   24162264.7234
        44.000          39.000
 106466092.82947  82960570.31047  20259840.3344   20259847.0754   20259839.8804
        56.000          52.000
 13  4 22  1 38 30.0000000  0  9G15G22G12G05G14G21G18G09G24
 114610318.42647  89306729.94247  21809626.8544   21809631.6294   21809626.4144
        54.000          49.000
 135131737.79647  87505226.52047  23811796.5044   23811800.5474   23811797.3504
        47.000          41.000
 115829790.83147 108049149.45047  23944643.8034   23944651.0434   23944643.3334
        46.000          40.000
 143280977.35947  93855255.44247  25362567.0284   25362576.5854   25362566.3654
        41.000          37.000
 118339334.48047 110004649.71547  24422184.7894   24422191.8804   24422184.8684
        42.000          37.000
 111346313.57547  86763357.98347  21188499.0064   21188503.7324   21188499.2424
        53.000          47.000
 113038412.96647  88081861.32547  21510507.9674   21510511.9534   21510508.4094
        55.000          49.000
 127084428.42447  99026791.23947  24183389.9054   24183399.1974   24183389.7054
        43.000          39.000
 106473365.31847  82966237.18947  20261224.1664   20261230.9204   20261223.7224
        56.000          52.000
 13  4 22  1 39  0.0000000  0  9G15G22G12G05G14G21G18G09G24
 114663695.30147  89348322.28847  21819784.5674   21819789.0514   21819784.3864
        54.000          49.000
 135042559.11847  87435736.73847  23794826.2434   23794830.3104   23794827.1684
        46.000          41.000
 115740466.25947 107979545.98547  23927645.8164   23927654.0494   23927645.2334
        45.000          40.000
 143369731.19047  93924413.90147  25379455.7664   25379466.8544   25379454.6504
        41.000          37.000
 118275555.36947 109954951.76347  24410048.2544   24410056.2844   24410047.5864
        43.000          38.000
 111361701.21047  86775348.34247  21191427.3914   21191431.8884   21191427.8894
        53.000          47.000
 112972394.62547  88030418.50247  21497945.0564   21497949.2044   21497945.5414
        55.000          49.000
 127195584.95047  99113406.60847  24204542.5244   24204551.5074   24204542.7174
        42.000          38.000
 106481194.16847  82972337.59447  20262713.8374   20262720.6614   20262713.2664
        56.000          52.000
 13  4 22  1 39 30.0000000  0  9G15G22G12G05G14G21G18G09G24
 114717154.82747  89389979.04047  21829957.3624   21829962.0544   21829957.0014
        54.000          48.000
 134953380.66647  87366247.11947  23777855.3574   23777860.1484   23777856.2834
        46.000          41.000
 115651158.77447 107909955.86247  23910650.3134   23910659.2554   23910649.6414
        44.000          40.000
 143458618.42147  93993676.27447  25396369.3334   25396382.1404   25396369.5104
        39.000          36.000
 118211888.51447 109905341.29747  24397932.0694   24397939.9204   24397932.1194
        41.000          37.000
 111377642.34447  86787769.99947  21194460.8034   21194465.3664   21194461.4544
        53.000          47.000
 112906544.21647  87979106.53547  21485414.1094   21485418.1804   21485414.4674
        55.000          49.000
 127306877.54647  99200127.99047  24225719.8014   24225730.1634   24225719.9514
        43.000          38.000
 106489576.21147  82978869.06147  20264308.8834   20264315.8214   20264308.3474
        56.000          52.000
 13  4 22  1 40  0.0000000  0  9G15G22G12G05G14G21G18G09G24
 114770702.82447  89431704.72447  21840147.1734   21840152.0894   21840146.7984
        54.000          48.000
 134864210.02847  87296763.60847  23760886.5954   23760892.2884   23760887.3534
        46.000          41.000
 115561877.40447 107840386.04347  23893660.6764   23893668.8184   23893660.0654
        45.000          40.000
 143547644.90847  94063047.16847  25413311.8594   25413323.4264   25413310.7904
        39.000          35.000
 118148339.41347 109855822.61247  24385837.7454   24385846.6174   24385838.0804
        40.000          36.000
 111394142.34847  86800627.13947  21197600.7794   21197605.2054   21197601.1834
        53.000          47.000
 112840869.91747  87927931.79447  21472916.5594   21472920.6614   21472916.9514
        55.000          49.000
 127418309.45747  99286957.92247  24246924.6154   24246935.5864   24246925.0414
        41.000          38.000
 106498516.45147  82985835.48247  20266010.2384   20266017.0394   20266009.6884
        56.000          52.000
 13  4 22  1 40 30.0000000  0  9G15G22G12G05G14G21G18G09G24
 114824331.54347  89473493.30947  21850352.2594   21850357.3324   21850352.0194
        54.000          48.000
 134775041.68747  87227281.87547  23743918.6294   23743923.5584   23743919.5644
        47.000          41.000
 115472618.98847 107770834.12647  23876675.8644   23876683.5844   23876675.4694
        46.000          40.000
 143636802.59947  94132520.30947  25430278.1144   25430288.8334   25430278.0104
        40.000          36.000
 118084901.13347 109806390.25147  24373765.7094   24373773.2444   24373765.8634
        40.000          35.000
 111411193.53847  86813913.77947  21200845.3514   21200849.7224   21200845.3434
        53.000          47.000
 112775366.94747  87876890.56047  21460451.7824   21460455.9374   21460452.1364
        55.000          49.000
 127529871.11547  99373888.96747  24268154.5744   24268165.3194   24268154.2724
        42.000          38.000
 106508007.41347  82993231.03647  20267816.5314   20267823.0114   20267816.0484
        56.000          52.000
 13  4 22  1 41  0.0000000  0  9G15G22G12G05G14G21G18G09G24
 114878047.48747  89515349.86147  21860574.1004   21860579.0324   21860573.6324
        54.000          48.000
 134685883.87347  87157808.36447  23726951.8354   23726957.4234   23726952.8184
        46.000          41.000
 115383393.30147 107701307.71047  23859697.3074   23859704.7234   23859696.5484
        45.000          41.000
 143726097.77447  94202100.54147  25447270.9794   25447281.6294   25447270.4724
        41.000          36.000
 118021580.02447 109757049.18547  24361717.8924   24361724.6384   24361717.4544
        43.000          37.000
 111428802.05347  86827634.69247  21204196.2974   21204200.2044   21204196.7814
        53.000          47.000
 112710043.86747  87825989.49547  21448021.4284   21448025.4774   21448021.9704
        55.000          49.000
 127641566.59447  99460924.29547  24289408.9194   24289419.7984   24289409.5854
        43.000          38.000
 106518054.90347  83001060.24847  20269728.3874   20269735.0884   20269727.8164
        56.000          52.000
 13  4 22  1 41 30.0000000  0  9G15G22G12G05G14G21G18G09G24
 114931843.63447  89557268.90847  21870811.1274   21870816.0534   21870810.7394
        53.000          48.000
 134596731.83047  87088339.33047  23709986.7674   23709991.8564   23709987.5694
        47.000          41.000
 115294197.00247 107631804.20647  23842723.2804   23842731.2594   23842722.4454
        46.000          40.000
 143815522.97747  94271782.08247  25464287.8194   25464300.3634   25464287.8604
        40.000          37.000
 117958369.50147 109707794.30447  24349688.9614   24349696.2334   24349688.6054
        42.000          37.000
 111446960.79947  86841784.36047  21207651.9464   21207655.9364   21207652.5274
        53.000          47.000
 112644896.54647  87775225.38047  21435624.2394   21435628.2544   21435624.7584
        55.000          49.000
 127753386.78347  99548056.79647  24310688.0854   24310699.1774   24310687.9294
        41.000          38.000
 106528651.53247  83009317.36447  20271744.8884   20271751.6924   20271744.3704
        56.000          52.000
 13  4 22  1 42  0.0000000  0  9G15G22G12G05G14G21G18G09G24
 114985722.19947  89599252.18247  21881064.0914   21881068.8074   21881063.5084
        54.000          48.000
 134507589.83547  87018878.12847  23693023.8454   23693029.0414   23693024.5954
        47.000          41.000
 115205036.20147 107562328.34647  23825756.3404   23825764.7394   23825756.1914
        46.000          41.000
 143905080.25647  94341566.56147  25481331.0164   25481342.8184   25481329.9784
        42.000          36.000
 117895271.80947 109658627.39847  24337681.0554   24337690.0264   24337680.5544
        41.000          37.000
 111465671.17447  86856363.86547  21211211.9734   21211216.7074   21211212.3584
        53.000          48.000
 112579929.50447  87724601.74247  21423261.0904   21423265.1694   21423261.6314
        55.000          49.000
 127865331.42647  99635286.25847  24331990.8274   24332001.5304   24331991.3364
        42.000          38.000
 106539798.86847  83018003.60447  20273866.0224   20273872.9734   20273865.4764
        56.000          52.000
 13  4 22  1 42 30.0000000  0  9G15G22G12G05G14G21G18G09G24
 115039681.56147  89641298.41647  21891332.4514   21891337.0694   21891332.0484
        54.000          48.000
 134418458.64147  86949425.34347  23676062.8404   23676067.2094   23676062.9434
        46.000          41.000
 115115913.35547 107492882.06647  23808796.4714   23808804.8644   23808796.4904
        47.000          41.000
 143994767.94247  94411452.61447  25498398.7754   25498410.3374   25498398.0264
        40.000          37.000
 117832286.14047 109609547.75747  24325695.5724   24325703.9994   24325695.2864
        42.000          37.000
 111484931.78447  86871372.12747  21214877.0864   21214881.7674   21214877.2354
        53.000          47.000
 112515144.61147  87674120.03647  21410932.9134   21410936.9624   21410933.2674
        55.000          48.000
 127977397.15947  99722610.12047  24353316.6754   24353326.9284   24353316.8724
        42.000          38.000
 106551495.46547  83027117.83847  20276091.7314   20276098.7074   20276091.1354
        56.000          52.000
 13  4 22  1 43  0.0000000  0  9G15G22G12G05G14G21G18G09G24
 115093723.64847  89683409.11247  21901616.1254   21901621.0934   21901615.7794
        53.000          48.000
 134329341.86047  86879983.78147  23659104.4584   23659108.5484   23659104.9944
        47.000          41.000
 115026833.91447 107423469.60247  23791845.2634   23791853.0904   23791845.1184
        47.000          41.000
 144084587.26047  94481441.27347  25515490.4894   25515502.0114   25515490.0844
        40.000          35.000
 117769414.20347 109560556.66447  24313731.2924   24313738.4884   24313731.9184
        43.000          37.000
 111504743.78547  86886810.04147  21218647.1764   21218651.7804   21218647.4954
        53.000          47.000
 112450545.82047  87623783.34847  21398640.1014   21398644.2994   21398640.5034
        55.000          49.000
 128089583.38047  99810027.83647  24374664.6634   24374675.2984   24374665.1114
        41.000          38.000
 106563742.44147  83036660.94647  20278422.2874   20278429.1764   20278421.6424
        56.000          52.000
 13  4 22  1 43 30.0000000  0  9G15G22G12G05G14G21G18G09G24
 115147846.70947  89725582.89447  21911915.0294   21911920.6074   21911914.5604
        54.000          48.000
 134240239.90147  86810553.77447  23642148.8854   23642153.3864   23642149.5844
        47.000          42.000
 114937799.61547 107354092.28947  23774902.6874   23774910.6484   23774902.0014
        46.000          41.000
 144174536.46547  94551531.10447  25532607.4854   25532619.3494   25532607.2724
        40.000          35.000
 117706654.13447 109511652.78047  24301788.2874   24301796.2844   24301788.0774
        42.000          38.000
 111525105.15447  86902676.03447  21222522.0064   21222526.2514   21222522.5234
        53.000          47.000
 112386133.93047  87573592.29047  21386383.1874   21386387.1124   21386383.5774
        55.000          49.000
 128201886.43747  99897536.61547  24396035.4514   24396045.8274   24396034.9924
        40.000          37.000
 106576537.45747  83046631.09147  20280857.1484   20280863.9964   20280856.5824
        56.000          52.000
 13  4 22  1 44  0.0000000  0  8G15G22G12G14G21G18G09G24
 115202048.61447  89767818.13047  21922229.4524   21922234.7634   21922229.0574
        54.000          48.000
 134151152.92647  86741135.45447  23625196.1704   23625200.4564   23625196.9214
        46.000          41.000
 114848812.42247 107284751.71347  23757968.8824   23757977.0884   23757968.4774
        46.000          41.000
 117644004.19247 109462834.75447  24289866.6674   24289874.2794   24289867.0514
        43.000          37.000
 111546013.31047  86918968.09147  21226500.6164   21226505.0724   21226501.2204
        53.000          48.000
 112321909.44547  87523547.26547  21374161.5164   21374165.6354   21374161.9984
        55.000          49.000
 128314302.00747  99985133.03447  24417427.6984   24417437.5284   24417426.9634
        41.000          38.000
 106589877.94847  83057026.28547  20283396.0564   20283402.5424   20283395.6134
        56.000          52.000
 13  4 22  1 44 30.0000000  0  8G15G22G12G14G21G18G09G24
 115256326.98247  89810112.93347  21932558.4064   21932563.5394   21932558.0904
        53.000          48.000
 134062080.34847  86671728.34447  23608245.9874   23608250.3174   23608246.7294
        46.000          41.000
 114759873.86347 107215449.01647  23741044.1014   23741052.3114   23741043.3134
        45.000          41.000
 117581462.47247 109414101.02247  24277965.5934   24277972.8994   24277965.6264
        43.000          37.000
 111567465.14847  86935683.79247  21230582.8894   21230587.4654   21230583.1984
        53.000          48.000
 112257872.53547  87473648.40547  21361975.6384   21361979.9834   21361975.9664
        54.000          49.000
 128426825.29147 100072813.45547  24438840.2864   24438850.1694   24438839.7024
        41.000          37.000
 106603760.58647  83067843.93447  20286037.6894   20286044.4014   20286037.1434
        56.000          52.000
 13  4 22  1 45  0.0000000  0  8G15G22G12G14G21G18G09G24
 115310688.22047  89852472.30647  21942903.1674   21942908.5324   21942902.6974
        54.000          48.000
 133973030.80047  86602339.19047  23591300.2364   23591304.9384   23591300.6814
        46.000          41.000
 114670994.10647 107146192.15947  23724131.0154   23724138.6854   23724130.5654
        46.000          40.000
 117519035.83947 109365456.98447  24266086.2094   24266093.1464   24266086.8234
        44.000          38.000
 111589467.32747  86952828.33347  21234769.6134   21234774.3464   21234770.1354
        53.000          48.000
 112194032.60347  87423903.03747  21349827.1054   21349831.7264   21349827.5474
        55.000          48.000
 128539461.21447 100160581.60247  24460274.1254   24460283.4214   24460274.9964
        42.000          37.000
 106618191.99647  83079089.19247  20288783.7084   20288790.5774   20288783.0284
        56.000          52.000
 13  4 22  1 45 30.0000000  0  8G15G22G12G14G21G18G09G24
 115365125.24647  89894890.74347  21953262.3044   21953267.6144   21953262.1554
        54.000          48.000
 133883999.34447  86532964.12147  23574358.0104   23574362.8414   23574358.9474
        47.000          42.000
 114582169.00847 107076977.88147  23707228.3754   23707235.5404   23707228.4404
        45.000          40.000
 117456717.01147 109316896.93947  24254227.1514   24254234.3734   24254227.6464
        42.000          37.000
 111612011.85347  86970395.48447  21239059.6024   21239064.3644   21239059.8174
        53.000          48.000
 112130384.68347  87374307.28147  21337715.4534   21337719.8394   21337716.0384
        55.000          49.000
 128652199.77747 100248429.69047  24481727.3884   24481737.3264   24481726.5894
        40.000          37.000
 106633163.68247  83090755.45147  20291632.8304   20291639.4374   20291632.2894
        56.000          52.000
 13  4 22  1 46  0.0000000  0  8G15G22G12G14G21G18G09G24
 115419641.94447  89937371.25847  21963636.3544   21963641.5414   21963635.9474
        53.000          48.000
 133794992.24247  86463608.03447  23557420.4434   23557425.2774   23557421.1934
        47.000          42.000
 114493406.87647 107007812.63647  23690337.3744   23690345.2204   23690336.9804
        45.000          41.000
 117394510.09647 109268424.10847  24242389.4874   24242396.8184   24242389.5364
        42.000          38.000
 111635102.22147  86988387.96147  21243454.0064   21243458.2414   21243454.3364
        54.000          48.000
 112066935.72047  87324866.55047  21325641.8674   21325645.7604   21325642.3294
        55.000          49.000
 128765042.91647 100336359.29547  24503200.7814   24503210.8664   24503199.5054
        42.000          37.000
 106648679.71047  83102845.86647  20294585.4054   20294592.0214   20294584.9984
        56.000          52.000
 13  4 22  1 46 30.0000000  0  8G15G22G12G14G21G18G09G24
 115474234.96347  89979911.23847  21974025.0704   21974030.1084   21974024.9534
        53.000          48.000
 133706007.95547  86394269.70347  23540487.0914   23540492.2454   23540487.9484
        47.000          42.000
 114404708.18247 106938696.86347  23673457.9314   23673465.9984   23673458.0474
        45.000          41.000
 117332411.80547 109220035.88247  24230572.7454   24230580.2574   24230572.5954
        42.000          38.000
 111658733.89447  87006802.23847  21247951.1244   21247955.1374   21247951.7104
        54.000          48.000
 112003684.88747  87275580.20047  21313605.4884   21313609.5274   21313605.9374
        55.000          48.000
 128877985.16247 100424366.16847  24524693.6064   24524702.4374   24524694.5144
        43.000          37.000
 106664735.40147  83115356.80247  20297640.7364   20297647.4544   20297640.2534
        56.000          52.000
 13  4 22  1 47  0.0000000  0  8G15G22G12G14G21G18G09G24
 115528901.09847  90022508.19647  21984427.7484   21984432.7004   21984427.1354
        53.000          48.000
 133617045.21247  86324948.15547  23523558.1074   23523562.8104   23523559.2134
        48.000          42.000
 114316073.46047 106869630.92547  23656591.4254   23656599.3304   23656591.5604
        45.000          41.000
 117270418.86647 109171729.74247  24218775.3924   24218782.7334   24218775.9424
        42.000          37.000
 111682903.29347  87025635.51347  21252550.2954   21252554.6264   21252550.4584
        53.000          48.000
 111940631.21847  87226447.48547  21301606.5784   21301610.6344   21301607.1694
        55.000          48.000
 128991021.28247 100512446.10447  24546203.2374   24546213.3874   24546202.1184
        41.000          37.000
 106681327.11547  83128285.41447  20300797.7444   20300804.7524   20300797.1524
        56.000          52.000
 13  4 22  1 47 30.0000000  0  8G15G22G12G14G21G18G09G24
 115583647.12747  90065167.40847  21994845.4514   21994850.5684   21994845.1914
        53.000          48.000
 133528112.85247  86255650.29447  23506635.1834   23506639.4244   23506636.3694
        48.000          42.000
 114227512.87247 106800622.73247  23639739.7544   23639746.7604   23639739.2384
        46.000          41.000
 117208538.16947 109123511.09447  24206999.1864   24207007.6044   24206999.4374
        43.000          38.000
 111707616.65147  87044892.65547  21257252.8074   21257257.7844   21257253.1734
        54.000          48.000
 111877784.08047  87177475.71247  21289646.9174   21289651.2854   21289647.0924
        54.000          48.000
 129104155.61747 100600602.58247  24567731.6454   24567741.9584   24567732.1904
        42.000          37.000
 106698460.64947  83141636.22947  20304058.2754   20304065.1454   20304057.6954
        56.000          52.000
 13  4 22  1 48  0.0000000  0  8G15G22G12G14G21G18G09G24
 115638468.26447  90107885.14147  22005277.5234   22005282.5304   22005276.8974
        53.000          48.000
 133439208.17847  86186374.01147  23489716.9514   23489721.3974   23489717.9964
        47.000          42.000
 114139025.38247 106731671.51347  23622900.5264   23622907.5054   23622900.1254
        45.000          41.000
 117146765.33347 109075376.47247  24195245.3504   24195251.9944   24195245.6134
        44.000          38.000
 111732867.97747  87064568.99247  21262058.0044   21262062.8694   21262058.5894
        53.000          48.000
 111815141.25847  87128663.13547  21277726.3524   21277730.5134   21277726.7334
        55.000          48.000
 129217380.95347 100688829.98447  24589279.2004   24589287.5024   24589278.1664
        41.000          37.000
 106716130.22947  83155404.74047  20307420.5934   20307427.4764   20307420.1164
        56.000          52.000
 13  4 22  1 48 30.0000000  0  8G15G22G12G14G21G18G09G24
 115693364.50347  90150661.39447  22015724.0354   22015729.1644   22015723.7664
        53.000          48.000
 133350333.56447  86117121.13847  23472804.1424   23472809.2324   23472804.6944
        48.000          42.000
 114050615.72947 106662780.93147  23606076.5114   23606083.5144   23606075.9124
        45.000          41.000
 117085100.60547 109027326.08447  24183510.9234   24183517.4664   24183511.4764
        42.000          38.000
 111758657.26447  87084664.52347  21266965.6384   21266970.2094   21266965.8124
        53.000          48.000
 111752705.94847  87080012.25847  21265845.4564   21265849.3404   21265845.9374
        55.000          48.000
 129330695.59947 100777126.95747  24610841.5834   24610851.0134   24610841.2844
        41.000          36.000
 106734335.56447  83169590.71747  20310885.0204   20310891.9134   20310884.4674
        56.000          52.000
 13  4 22  1 49  0.0000000  0  8G15G22G12G14G21G18G09G24
 115748332.91247  90193493.88947  22026184.2054   22026189.1894   22026183.8484
        53.000          48.000
 133261488.09547  86047890.95247  23455897.9184   23455902.2624   23455898.3304
        47.000          42.000
 113962283.38947 106593950.59947  23589267.4174   23589274.8014   23589266.7894
        45.000          41.000
 117023540.60647 108979357.30047  24171796.0134   24171803.3734   24171795.5394
        42.000          38.000
 111784980.35147  87105175.99447  21271974.9484   21271979.4114   21271975.1694
        54.000          48.000
 111690477.33347  87031522.44947  21254003.6884   21254007.7484   21254004.1404
        55.000          49.000
 139444094.28357  90865489.43757  24632419.9175   24632429.9695   24632418.5115
        38.000          36.000
 106753072.45047  83184190.89147  20314450.5194   20314457.3604   20314449.9514
        56.000          52.000
 13  4 22  1 49 30.0000000  0  8G15G22G12G14G21G18G09G24
 115803377.16147  90236385.47347  22036658.8784   22036664.1474   22036658.5124
        53.000          48.000
 133172677.48947  85978687.98147  23438997.3344   23439002.4414   23438997.6734
        48.000          42.000
 113874036.14447 106525186.56947  23572474.6864   23572481.7274   23572474.7714
        46.000          41.000
 116962089.25447 108931473.18347  24160101.9374   24160108.8664   24160102.0494
        43.000          38.000
 111811840.33847  87126105.83847  21277086.2074   21277090.4674   21277086.5324
        53.000          48.000
 111628461.49947  86983198.43747  21242202.7464   21242206.5364   21242203.1844
        55.000          49.000
 139557578.81447  90953918.79947  24654015.8324   24654025.1734   24654015.3674
        41.000          36.000
 106772344.13947  83199207.79647  20318117.8074   20318124.4664   20318117.3654
        56.000          52.000
 13  4 22  1 50  0.0000000  0  8G15G22G12G14G21G18G09G24
 115858495.59147  90279334.86247  22047147.3744   22047152.9244   22047146.9154
        53.000          48.000
 133083902.21447  85909512.54547  23422104.2744   23422108.8564   23422105.2114
        48.000          42.000
 113785876.78447 106456491.04547  23555698.6774   23555705.7174   23555698.8654
        46.000          41.000
 116900745.48447 108883672.91147  24148429.1994   24148436.2574   24148429.4984
        42.000          38.000
 111839235.04247  87147452.34047  21282299.1714   21282303.5924   21282299.5944
        53.000          48.000
 111566659.70547  86935041.22147  21230442.2114   21230446.1714   21230442.5284
        55.000          49.000
 139671145.29047  91042412.02847  24675627.6054   24675635.6454   24675627.0294
        41.000          36.000
 106792148.08747  83214639.44647  20321886.2594   20321893.0114   20321885.7244
        56.000          52.000
 13  4 22  1 50 30.0000000  0  8G15G22G12G14G21G18G09G24
 115913686.40947  90322340.64847  22057649.5764   22057655.2144   22057649.1454
        53.000          48.000
 132995162.61647  85840364.89047  23405217.7784   23405221.6634   23405218.6694
        48.000          42.000
 113697806.53847 106387864.94747  23538938.6894   23538946.6054   23538938.5874
        46.000          41.000
 116839506.81847 108835954.54847  24136775.0594   24136782.3134   24136776.2064
        44.000          38.000
 111867161.17947  87169212.95047  21287613.3734   21287617.8244   21287613.7724
        53.000          48.000
 111505072.62047  86887051.30947  21218722.6154   21218726.6434   21218723.1804
        56.000          49.000
 139784789.53947  91130965.91347  24697252.9114   24697261.1634   24697251.2514
        41.000          35.000
 106812481.28047  83230483.49047  20325755.6134   20325762.5744   20325755.0034
        56.000          52.000
 13  4 22  1 51  0.0000000  0  8G15G22G12G14G21G18G09G24
 115968948.30847  90365401.83347  22068165.9464   22068171.7064   22068165.2174
        53.000          48.000
 132906459.30347  85771245.51147  23388338.0584   23388342.1334   23388338.5394
        48.000          42.000
 113609828.05547 106319310.35447  23522196.7934   23522204.6104   23522196.1724
        46.000          42.000
 116778372.25247 108788317.30547  24125141.7254   24125149.1884   24125142.3134
        42.000          38.000
 111895616.90847  87191386.21847  21293028.3234   21293032.6294   21293028.6624
        54.000          48.000
 111443701.49847  86839229.67947  21207044.1754   21207048.0764   21207044.5784
        56.000          49.000
 139898508.16947  91219577.69747  24718893.0034   24718901.7224   24718892.2504
        41.000          36.000
 106833341.78947  83246738.43147  20329725.1754   20329732.0394   20329724.6674
        56.000          52.000
 13  4 22  1 51 30.0000000  0  8G15G22G12G14G21G18G09G24
 116024283.15447  90408519.84547  22078695.7594   22078701.8514   22078695.5424
        53.000          48.000
 132817796.22547  85702157.49047  23371466.0094   23371469.7844   23371467.1474
        48.000          42.000
 113521947.00147 106250831.68647  23505475.1544   23505481.9204   23505475.3274
        46.000          42.000
 116717343.78647 108740762.69547  24113528.5394   24113535.6944   24113528.9994
        43.000          38.000
 111924602.97547  87213972.74347  21298544.3734   21298548.6294   21298544.7094
        53.000          48.000
 111382550.74347  86791579.76347  21195407.5394   21195411.2704   21195408.2114
        56.000          49.000
 140012300.86947  91308247.19647  24740547.2864   24740557.2584   24740546.6934
        41.000          36.000
 106854730.28047  83263404.79847  20333795.2584   20333802.2294   20333794.8244
        56.000          52.000
 13  4 22  1 52  0.0000000  0  8G15G22G12G14G21G18G09G24
 116079690.46347  90451694.33447  22089239.5464   22089245.3214   22089239.2454
        53.000          48.000
 132729175.60647  85633102.54247  23354601.8144   23354605.6434   23354602.6914
        48.000          42.000
 113434166.39247 106182431.27947  23488770.3074   23488777.4484   23488770.1784
        46.000          42.000
 116656421.50847 108693290.82547  24101934.9154   24101942.4754   24101935.3674
        42.000          38.000
 111954118.64947  87236971.94447  21304160.9644   21304165.3334   21304161.5664
        53.000          48.000
 111321622.86347  86744103.52047  21183813.0274   21183817.1174   21183813.4094
        56.000          49.000
 140126165.47547  91396972.69847  24762216.2604   24762223.4844   24762214.6114
        40.000          35.000
 106876645.62347  83280481.69047  20337965.5534   20337972.6824   20337965.0154
        56.000          52.000
 13  4 22  1 52 30.0000000  0  8G15G22G12G14G21G18G09G24
 116135168.82447  90494924.19147  22099796.9394   22099802.4004   22099796.2964
        53.000          48.000
 132640597.46847  85564080.69847  23337745.9494   23337749.9134   23337746.8804
        48.000          42.000
 113346488.40347 106114110.85347  23472085.4244   23472092.9244   23472085.4644
        46.000          42.000
 116595602.84447 108645899.72647  24090361.8894   24090369.4084   24090362.4374
        44.000          38.000
 111984160.72447  87260381.32047  21309877.6864   21309882.1884   21309877.9394
        53.000          48.000
 111260918.29747  86696801.27947  21172261.1414   21172265.2244   21172261.5554
        56.000          49.000
 140240097.65247  91485750.90847  24783895.8704   24783904.1514   24783895.5344
        41.000          35.000
 106899085.12547  83297967.01247  20342235.7754   20342242.6894   20342235.1974
        56.000          52.000
 13  4 22  1 53  0.0000000  0  7G15G22G12G14G21G18G24
 116190719.27947  90538210.21947  22110367.7644   22110373.3474   22110367.3984
        53.000          47.000
 132552064.96447  85495094.40147  23320898.8994   23320902.6244   23320899.8304
        48.000          42.000
 113258917.95847 106045874.21747  23455421.4524   23455428.7694   23455421.4554
        47.000          42.000
 116534889.30447 108598590.55247  24078807.5224   24078815.1194   24078808.2244
        42.000          38.000
 112014729.21147  87284200.88647  21315694.7734   21315699.0764   21315695.0334
        53.000          47.000
 111200440.64647  86649675.85947  21160752.6364   21160756.7064   21160752.7744
        56.000          49.000
 106922048.52247  83315860.56647  20346605.5984   20346612.3284   20346604.9954
        56.000          52.000
 13  4 22  1 53 30.0000000  0  7G15G22G12G14G21G18G24
 116246337.30947  90581548.90647  22120951.6334   22120956.8294   22120951.2064
        52.000          47.000
 132463575.96247  85426142.03347  23304059.6564   23304064.0424   23304060.5574
        48.000          42.000
 113171454.22847 105977720.72947  23438777.4604   23438784.9904   23438777.0704
        47.000          42.000
 116474276.64047 108551359.95847  24067274.2364   24067281.2274   24067274.8184
        42.000          38.000
 112045819.07047  87308426.71947  21321610.8854   21321615.4144   21321611.3144
        53.000          47.000
 111140188.32747  86602726.01847  21149287.2994   21149291.1064   21149287.9264
        56.000          49.000
 106945530.20247  83334157.97747  20351074.0964   20351080.8364   20351073.6084
        56.000          52.000
 13  4 22  1 54  0.0000000  0  7G15G22G12G14G21G18G24
 116302025.93647  90624942.59747  22131548.7334   22131554.1974   22131548.3864
        52.000          47.000
 132375135.69447  85357227.61547  23287229.8874   23287233.8934   23287230.7014
        48.000          42.000
 113084104.50247 105909656.09247  23422154.7434   23422162.3704   23422154.5294
        47.000          42.000
 116413767.80747 108504210.31047  24055759.7284   24055766.7984   24055759.9334
        43.000          38.000
 112077431.85747  87333060.03247  21327626.5824   21327631.3144   21327626.9414
        54.000          48.000
 111080166.93147  86555956.11747  21137865.7364   21137869.5054   21137866.2754
        56.000          49.000
 106969532.85547  83352861.33947  20355641.7394   20355648.4754   20355641.2574
        56.000          52.000
 13  4 22  1 54 30.0000000  0  7G15G22G12G14G21G18G24
 116357784.24547  90668390.57847  22142159.1844   22142164.7294   22142158.8174
        53.000          47.000
 132286745.22847  85288352.00247  23270409.6664   23270413.4744   23270410.3874
        48.000          42.000
 112996870.88547 105841681.92047  23405554.5434   23405562.1674   23405554.3874
        46.000          42.000
 116353361.95447 108457140.89147  24044264.4944   24044272.3524   24044265.0454
        42.000          38.000
 112109565.91147  87358099.52047  21333741.8174   21333746.4674   21333742.0614
        54.000          48.000
 111020377.88447  86509367.27247  21126487.9174   21126492.2644   21126488.2894
        56.000          49.000
 106994054.00047  83371968.71347  20360307.8714   20360314.6754   20360307.2134
        56.000          52.000
 13  4 22  1 55  0.0000000  0  7G15G22G12G14G21G18G24
 116413613.40847  90711893.78247  22152783.5114   22152788.6984   22152783.1074
        52.000          47.000
 132198407.34147  85219517.35847  23253599.4574   23253603.5294   23253600.3044
        48.000          42.000
 112909758.12847 105773801.90747  23388977.4824   23388984.8904   23388976.7104
        46.000          42.000
 116293059.71647 108410152.20247  24032789.1954   24032796.6534   24032788.6684
        42.000          38.000
 112142220.66747  87383544.74747  21339955.8834   21339960.6304   21339956.3124
        54.000          48.000
 110960824.61147  86462962.14147  21115155.0944   21115159.6254   21115155.5134
        56.000          49.000
 107019093.25947  83391479.81747  20365072.6804   20365079.4284   20365072.1874
        56.000          52.000
 13  4 22  1 55 30.0000000  0  7G15G22G12G14G21G18G24
 116469508.97547  90755448.72047  22163419.7974   22163425.4254   22163419.4114
        53.000          47.000
 132110120.54047  85150722.51447  23236798.9104   23236803.1294   23236799.6734
        48.000          42.000
 112822765.68947 105706015.68347  23372423.6384   23372430.5944   23372423.8424
        47.000          42.000
 116232856.87247 108363240.93647  24021332.8724   24021339.9314   24021333.1974
        42.000          38.000
 112175391.03247  87409391.74647  21346267.8434   21346272.6674   21346268.1774
        53.000          48.000
 110901505.70647  86416739.63747  21103867.0544   21103871.6444   21103867.4044
        56.000          49.000
 107044645.80047  83411390.88147  20369935.1614   20369941.9214   20369934.6884
        56.000          52.000
 13  4 22  1 56  0.0000000  0  7G15G22G12G14G21G18G24
 116525475.02547  90799058.57547  22174069.4314   22174074.9014   22174068.7734
        52.000          47.000
 132021890.74247  85081972.10447  23220009.0534   23220013.3904   23220010.2584
        48.000          42.000
 112735901.46447 105638329.34647  23355894.4124   23355901.4204   23355894.3644
        47.000          42.000
 116172757.57047 108316410.41847  24009895.9584   24009903.9394   24009896.1704
        42.000          38.000
 112209079.70447  87435642.61447  21352678.5164   21352683.1474   21352678.8324
        53.000          48.000
 110842427.70247  86370704.84047  21092625.0894   21092629.3454   21092625.5024
        56.000          50.000
 107070714.33147  83431704.01347  20374895.7184   20374902.6564   20374895.0794
        56.000          52.000
 13  4 22  1 56 30.0000000  0  7G15G22G12G14G21G18G24
 116581506.70847  90842719.58147  22184732.0494   22184737.3534   22184731.6114
        52.000          47.000
 131933714.94147  85013263.74847  23203230.0164   23203234.0784   23203230.5344
        48.000          42.000
 112649164.46947 105570742.16347  23339388.3924   23339396.3924   23339388.4414
        45.000          42.000
 116112757.12347 108269656.90347  23998478.7864   23998486.5574   23998479.0104
        43.000          39.000
 112243280.97547  87462292.91147  21359186.6224   21359191.4154   21359187.0344
        53.000          47.000
 110783588.29747  86324855.96247  21081428.5894   21081432.3184   21081429.0054
        57.000          50.000
 107097292.37147  83452414.15847  20379953.2294   20379960.3134   20379952.5594
        56.000          52.000
 13  4 22  1 57  0.0000000  0  7G15G22G12G14G21G18G24
 116637608.15547  90886434.93147  22195407.6514   22195413.4934   22195407.2514
        52.000          47.000
 131845599.99447  84944602.82147  23186462.2414   23186466.1114   23186463.2404
        48.000          42.000
 112562562.62247 105503260.29647  23322908.0844   23322916.6154   23322907.7574
        45.000          42.000
 116052859.33847 108222983.36747  23987080.5044   23987088.1844   23987081.0714
        42.000          39.000
 112277997.68447  87489344.85047  21365793.0194   21365797.8694   21365793.4484
        53.000          48.000
 110724993.98147  86279198.06647  21070278.4054   21070282.3124   21070278.9754
        56.000          50.000
 107124383.56347  83473524.16447  20385108.4804   20385115.5124   20385107.9264
        56.000          52.000
 13  4 22  1 57 30.0000000  0  7G15G22G12G14G21G18G24
 116693773.37147  90930199.97847  22206095.9814   22206101.6024   22206095.5484
        52.000          47.000
 131757541.61147  84875985.95547  23169705.4614   23169709.4874   23169706.5064
        48.000          42.000
 112476093.18747 105435881.59347  23306453.7924   23306461.2934   23306453.3244
        46.000          42.000
 115993058.06347 108176385.01947  23975700.6114   23975707.6644   23975700.2884
        44.000          38.000
 112313222.28147  87516792.55147  21372496.2844   21372501.0194   21372496.5624
        53.000          48.000
 110666641.24947  86233728.42047  21059173.9474   21059178.1424   21059174.5054
        56.000          50.000
 107151980.01647  83495027.88347  20390360.0074   20390366.9194   20390359.4874
        56.000          52.000
 13  4 22  1 58  0.0000000  0  7G15G22G12G14G21G18G24
 116750007.88247  90974019.02647  22216797.7344   22216803.1344   22216797.5644
        52.000          47.000
 131669547.18947  84807418.94047  23152960.6044   23152964.4524   23152961.2864
        48.000          42.000
 112389765.23447 105368613.12547  23290025.9344   23290033.2234   23290025.3064
        47.000          42.000
 115933358.48647 108129865.92047  23964339.8234   23964346.1724   23964339.2194
        42.000          38.000
 112348958.84247  87544639.18047  21379296.8254   21379301.6384   21379297.1314
        53.000          47.000
 110608538.16647  86188453.31547  21048116.9444   21048121.4754   21048117.2504
        56.000          50.000
 107180086.26447  83516928.84247  20395708.5034   20395715.3794   20395707.8884
        56.000          52.000
 13  4 22  1 58 30.0000000  0  7G15G22G12G14G21G18G24
 116806309.70547  91017890.53547  22227511.4564   22227516.6914   22227511.2874
        52.000          47.000
 131581617.24347  84738902.14947  23136227.9544   23136231.5694   23136229.1104
        48.000          42.000
 112303580.65347 105301456.39047  23273625.5924   23273632.7524   23273624.8974
        47.000          42.000
 115873758.88947 108083424.74547  23952998.3814   23953005.6154   23952998.4544
        43.000          38.000
 112385204.28647  87572882.33747  21386194.0944   21386198.8194   21386194.6044
        53.000          47.000
 110550685.18447  86143373.08747  21037108.1624   21037112.5124   21037108.7384
        56.000          50.000
 107208698.74447  83539224.26947  20401153.4204   20401160.1644   20401152.8914
        56.000          52.000
 13  4 22  1 59  0.0000000  0  7G15G22G12G14G21G18G24
 116862675.68447  91061812.02447  22238237.2084   22238243.0124   22238236.9004
        52.000          47.000
 131493750.60547  84670434.69747  23119507.6014   23119511.4104   23119508.5884
        49.000          43.000
 112217540.14447 105234411.89447  23257253.0294   23257260.0464   23257252.7354
        48.000          43.000
 115814255.76847 108037058.72347  23941674.5264   23941682.5634   23941674.4334
        42.000          38.000
 112421953.94847  87601518.39447  21393187.3794   21393192.0174   21393187.8274
        53.000          47.000
 110493081.80647  86098487.34847  21026146.8644   21026151.0564   21026147.5104
        57.000          50.000
 107237813.23647  83561910.87547  20406693.7594   20406700.4644   20406693.2014
        56.000          52.000
 13  4 22  1 59 30.0000000  0  8G15G25G22G12G14G21G18G24
 116919109.50047  91105786.37347  22248975.8954   22248981.8404   22248975.2824
        52.000          47.000
 139490197.08057  90901393.98657  24641208.1355   24641222.0745   24641208.2285
        42.000          38.000
 131405953.23047  84602021.21947  23102800.2604   23102804.2884   23102801.5154
        48.000          43.000
 112131650.86847 105167485.25247  23240909.0304   23240915.7794   23240909.0304
        48.000          43.000
 115754852.97547 107990770.91647  23930370.8544   23930378.6444   23930370.2414
        42.000          38.000
 112459210.42747  87630549.37647  21400277.1154   21400281.9284   21400277.4334
        53.000          47.000
 110435734.29747  86053800.99347  21015234.1844   21015238.1134   21015234.6154
        57.000          50.000
 107267431.91447  83584990.35747  20412330.0824   20412336.6794   20412329.4194
        56.000          52.000
 13  4 22  2  0  0.0000000  0  8G15G25G22G12G14G21G18G24
 116975599.37247  91149804.41047  22259726.1334   22259731.2164   22259725.7574
        52.000          47.000
 119392411.14757 110825198.75557  24622599.6755   24622613.9625   24622599.7125
        42.000          38.000
 131318215.47547  84533654.19447  23086104.1204   23086108.5264   23086104.8754
        48.000          43.000
 112045904.68347 105100670.10447  23224591.4804   23224598.3984   23224591.4384
        48.000          43.000
 115695538.39347 107944551.81447  23919084.2744   23919091.2054   23919084.0504
        42.000          38.000
 112496960.41547  87659964.90647  21407460.6124   21407465.4244   21407461.0044
        53.000          47.000
 110378633.20747  86009306.64747  21004368.0094   21004372.2244   21004368.5914
        56.000          50.000
 107297541.65447  83608452.48947  20418059.8784   20418066.3394   20418059.3384
        56.000          52.000
 13  4 22  2  0 30.0000000  0  8G15G25G22G12G14G21G18G24
 117032161.77847  91193878.96247  22270489.7294   22270494.5054   22270489.4834
        52.000          47.000
 119294515.08047 110748916.24547  24603970.6044   24603984.3294   24603970.9294
        43.000          37.000
 131230555.84347  84465348.05447  23069423.1894   23069427.3174   23069424.2174
        48.000          43.000
 111960321.65447 105033982.10947  23208305.6854   23208312.9114   23208305.6754
        47.000          43.000
 115636328.48147 107898414.25347  23907817.7554   23907823.7284   23907817.3684
        44.000          39.000
 112535218.62747  87689776.46147  21414740.9064   21414745.5804   21414741.2644
        53.000          47.000
 110321797.41647  85965019.03247  20993552.1254   20993556.6304   20993552.3974
        56.000          50.000
 107328157.65247  83632309.10147  20423885.8444   20423892.3774   20423885.3354
        56.000          52.000
 13  4 22  2  1  0.0000000  0  8G15G25G22G12G14G21G18G24
 117088785.43947  91238001.24247  22281264.8354   22281270.0044   22281264.2624
        52.000          47.000
 119196502.58447 110672542.97447  24585319.5174   24585332.5154   24585319.4074
        42.000          37.000
 131142965.09747  84397095.57647  23052755.1124   23052759.0624   23052755.6974
        49.000          43.000
 111874894.13247 104967415.28347  23192049.5514   23192056.3534   23192049.0384
        48.000          43.000
 115577211.66747 107852349.26547  23896567.6684   23896574.4384   23896567.6244
        43.000          39.000
 112573972.46447  87719974.21047  21422115.5344   21422120.2894   21422115.7994
        53.000          47.000
 110265218.03547  85920931.21747  20982785.3684   20982789.9624   20982785.7504
        56.000          50.000
 107359266.95447  83656550.11347  20429805.4874   20429812.4104   20429804.9474
        55.000          51.000
 13  4 22  2  1 30.0000000  0  8G15G25G22G12G14G21G18G24
 117145478.30047  91282177.45147  22292053.3904   22292058.4384   22292052.9674
        52.000          47.000
 119098384.84047 110596087.75747  24566647.7204   24566661.5634   24566647.4674
        41.000          37.000
 131055453.89447  84328905.07647  23036102.4844   23036106.5714   23036103.3244
        48.000          43.000
 111789634.07647 104900978.95247  23175824.7614   23175832.0474   23175824.2854
        47.000          43.000
 115518196.27247 107806363.30847  23885336.8134   23885343.6934   23885336.2804
        42.000          38.000
 112613228.72447  87750563.45847  21429585.9004   21429590.7124   21429586.1394
        53.000          47.000
 110208906.03847  85877051.74847  20972069.7614   20972073.9334   20972070.2334
        56.000          50.000
 107390876.25047  83681180.72647  20435820.3264   20435827.3514   20435819.5864
        55.000          51.000
 13  4 22  2  2  0.0000000  0  8G15G25G22G12G14G21G18G24
 117202233.84347  91326402.49347  22302853.5124   22302858.7274   22302853.1824
        51.000          47.000
 119000158.05347 110519547.51647  24547956.0084   24547969.7264   24547956.5584
        39.000          37.000
 130968017.05647  84260772.55747  23019463.2474   23019467.7854   23019464.1324
        48.000          43.000
 111704538.17247 104834670.51247  23159631.1744   23159638.6094   23159630.6494
        46.000          43.000
 115459275.06347 107760450.73047  23874123.9464   23874130.7254   23874124.1734
        43.000          38.000
 112652978.83147  87781537.52647  21437150.1064   21437154.8314   21437150.4124
        53.000          47.000
 110152856.81547  85833377.03447  20961404.1614   20961408.1054   20961404.6134
        56.000          50.000
 107422977.50547  83706194.68947  20441929.2814   20441936.0004   20441928.7674
        56.000          51.000
 13  4 22  2  2 30.0000000  0  8G15G25G22G12G14G21G18G24
 117259055.70947  91370679.22447  22313666.2984   22313671.3704   22313665.8194
        52.000          46.000
 118901828.62547 110442927.34747  24529244.3254   24529258.0404   24529244.2284
        40.000          37.000
 130880660.66547  84192702.71847  23002839.8714   23002844.4064   23002841.1274
        48.000          43.000
 111619613.46647 104768495.47247  23143470.4074   23143477.7394   23143469.8884
        48.000          42.000
 115400451.15747 107714613.94247  23862930.7444   23862937.6144   23862930.6634
        44.000          39.000
 112693225.05347  87812898.16747  21444808.7704   21444813.5724   21444809.2274
        53.000          47.000
 110097076.39047  85789911.77347  20950789.4054   20950793.4064   20950789.9114
        56.000          50.000
 107455572.65147  83731593.49947  20448131.9774   20448138.5374   20448131.4914
        56.000          51.000
 13  4 22  2  3  0.0000000  0  8G15G25G22G12G14G21G18G24
 117315938.32247  91415003.28247  22324490.8314   22324495.9344   22324490.6114
        52.000          47.000
 118803394.18847 110366225.35347  24510512.7294   24510526.5004   24510511.7654
        39.000          37.000
 130793381.12347  84124692.74547  22986230.8424   22986235.3184   22986231.8014
        48.000          43.000
 111534858.71947 104702452.88447  23127342.1514   23127349.5164   23127341.5284
        47.000          43.000
 115341719.45847 107668849.03747  23851754.6574   23851761.9354   23851754.4414
        43.000          39.000
 112733960.17747  87844639.76847  21452560.4744   21452565.4994   21452560.9094
        53.000          47.000
 110041561.99647  85746653.81147  20940225.2054   20940229.3754   20940225.7814
        55.000          50.000
 107488654.75347  83757371.75647  20454427.3584   20454434.1054   20454426.8524
        56.000          52.000
 13  4 22  2  3 30.0000000  0  8G15G25G22G12G14G21G18G24
 117372885.54647  91459377.69747  22335327.7624   22335332.3414   22335327.4084
        52.000          46.000
 118704861.57547 110289446.85147  24491762.3494   24491775.9874   24491762.6214
        41.000          37.000
 130706184.63747  84056747.50747  22969637.6934   22969642.2464   22969638.5694
        48.000          43.000
 111450280.93747 104636548.19147  23111248.1664   23111255.1434   23111247.6524
        48.000          43.000
 115283083.66947 107623158.86847  23840596.1934   23840603.8874   23840595.6444
        43.000          39.000
 112775186.70847  87876764.28347  21460405.7774   21460410.6974   21460406.1984
        53.000          47.000
 109986320.09047  85703608.17947  20929712.9524   20929717.1594   20929713.3334
        55.000          50.000
 107522226.27347  83783531.38347  20460815.9334   20460822.6284   20460815.4544
        56.000          51.000
 13  4 22  2  4  0.0000000  0  8G15G25G22G12G14G21G18G24
 117429896.20647  91503801.53847  22346176.5854   22346181.0614   22346176.3624
        52.000          46.000
 118606232.80047 110212593.45447  24472993.4554   24473007.7134   24472993.9824
        40.000          37.000
 130619072.38447  83988867.91347  22953061.1744   22953065.3534   22953062.1574
        49.000          44.000
 111365883.20747 104570783.81247  23095187.4944   23095194.7674   23095187.0044
        48.000          43.000
 115224542.28247 107577542.27347  23829455.4584   23829463.5864   23829454.8004
        43.000          39.000
 112816901.94047  87909269.60947  21468343.8284   21468348.4694   21468344.3084
        53.000          47.000
 109931351.84747  85660775.79547  20919252.8974   20919256.9734   20919253.3764
        55.000          50.000
 107556284.66847  83810070.39247  20467296.8764   20467303.7704   20467296.3064
        55.000          51.000
 13  4 22  2  4 30.0000000  0  8G15G25G22G12G14G21G18G24
 117486970.65947  91548275.08147  22357037.2564   22357042.6324   22357036.7614
        51.000          46.000
 118507511.27747 110135667.72547  24454208.2804   24454221.6504   24454208.2204
        42.000          37.000
 130532046.73847  83921055.78747  22936500.4054   22936504.6564   22936501.2104
        48.000          44.000
 111281669.00847 104505162.44047  23079161.7314   23079169.0374   23079161.6384
        48.000          43.000
 115166095.54247 107531999.42947  23818333.7914   23818340.7724   23818333.8104
        43.000          39.000
 112859104.28747  87942154.50847  21476374.6564   21476379.2084   21476374.9434
        53.000          47.000
 109876660.08747  85618158.84547  20908845.4174   20908849.3514   20908845.8604
        55.000          50.000
 107590828.87347  83836987.94447  20473870.4394   20473877.4754   20473869.8134
        56.000          52.000
 13  4 22  2  5  0.0000000  0  8G15G25G22G12G14G21G18G24
 117544106.07347  91592796.12447  22367909.5404   22367915.1424   22367909.1654
        51.000          46.000
 118408696.11947 110058669.08547  24435403.8774   24435417.9444   24435403.8464
        41.000          37.000
 130445106.69247  83853310.36947  22919956.2314   22919960.5644   22919957.0824
        49.000          44.000
 111197638.47847 104439684.17447  23063171.1374   23063178.6674   23063170.5564
        48.000          43.000
 115107739.80047 107486527.47747  23807228.9124   23807235.4754   23807228.8734
        44.000          38.000
 112901788.69247  87975415.03647  21484497.4034   21484501.7844   21484497.7864
        53.000          47.000
 109822243.61847  85575756.40747  20898490.1914   20898494.2864   20898490.6164
        55.000          50.000
 107625853.70547  83864280.02147  20480535.3514   20480542.4374   20480534.7894
        56.000          51.000
 13  4 22  2  5 30.0000000  0  8G15G25G22G12G14G21G18G24
 117601303.91747  91637365.81047  22378794.4454   22378799.8754   22378794.1124
        52.000          46.000
 118309792.31847 109981601.30547  24416582.4634   24416596.5644   24416582.2554
        42.000          37.000
 130358256.09247  83785634.65247  22903429.0834   22903433.7424   22903429.2544
        49.000          44.000
 111113797.03347 104374353.26247  23047216.3734   23047224.1834   23047216.2724
        48.000          44.000
 115049476.90247 107441127.85147  23796142.2414   23796148.4094   23796142.4744
        44.000          39.000
 112944955.49547  88009051.45347  21492711.7874   21492716.3504   21492712.3164
        53.000          47.000
 109768106.71547  85533571.81547  20888188.1414   20888192.5144   20888188.3844
        55.000          50.000
 107661358.97347  83891946.45447  20487291.9204   20487298.9774   20487291.3824
        56.000          52.000
 13  4 22  2  6  0.0000000  0  8G15G25G22G12G14G21G18G24
 117658562.60047  91681982.93047  22389690.7424   22389695.6964   22389690.5454
        52.000          46.000
 118210801.47847 109904465.71147  24397745.5734   24397760.0134   24397745.5254
        42.000          38.000
 130271495.65147  83718029.16347  22886919.2604   22886923.1794   22886919.8924
        49.000          44.000
 111030146.92047 104309171.44847  23031298.2914   23031305.8724   23031298.2824
        47.000          43.000
 114991304.78747 107395798.99847  23785072.7034   23785078.0944   23785072.8524
        45.000          38.000
 112988601.35647  88043061.16147  21501017.2574   21501022.0194   21501017.7544
        53.000          47.000
 109714250.37047  85491605.83847  20877939.5914   20877944.1164   20877939.8764
        55.000          50.000
 107697342.01547  83919985.18047  20494139.4124   20494146.2864   20494138.8014
        56.000          51.000
 13  4 22  2  6 30.0000000  0  8G15G25G22G12G14G21G18G24
 117715883.83747  91726648.78347  22400598.1504   22400603.4184   22400597.3674
        52.000          46.000
 118111728.51447 109827266.13147  24378892.4844   24378906.5354   24378892.1744
        42.000          38.000
 130184829.19847  83650496.93447  22870426.8134   22870431.4634   22870427.1854
        48.000          44.000
 110946693.75047 104244143.09447  23015417.6244   23015425.1284   23015417.1244
        48.000          43.000
 114933225.40947 107350542.40047  23774020.4814   23774026.4494   23774020.3474
        44.000          39.000
 113032726.32547  88077444.19247  21509414.0494   21509419.2054   21509414.4484
        53.000          47.000
 109660679.30847  85449862.16447  20867745.4424   20867749.8454   20867745.8364
        55.000          50.000
 107733803.24747  83948396.52647  20501077.7074   20501084.6674   20501077.2344
        56.000          51.000
 13  4 22  2  7  0.0000000  0  8G15G25G22G12G14G21G18G24
 117773266.17347  91771362.24647  22411517.5084   22411523.2584   22411517.1054
        51.000          46.000
 118012574.42747 109750003.34347  24360023.9544   24360037.3114   24360023.2924
        41.000          37.000
 130098257.15247  83583038.25947  22853952.9264   22853957.3054   22853953.7634
        49.000          44.000
 110863439.44647 104179269.71247  22999574.9144   22999582.2034   22999574.8964
        48.000          44.000
 114875236.62547 107305356.38447  23762985.5054   23762991.8494   23762985.7834
        44.000          39.000
 113077327.08247  88112197.97147  21517901.4294   21517906.2044   21517901.8144
        52.000          47.000
 109607394.12247  85408341.24947  20857605.7194   20857609.9624   20857606.0454
        55.000          50.000
 107770738.34947  83977177.11247  20508106.0964   20508113.1914   20508105.4724
        56.000          51.000
 13  4 22  2  7 30.0000000  0  8G15G25G22G12G14G21G18G24
 117830711.91647  91816125.10347  22422448.9864   22422454.6314   22422448.5364
        51.000          46.000
 117913344.64847 109672681.57947  24341140.6034   24341154.6334   24341141.2034
        41.000          37.000
 130011783.97147  83515656.62347  22837497.1944   22837501.7254   22837497.6984
        48.000          44.000
 110780389.70947 104114555.72747  22983770.7794   22983778.4044   22983770.3024
        48.000          44.000
 114817340.33747 107260242.47647  23751967.6004   23751974.9024   23751967.4814
        44.000          39.000
 113122403.84047  88147322.65847  21526479.2304   21526484.1164   21526479.5154
        53.000          47.000
 109554399.19547  85367046.50047  20847521.2954   20847525.5954   20847521.7854
        55.000          50.000
 107808148.74847  84006328.05747  20515225.0344   20515231.9814   20515224.4844
        56.000          51.000
 13  4 22  2  8  0.0000000  0  8G15G25G22G12G14G21G18G24
 117888216.33347  91860933.69247  22433391.9534   22433397.4094   22433391.6324
        51.000          46.000
 117814037.50147 109595299.52547  24322243.6254   24322256.3524   24322244.0494
        42.000          37.000
 129925407.28747  83448350.18347  22821060.1274   22821064.7474   22821060.7234
        49.000          44.000
 110697543.46347 104050000.31047  22968005.8064   22968012.9314   22968005.6294
        49.000          44.000
 114759531.95247 107215197.02347  23740967.2724   23740974.1124   23740967.0624
        45.000          39.000
 113167950.10547  88182813.19647  21535146.3744   21535151.4204   21535146.7314
        53.000          47.000
 109501692.30847  85325976.20347  20837491.5134   20837495.5724   20837491.7924
        55.000          50.000
 107846027.85847  84035844.23547  20522432.9854   20522440.0744   20522432.3874
        56.000          51.000
 13  4 22  2  8 30.0000000  0  8G15G25G22G12G14G21G18G24
 117945781.94947  91905789.96447  22444346.8104   22444351.8324   22444346.0774
        52.000          46.000
 117714658.52847 109517861.49947  24303332.7184   24303345.4104   24303333.0854
        41.000          37.000
 129839131.67647  83381122.50247  22804642.3984   22804646.8584   22804643.0454
        49.000          44.000
 110614906.63047 103985608.06447  22952280.4914   22952287.6054   22952280.5164
        49.000          44.000
 114701813.65647 107170221.76747  23729984.1904   23729990.0964   23729984.4324
        44.000          39.000
 113213966.59447  88218670.14647  21543903.1034   21543908.2364   21543903.5154
        53.000          47.000
 109449278.63347  85285134.37947  20827517.3334   20827521.5664   20827517.9924
        55.000          50.000
 107884376.14947  84065726.00147  20529730.4914   20529737.5684   20529729.9024
        56.000          51.000
 13  4 22  2  9  0.0000000  0  8G15G25G22G12G14G21G18G24
 118003407.37547  91950692.87147  22455312.6774   22455317.2054   22455312.5134
        51.000          46.000
 117615209.28947 109440368.72347  24284408.0684   24284420.2004   24284407.8414
        42.000          37.000
 129752958.16647  83313974.37747  22788244.4274   22788248.6934   22788245.2294
        49.000          44.000
 110532481.37947 103921380.69747  22936595.4614   22936602.6324   22936595.1814
        49.000          44.000
 114644183.37747 107125315.08847  23719017.1714   23719023.6084   23719017.4194
        44.000          39.000
 113260450.02547  88254890.94347  21552748.7394   21552753.4914   21552748.9124
        52.000          47.000
 109397158.77247  85244521.50247  20817599.1714   20817603.5954   20817599.5984
        55.000          50.000
 107923191.19447  84095971.47747  20537116.9004   20537123.6964   20537116.2394
        56.000          51.000
 13  4 22  2  9 30.0000000  0  8G15G25G22G12G14G21G18G24
 118061094.46647  91995643.78647  22466289.3204   22466295.2214   22466288.8674
        50.000          46.000
 117515694.57547 109362824.97647  24265470.2664   24265483.8834   24265470.7324
        41.000          37.000
 129666890.50547  83246908.72747  22771866.2744   22771870.3684   22771866.4434
        49.000          44.000
 110450273.00747 103857322.31747  22920951.9184   22920958.6434   22920951.7544
        49.000          44.000
 114586643.20447 107080478.66647  23708067.3904   23708074.8704   23708066.8344
        45.000          39.000
 113307400.45647  88291475.62547  21561683.0554   21561687.7474   21561683.6084
        52.000          46.000
 109345337.10347  85204140.98447  20807737.7574   20807742.2054   20807738.1384
        55.000          50.000
 107962472.30547  84126580.12147  20544591.9724   20544598.8374   20544591.4414
        56.000          51.000
 13  4 22  2 10  0.0000000  0  8G15G25G22G12G14G21G18G24
 118118842.36547  92040642.08947  22477278.3404   22477284.2904   22477277.5014
        51.000          46.000
 117416116.71547 109285231.98147  24246521.1284   24246534.9144   24246521.3264
        41.000          37.000
 129580930.12247  83179926.68047  22755508.3684   22755512.3734   22755508.9914
        50.000          44.000
 110368284.57447 103793435.31647  22905350.0724   22905356.7884   22905349.8284
        50.000          45.000
 114529191.99047 107035711.53447  23697135.4534   23697142.2164   23697135.4074
        45.000          40.000
 113354814.94747  88328421.92247  21570705.7224   21570710.5324   21570706.0294
        52.000          46.000
 109293815.37847  85163994.18547  20797933.6514   20797937.9704   20797934.1054
        55.000          50.000
 108002217.52347  84157550.40647  20552155.2094   20552161.8244   20552154.6664
        56.000          51.000
 13  4 22  2 10 30.0000000  0  8G15G25G22G12G14G21G18G24
 118176649.50147  92085686.56747  22488279.4174   22488284.8154   22488279.1824
        51.000          46.000
 117316476.84647 109207590.68747  24227560.5124   24227573.2744   24227561.1504
        42.000          38.000
 129495077.54447  83113028.62047  22739171.5574   22739175.0564   22739172.3454
        49.000          45.000
 110286517.72347 103729720.97847  22889790.0564   22889797.1584   22889789.8334
        50.000          44.000
 114471827.82347 106991012.21747  23686219.2114   23686225.5714   23686219.3964
        45.000          39.000
 113402689.73447  88365726.88447  21579815.7694   21579820.7584   21579816.0944
        52.000          46.000
 109242594.14447  85124081.53447  20788186.7234   20788190.7404   20788186.9344
        55.000          50.000
 108042422.95147  84188879.29847  20559805.9614   20559812.7274   20559805.3964
        56.000          51.000
 13  4 22  2 11  0.0000000  0  8G15G25G22G12G14G21G18G24
 118234517.16947  92130778.21847  22499291.5384   22499296.5874   22499291.1884
        51.000          46.000
 117216779.01647 109129904.23647  24208588.7984   24208601.6124   24208588.5294
        42.000          38.000
 129409335.71747  83046216.86347  22722855.2714   22722859.3764   22722856.1874
        50.000          45.000
 110204977.25347 103666183.05547  22874273.2434   22874280.5664   22874272.9654
        49.000          44.000
 114414551.37047 106946381.26347  23675319.8024   23675326.2194   23675320.2574
        45.000          39.000
 113451024.13947  88403389.99847  21589013.5204   21589018.5424   21589013.5184
        52.000          46.000
 109191676.81147  85084405.68947  20778497.6804   20778501.5804   20778498.2474
        55.000          50.000
 108083087.61747  84220566.03447  20567544.2294   20567551.1414   20567543.8014
        55.000          51.000
 13  4 22  2 11 30.0000000  0  8G15G25G22G12G14G21G18G24
 118292443.53947  92175915.59447  22510313.8564   22510319.3854   22510313.0974
        51.000          46.000
 117117024.93947 109052173.93047  24189606.1374   24189618.9364   24189606.4054
        44.000          39.000
 129323705.76047  82979492.28047  22706560.2664   22706564.2344   22706561.3744
        50.000          45.000
 110123664.96047 103602822.91547  22858800.1254   22858807.1094   22858799.8444
        50.000          44.000
 114357360.57647 106901817.08647  23664436.3944   23664443.2814   23664436.7964
        45.000          39.000
 113499814.74147  88441408.58047  21598298.3924   21598303.4124   21598298.7544
        52.000          46.000
 109141064.56147  85044967.57547  20768866.1404   20768870.3414   20768866.5754
        55.000          50.000
 108124208.93947  84252608.60347  20575369.3514   20575376.2914   20575368.7984
        56.000          51.000
 13  4 22  2 12  0.0000000  0  8G15G25G22G12G14G21G18G24
 118350428.61047  92221098.70547  22521348.0144   22521353.9704   22521347.8254
        51.000          46.000
 117017217.48447 108974402.04347  24170613.5804   24170625.8964   24170614.1564
        44.000          40.000
 129238189.77047  82912856.49347  22690287.1654   22690290.9014   22690288.1924
        50.000          45.000
 110042584.19847 103539643.19747  22843370.6674   22843377.8474   22843370.3724
        50.000          44.000
 114300255.43847 106857319.62547  23653570.1424   23653576.3664   23653570.4884
        45.000          39.000
 113549059.33747  88479780.91447  21607669.4674   21607674.5174   21607670.0744
        52.000          46.000
 109090759.13247  85005768.54947  20759293.1044   20759297.3394   20759293.8264
        55.000          50.000
 108165784.34347  84285005.00647  20583281.0204   20583287.7204   20583280.5334
        56.000          51.000
 13  4 22  2 12 30.0000000  0  8G15G25G22G12G14G21G18G24
 118408473.86947  92266328.70947  22532393.7184   22532399.8724   22532393.4944
        50.000          46.000
 116917361.07747 108896592.02947  24151610.9624   24151623.4054   24151611.2774
        44.000          40.000
 129152790.96247  82846312.01147  22674036.3844   22674040.1074   22674037.2714
        51.000          45.000
 109961740.19447 103476647.95847  22827986.6734   22827993.0604   22827986.4264
        50.000          44.000
 114243237.00147 106812889.75447  23642719.7554   23642725.9174   23642720.3764
        45.000          39.000
 113598757.36647  88518506.58247  21617126.8564   21617131.7784   21617127.3664
        52.000          46.000
 109040764.80347  84966811.93647  20749779.4624   20749783.7804   20749779.8324
        55.000          50.000
 108207813.75847  84317755.18447  20591278.9864   20591285.6794   20591278.4294
        56.000          51.000
 13  4 22  2 13  0.0000000  0  8G15G25G22G12G14G21G18G24
 118466578.86647  92311605.26647  22543450.7504   22543456.8944   22543450.5534
        50.000          46.000
 116817458.17647 108818745.79647  24132600.0284   24132612.1454   24132599.7074
        44.000          39.000
 129067511.59947  82779860.59647  22657808.3034   22657811.8864   22657809.1314
        50.000          45.000
 109881135.88847 103413839.49347  22812648.1884   22812654.3264   22812648.0734
        50.000          45.000
 114186304.63947 106768526.92947  23631885.9674   23631892.0534   23631886.0124
        45.000          39.000
 113648906.15247  88557583.49247  21626669.6184   21626674.8094   21626669.9824
        52.000          46.000
 108991083.05047  84928098.87947  20740325.7134   20740329.6884   20740326.0654
        55.000          50.000
 108250294.55147  84350857.08847  20599362.8554   20599369.2624   20599362.3574
        56.000          51.000
 13  4 22  2 13 30.0000000  0  8G15G25G22G12G14G21G18G24
 118524743.22447  92356928.07147  22554519.3664   22554525.6264   22554518.7514
        50.000          46.000
 116717511.48147 108740865.35747  24113580.6444   24113592.1154   24113580.0364
        45.000          39.000
 128982353.07947  82713503.36247  22641603.1094   22641606.9374   22641604.0864
        51.000          45.000
 109800774.12947 103351220.03347  22797355.4214   22797362.0834   22797355.4354
        50.000          44.000
 114129457.26047 106724230.32047  23621067.6884   23621074.5804   23621067.9994
        44.000          40.000
 113699503.17347  88597009.66747  21636298.1094   21636303.0304   21636298.5764
        52.000          46.000
 108941715.87147  84889630.94347  20730931.4614   20730935.3904   20730931.6094
        55.000          50.000
 108293224.54347  84384309.01947  20607532.1004   20607538.7784   20607531.6534
        56.000          51.000
 13  4 22  2 14  0.0000000  0  8G15G25G22G12G14G21G18G24
 118582962.79347  92402293.89247  22565598.0404   22565604.5544   22565597.5884
        50.000          45.000
 116617519.96147 108662950.05747  24094552.5994   24094564.7924   24094552.8074
        45.000          40.000
 128897313.65747  82647238.92047  22625420.7414   22625424.0214   22625422.0324
        51.000          45.000
 109720654.65547 103288789.36147  22782109.2054   22782116.1574   22782108.9154
        50.000          45.000
 114072690.62747 106679996.65747  23610265.4724   23610272.6684   23610265.7064
        46.000          40.000
 113750542.33047  88636780.37147  21646010.8954   21646015.3844   21646011.5834
        52.000          46.000
 108892661.98247  84851407.12547  20721596.8564   20721600.8614   20721597.2694
        55.000          50.000
 108336597.73347  84418106.29047  20615785.5114   20615792.6194   20615784.9214
        56.000          51.000
 13  4 22  2 14 30.0000000  0  8G15G25G22G12G14G21G18G24
 118641245.65647  92447709.04647  22576689.1124   22576694.9674   22576688.5594
        51.000          45.000
 116517494.38147 108585008.21647  24075518.3964   24075530.5044   24075518.5224
        44.000          39.000
 128812403.28547  82581075.04247  22609262.5244   22609266.1434   22609263.4014
        50.000          45.000
 109640788.80647 103226556.30347  22766911.2874   22766918.2824   22766911.1584
        50.000          44.000
 114016012.33647 106635831.79747  23599480.1734   23599486.3154   23599481.5454
        45.000          39.000
 113802029.30147  88676900.01047  21655808.4534   21655813.3784   21655808.8264
        51.000          46.000
 108843930.86447  84813434.82347  20712323.5354   20712327.8144   20712324.0494
        55.000          50.000
 108380420.14747  84452253.60747  20624124.6124   20624131.9214   20624124.0784
        56.000          51.000
 13  4 22  2 15  0.0000000  0  8G15G25G22G12G14G21G18G24
 118699585.02247  92493168.22547  22587790.7814   22587796.1074   22587790.4464
        50.000          45.000
 116417431.12347 108507036.98147  24056476.7424   24056489.0894   24056476.4474
        44.000          39.000
 128727617.50147  82515008.24647  22593128.2584   22593132.1214   22593128.8624
        51.000          45.000
 109561173.14447 103164518.19947  22751760.9504   22751767.5894   22751760.6274
        50.000          44.000
 113959415.47547 106591730.40447  23588709.8554   23588716.0634   23588709.5334
        44.000          40.000
 113853955.17647  88717361.65747  21665689.3434   21665694.8134   21665689.5114
        51.000          46.000
 108795518.54447  84775710.93647  20703111.0234   20703115.2504   20703111.6254
        55.000          50.000
 108424682.99147  84486744.11347  20632547.6084   20632554.8624   20632546.9774
        56.000          51.000
 13  4 22  2 15 30.0000000  0  8G15G25G22G12G14G21G18G24
 118757983.09147  92538673.15147  22598903.8174   22598909.0014   22598903.3814
        51.000          45.000
 116317335.56947 108429040.55747  24037429.2084   24037441.5564   24037429.0874
        45.000          39.000
 128642960.72347  82449041.97147  22577018.6784   22577022.2534   22577019.4854
        51.000          45.000
 109481813.59047 103102679.64047  22736659.1134   22736665.7514   22736658.6464
        50.000          44.000
 113902901.57647 106547693.65447  23577955.4374   23577962.0274   23577955.4304
        45.000          40.000
 113906320.20347  88758165.50147  21675654.1524   21675659.2264   21675654.3214
        51.000          46.000
 108747429.68147  84738239.09047  20693959.9904   20693964.1004   20693960.6094
        55.000          50.000
 108469386.60947  84521578.07947  20641054.6204   20641061.6094   20641054.1344
        56.000          51.000
 13  4 22  2 16  0.0000000  0  8G15G25G22G12G14G21G18G24
 118816439.16647  92584223.26847  22610027.1474   22610033.5174   22610026.4544
        50.000          45.000
 116217209.56147 108351020.43247  24018375.3794   24018388.1224   24018375.3364
        43.000          39.000
 128558434.27047  82383177.24847  22560933.8344   22560937.4844   22560934.4094
        51.000          46.000
 109402712.40547 103041042.41847  22721606.9084   22721613.2494   22721606.5114
        50.000          45.000
 113846469.66647 106503720.77247  23567217.3294   23567223.5934   23567216.7284
        45.000          40.000
 113959120.99147  88799308.89247  21685701.7744   21685707.1404   21685702.0544
        51.000          46.000
 108699665.38447  84701020.15647  20684870.6994   20684874.6884   20684870.9984
        55.000          50.000
 108514527.71947  84556752.94947  20649644.8174   20649651.6604   20649644.4774
        56.000          51.000
 13  4 22  2 16 30.0000000  0  8G15G25G22G12G14G21G18G24
 118874955.85947  92629820.62647  22621162.9884   22621169.0814   22621162.3424
        51.000          45.000
 116117059.20447 108272981.33547  23999316.9554   23999329.6214   23999316.8494
        44.000          39.000
 128474042.93347  82317417.81947  22544874.3004   22544878.7014   22544875.0394
        51.000          46.000
 109323875.83647 102979611.40847  22706604.7404   22706611.2694   22706604.5874
        49.000          45.000
 113790122.25947 106459813.76247  23556494.4964   23556501.3384   23556494.5334
        45.000          40.000
 114012358.16647  88840792.31847  21695832.5324   21695838.1304   21695832.7344
        51.000          46.000
 108652230.71247  84664058.07347  20675844.1984   20675848.1474   20675844.4804
        55.000          50.000
 108560107.78447  84592269.86447  20658318.3294   20658325.2544   20658317.7174
        56.000          51.000
 13  4 22  2 17  0.0000000  0  8G15G25G22G12G14G21G18G24
 118933526.95047  92675460.38547  22632308.7274   22632314.4704   22632308.1564
        50.000          45.000
 116016881.10647 108194920.59247  23980254.3254   23980265.7114   23980253.8074
        44.000          39.000
 128389782.62847  82251760.47947  22528840.3384   22528844.2664   22528840.8754
        51.000          46.000
 109245301.07447 102918384.38347  22691652.1534   22691659.0674   22691652.0444
        50.000          45.000
 113733852.63947 106415967.37247  23545786.2224   23545793.6234   23545785.4664
        45.000          40.000
 114066022.76047  88882608.80947  21706044.7494   21706050.2644   21706044.7594
        51.000          46.000
 108605121.71047  84627349.76047  20666879.5544   20666883.6794   20666879.8874
        55.000          50.000
 108606117.99747  84628121.95047  20667073.7634   20667080.6674   20667073.1594
        56.000          51.000
 13  4 22  2 17 30.0000000  0  8G15G25G22G12G14G21G18G24
 118992158.91847  92721147.57147  22643465.5954   22643472.0304   22643465.0344
        50.000          45.000
 115916684.79647 108116845.68347  23961187.4034   23961199.3394   23961187.2634
        43.000          39.000
 128305662.36147  82186212.25647  22512832.7464   22512836.8944   22512833.4864
        51.000          46.000
 109166998.49647 102857369.44347  22676751.7754   22676757.8804   22676751.7174
        50.000          45.000
 113677666.98547 106372186.38147  23535094.4994   23535101.5444   23535094.2674
        46.000          40.000
 114120119.65247  88924762.15147  21716339.0984   21716344.5494   21716339.5034
        51.000          46.000
 108558347.28447  84590902.15947  20657978.7394   20657982.8494   20657979.1874
        55.000          50.000
 108652563.05647  84664312.88447  20675912.0054   20675918.9334   20675911.4004
        56.000          51.000
 13  4 22  2 18  0.0000000  0  8G15G25G22G12G14G21G18G24
 119050847.38847  92766878.77647  22654633.7164   22654640.1474   22654633.2674
        49.000          45.000
 115816468.90547 108038755.53247  23942116.2154   23942129.0914   23942116.6164
        44.000          39.000
 128221679.92347  82120771.43347  22496851.4114   22496855.6354   22496852.2524
        52.000          46.000
 109088966.55647 102796565.38147  22661902.7494   22661909.2464   22661902.4864
        50.000          45.000
 113621560.26947 106328466.92047  23524418.0174   23524423.5934   23524417.9604
        46.000          40.000
 114174642.02947  88967247.02647  21726714.3724   21726719.6874   21726714.9274
        51.000          45.000
 108511905.05147  84554713.40647  20649141.1854   20649145.2574   20649141.5484
        55.000          50.000
 108699436.37747  84700837.52847  20684831.6614   20684838.6834   20684831.0724
        56.000          51.000
 13  4 22  2 18 30.0000000  0  8G15G25G22G12G14G21G18G24
 119109593.72947  92812655.07147  22665812.9394   22665819.5854   22665812.5674
        51.000          45.000
 115716237.53547 107960653.32947  23923042.9704   23923055.7394   23923043.0484
        44.000          39.000
 128137838.31547  82055440.35347  22480896.8194   22480901.1624   22480897.4504
        51.000          46.000
 109011209.83047 102735975.79147  22647106.1384   22647112.6184   22647105.7314
        50.000          45.000
 113565533.59147 106284809.78647  23513756.7994   23513762.3894   23513756.8594
        45.000          40.000
 114229588.42047  89010062.30847  21737170.4444   21737175.5184   21737170.7534
        51.000          45.000
 108465798.61347  84518786.31247  20640367.3914   20640371.4864   20640367.9494
        56.000          50.000
 108746737.01447  84737695.14747  20693832.8744   20693839.8264   20693832.3594
        56.000          51.000
 13  4 22  2 19  0.0000000  0  8G15G25G22G12G14G21G18G24
 119168399.97147  92858478.03447  22677003.6504   22677009.9324   22677003.1764
        50.000          45.000
 115615996.05347 107882543.24047  23903967.7214   23903979.9194   23903967.6034
        44.000          39.000
 128054141.96947  81990222.46047  22464969.9444   22464973.9504   22464970.3594
        52.000          46.000
 108933734.15647 102675605.17847  22632362.7634   22632369.2864   22632362.2474
        50.000          44.000
 113509588.54747 106241216.29947  23503110.1434   23503116.3624   23503110.5534
        46.000          40.000
 114284958.81947  89053207.99347  21747707.0384   21747712.4204   21747707.2384
        51.000          45.000
 108420032.41247  84483124.34447  20631658.3134   20631662.3604   20631658.8604
        56.000          50.000
 108794465.25347  84774885.96447  20702915.3354   20702922.2264   20702914.9794
        56.000          51.000
 13  4 22  2 19 30.0000000  0  8G15G25G22G12G14G21G18G24
 119227260.16947  92904343.06447  22688204.8084   22688210.4534   22688204.4574
        50.000          45.000
 115515741.51347 107804422.97047  23884890.0194   23884902.0644   23884889.9914
        45.000          39.000
 127970587.40347  81925115.03447  22449069.9924   22449073.9064   22449070.8874
        52.000          46.000
 108856536.90847 102615451.53047  22617672.4054   22617678.9164   22617672.1894
        50.000          44.000
 113453718.86947 106197681.53347  23492479.0334   23492484.8434   23492479.3664
        47.000          40.000
 114340745.01747  89096677.68047  21758323.0014   21758328.4254   21758323.4244
        51.000          45.000
 108374602.46047  84447724.38047  20623013.4384   20623017.2954   20623013.8904
        55.000          50.000
 108842613.05847  84812403.71847  20712077.3464   20712084.3564   20712076.6694
        56.000          51.000
 13  4 22  2 20  0.0000000  0  8G15G25G22G12G14G21G18G24
 119286181.23747  92950255.53047  22699417.4434   22699422.6604   22699417.3604
        51.000          45.000
 115415483.88147 107726300.28047  23865811.5394   23865823.0804   23865811.2284
        44.000          39.000
 127887183.63547  81860125.12547  22433198.8674   22433202.6894   22433199.7104
        52.000          47.000
 108779628.40647 102555522.87247  22603037.4674   22603044.1784   22603037.1834
        50.000          45.000
 113397931.09147 106154210.56647  23481863.1204   23481868.6354   23481863.7364
        46.000          40.000
 114396951.51647  89140474.85647  21769019.0124   21769024.5254   21769019.4414
        51.000          45.000
 108329518.22847  84412593.80447  20614434.1094   20614438.2434   20614434.5494
        55.000          50.000
 108891185.15747  84850252.08547  20721320.4754   20721327.3834   20721320.1114
        56.000          51.000
 13  4 22  2 20 30.0000000  0  8G15G25G22G12G14G21G18G24
 119345157.72647  92996211.17947  22710640.3354   22710645.0084   22710640.4214
        51.000          45.000
 115315220.51347 107648173.13147  23846731.4054   23846743.3454   23846731.4944
        45.000          39.000
 127803927.35647  81795250.13447  22417355.7994   22417359.5684   22417356.6364
        52.000          47.000
 108703006.16547 102495817.27847  22588456.6564   22588463.7594   22588456.3044
        50.000          45.000
 113342219.03547 106110798.62347  23471260.9984   23471266.4624   23471261.6664
        46.000          40.000
 114453570.39447  89184593.37947  21779793.3604   21779798.6814   21779793.8164
        51.000          45.000
 108284776.04647  84377729.75847  20605919.9644   20605924.0704   20605920.4374
        55.000          50.000
 108940173.77947  84888425.02247  20730642.8584   20730649.5094   20730642.4674
        56.000          51.000
 13  4 22  2 21  0.0000000  0  8G15G25G22G12G14G21G18G24
 119404191.94747  93042211.81147  22721873.7844   22721878.7994   22721873.4804
        50.000          44.000
 115214956.90347 107570045.78247  23827651.8124   23827663.9114   23827652.0764
        44.000          40.000
 127720822.79247  81730493.36747  22401541.1394   22401544.9804   22401541.8404
        52.000          47.000
 108626676.27247 102436339.50547  22573931.3744   22573938.4524   22573931.0304
        51.000          45.000
 113286585.27547 106067447.68347  23460674.0474   23460680.0914   23460674.6614
        46.000          40.000
 114510601.55647  89229033.14847  21790645.7904   21790651.4804   21790646.1094
        50.000          45.000
 108240380.93047  84343136.15547  20597471.6784   20597476.0554   20597472.0894
        55.000          50.000
 108989579.22547  84926922.74947  20740044.2934   20740051.3714   20740043.8424
        56.000          51.000
 13  4 22  2 21 30.0000000  0  8G15G25G22G12G14G21G18G24
 119463284.74147  93088258.08547  22733118.7204   22733123.8994   22733118.0364
        49.000          45.000
 115114696.87447 107491921.23447  23808572.8844   23808585.2014   23808572.6454
        45.000          40.000
 127637873.34047  81665857.46947  22385756.2954   22385760.3664   22385756.7284
        52.000          47.000
 108550642.54347 102377092.50347  22559462.8464   22559469.4944   22559462.4744
        50.000          45.000
 113231029.85247 106024157.77147  23450102.6144   23450108.4144   23450103.2364
        46.000          40.000
 114568043.20847  89273792.78447  21801576.4994   21801582.3424   21801576.4824
        50.000          45.000
 108196335.48747  84308815.01947  20589090.0494   20589094.5514   20589090.4434
        55.000          50.000
 109039400.07247  84965744.17347  20749524.9534   20749531.9084   20749524.5744
        56.000          51.000
 13  4 22  2 22  0.0000000  0  8G15G25G22G12G14G21G18G24
 119522433.30747  93134347.79047  22744374.3484   22744380.2734   22744373.7794
        50.000          45.000
 115014440.69847 107413799.68747  23789494.6304   23789507.0634   23789494.8174
        45.000          40.000
 127555078.22847  81601341.83747  22370001.2834   22370004.9614   22370001.8544
        52.000          47.000
 108474905.69547 102318076.82747  22545050.5334   22545056.8094   22545050.2134
        51.000          45.000
 113175549.57647 105980926.44147  23439544.2914   23439550.5594   23439544.2274
        46.000          40.000
 114625890.06847  89318868.16247  21812584.4194   21812590.0504   21812584.7074
        50.000          45.000
 108152639.13847  84274765.90447  20580774.9764   20580779.3924   20580775.5414
        55.000          50.000
 109089631.30547  85004885.37247  20759083.5824   20759090.5324   20759083.0344
        56.000          51.000
 13  4 22  2 22 30.0000000  0  8G15G25G22G12G14G21G18G24
 119581639.75547  93180482.60647  22755641.2834   22755647.3884   22755640.9694
        50.000          45.000
 114914193.49947 107335685.15147  23770418.5794   23770431.0294   23770418.9974
        45.000          40.000
 127472441.82047  81536949.86647  22354275.7024   22354279.4864   22354276.1884
        52.000          47.000
 108399471.31547 102259296.84147  22530695.6674   22530702.1794   22530695.2674
        51.000          45.000
 113120146.25347 105937755.03847  23429001.5214   23429007.8554   23429001.9234
        46.000          40.000
 114684141.84947  89364259.06447  21823669.3744   21823675.2574   21823669.6894
        50.000          45.000
 108109296.11047  84240992.10847  20572527.1274   20572531.6504   20572527.8194
        55.000          50.000
 109140273.22847  85044346.58547  20768720.2954   20768727.3464   20768719.7654
        56.000          51.000
 13  4 22  2 23  0.0000000  0  8G15G25G22G12G14G21G18G24
 119640904.92547  93226663.17647  22766919.1724   22766925.5504   22766918.4504
        50.000          45.000
 114813959.17647 107257580.62447  23751344.3694   23751356.1584   23751344.3234
        45.000          40.000
 127389967.18847  81472683.96347  22338581.2084   22338585.1744   22338581.7774
        52.000          47.000
 108324343.49947 102200755.73647  22516399.3844   22516405.7344   22516399.0664
        50.000          45.000
 113064820.00447 105894643.71447  23418473.3574   23418479.8524   23418473.0654
        46.000          41.000
 114742797.03747  89409964.30247  21834831.6294   21834837.3034   21834831.6294
        50.000          45.000
 108066309.43247  84207495.98747  20564347.2264   20564351.6224   20564347.6264
        55.000          50.000
 109191323.85647  85084126.26947  20778434.9844   20778441.8264   20778434.4524
        56.000          51.000
 13  4 22  2 23 30.0000000  0  8G15G25G22G12G14G21G18G24
 119700227.44647  93272888.43647  22778207.5794   22778213.6364   22778207.3884
        50.000          44.000
 114713739.21047 107179487.33047  23732272.9924   23732285.2224   23732273.5764
        45.000          41.000
 127307654.93647  81408544.58147  22322917.5184   22322921.5054   22322918.1394
        52.000          47.000
 108249523.79947 102142454.71947  22502161.5084   22502167.7914   22502161.2464
        50.000          45.000
 113009569.07947 105851591.09447  23407959.6214   23407966.9564   23407959.4864
        46.000          41.000
 114801851.49747  89455980.66447  21846069.3924   21846075.5824   21846069.8224
        50.000          45.000
 108023680.32947  84174278.50047  20556235.0944   20556239.4714   20556235.5084
        55.000          50.000
 109242779.84947  85124221.82347  20788227.1294   20788233.8664   20788226.5474
        56.000          51.000
 13  4 22  2 24  0.0000000  0  8G15G25G22G12G14G21G18G24
 119759604.08047  93319155.87347  22789507.0454   22789512.2924   22789506.7354
        50.000          45.000
 114613533.46547 107101405.08147  23713204.4504   23713216.1464   23713204.6624
        46.000          41.000
 127225504.22647  81344531.08047  22307284.9544   22307288.8674   22307285.7874
        52.000          47.000
 108175012.22347 102084393.81047  22487982.3644   22487988.7214   22487982.2564
        50.000          45.000
 112954390.05047 105808594.48447  23397458.8914   23397465.9954   23397458.6364
        46.000          40.000
 114861299.52047  89502303.70647  21857382.1684   21857387.9464   21857382.6284
        50.000          45.000
 107981407.10747  84141338.31747  20548190.7504   20548195.0554   20548191.0864
        55.000          50.000
 109294635.65547  85164628.91947  20798094.9284   20798101.5814   20798094.4334
        56.000          51.000
 13  4 22  2 24 30.0000000  0  8G15G25G22G12G14G21G18G24
 119819042.14047  93365471.17847  22800817.3804   22800823.4034   22800816.8904
        50.000          45.000
 114513352.46747 107023342.11147  23694140.2574   23694152.2944   23694140.2004
        45.000          41.000
 127143524.43047  81280650.76447  22291684.4674   22291688.2524   22291685.1674
        52.000          47.000
 108100819.76147 102026581.55747  22473863.8524   22473870.1824   22473863.7314
        50.000          45.000
 112899289.49447 105765659.02247  23386973.9724   23386979.8534   23386974.2834
        47.000          40.000
 114921145.86747  89548937.12847  21868770.4684   21868776.0404   21868770.8144
        50.000          45.000
 107939500.20947  84108683.58347  20540216.1544   20540220.4604   20540216.6774
        55.000          50.000
 109346896.51047  85205351.64247  20808039.6954   20808046.4834   20808039.1934
        56.000          51.000
 13  4 22  2 25  0.0000000  0  8G15G25G22G12G14G21G18G24
 119878535.66647  93411829.69147  22812138.8154   22812145.3434   22812138.6364
        50.000          45.000
 114413193.03347 106945295.95747  23675080.4584   23675092.5264   23675080.5764
        46.000          41.000
 127061711.68047  81216900.61447  22276115.7494   22276120.2334   22276116.3194
        52.000          47.000
 108026943.43247 101969015.63847  22459805.9104   22459811.9834   22459805.5754
        50.000          45.000
 112844261.27747 105722779.93747  23376502.7284   23376507.6354   23376503.4254
        46.000          40.000
 114981381.79747  89595874.12447  21880232.7584   21880238.4814   21880233.0464
        50.000          45.000
 107897954.80447  84076310.53647  20532310.2514   20532314.6704   20532310.7584
        55.000          50.000
 109399554.24447  85246383.61447  20818059.9184   20818067.0034   20818059.4194
        56.000          51.000
 13  4 22  2 25 30.0000000  0  8G15G25G22G12G14G21G18G24
 119938086.45647  93458232.80047  22823470.6954   22823477.4154   22823470.7304
        49.000          44.000
 114313060.10047 106867270.42647  23656026.0184   23656037.8954   23656026.2484
        46.000          41.000
 126980070.17947  81153283.89647  22260580.3824   22260584.3064   22260581.2334
        53.000          47.000
 107953388.40347 101911700.08647  22445809.0344   22445814.9474   22445808.7424
        51.000          45.000
 112789306.62447 105679958.16647  23366044.3754   23366050.4584   23366044.5174
        47.000          40.000
 115042006.79447  89643114.29347  21891769.6624   21891775.1354   21891769.9444
        50.000          45.000
 107856774.45047  84044221.94047  20524473.7094   20524478.2104   20524473.9784
        55.000          50.000
 109452608.46847  85287724.53247  20828155.7354   20828162.8654   20828155.2394
        56.000          51.000
 13  4 22  2 26  0.0000000  0  8G15G25G22G12G14G21G18G24
 119997693.33547  93504679.64447  22834813.7784   22834820.1354   22834812.9174
        49.000          44.000
 114212955.57047 106789267.03547  23636976.3384   23636988.5544   23636976.6544
        45.000          41.000
 126898600.99047  81089801.44747  22245077.5034   22245081.3164   22245078.2194
        53.000          47.000
 107880156.66047 101854636.44147  22431873.1904   22431879.7804   22431872.9824
        51.000          45.000
 112734424.21747 105637192.68447  23355601.2774   23355606.7704   23355601.5664
        47.000          40.000
 115103017.22647  89690654.78947  21903379.6664   21903384.8804   21903380.0394
        50.000          44.000
 107815960.40147  84012418.78047  20516707.2034   20516711.4814   20516707.6634
        55.000          50.000
 109506055.35947  85329371.43747  20838326.5404   20838333.4864   20838326.0994
        56.000          51.000
 13  4 22  2 26 30.0000000  0  8G15G25G22G12G14G21G18G24
 120057358.37547  93551171.78947  22846167.5854   22846173.9484   22846166.7474
        49.000          44.000
 114112884.47947 106711289.67347  23617933.2034   23617945.4394   23617933.1874
        45.000          41.000
 126817308.14947  81026456.39947  22229607.8854   22229611.5974   22229608.8044
        53.000          47.000
 107807253.79447 101797829.07547  22417999.7524   22418006.4774   22417999.4544
        50.000          45.000
 112679615.24147 105594484.42347  23345171.5754   23345177.4774   23345171.6564
        47.000          41.000
 115164411.82947  89738494.63247  21915062.7764   21915068.4444   21915063.2854
        49.000          44.000
 107775517.03647  83980904.47047  20509011.0754   20509015.3124   20509011.3314
        55.000          50.000
 109559894.63947  85371324.09147  20848571.8544   20848578.8684   20848571.4034
        56.000          51.000
 13  4 22  2 27  0.0000000  0  8G15G25G22G12G14G21G18G24
 120117078.94347  93597707.21747  22857532.5984   22857538.5964   22857532.0924
        50.000          44.000
 114012847.28847 106633338.73947  23598896.6384   23598908.9494   23598896.2224
        45.000          41.000
 126736191.19447  80963248.41047  22214171.9344   22214175.4094   22214172.5694
        53.000          47.000
 107734679.62647 101741277.82647  22404189.6194   22404195.7524   22404189.3634
        51.000          45.000
 112624876.59047 105551830.97247  23334755.1374   23334761.3614   23334755.4634
        47.000          41.000
 115226185.57347  89786629.90947  21926817.4454   21926823.7664   21926818.0354
        49.000          44.000
 107735443.77647  83949678.54447  20501385.4474   20501389.7774   20501385.7114
        55.000          50.000
 109614121.99947  85413579.14847  20858891.0944   20858898.1414   20858890.7554
        56.000          51.000
 13  4 22  2 27 30.0000000  0  8G15G25G22G12G14G21G18G24
 120176857.28947  93644287.65747  22868907.9844   22868914.6324   22868907.7474
        49.000          45.000
 113912849.22447 106555418.30347  23579867.7544   23579879.9614   23579867.2994
        45.000          40.000
 126655254.74347  80900181.06847  22198770.1614   22198773.8104   22198770.9964
        53.000          47.000
 107662440.06847 101684987.30447  22390442.9644   22390449.3004   22390442.4574
        51.000          45.000
 112570210.24247 105509233.86047  23324352.1714   23324358.3694   23324352.3754
        46.000          41.000
 115288338.32647  89835060.52547  21938645.1664   21938651.3394   21938645.6884
        50.000          44.000
 107695745.08647  83918744.48947  20493831.0414   20493835.3644   20493831.4994
        55.000          50.000
 109668737.09847  85456136.33847  20869283.7624   20869291.1114   20869283.2544
        56.000          51.000
 13  4 22  2 28  0.0000000  0  8G15G25G22G12G14G21G18G24
 120236691.50747  93690911.62847  22880294.0134   22880300.9394   22880293.1854
        49.000          44.000
 113812891.46547 106477529.27547  23560846.2334   23560858.4304   23560846.3264
        46.000          41.000
 126574499.31547  80837254.78747  22183402.7804   22183406.4004   22183403.3714
        53.000          47.000
 107590536.78747 101628958.83347  22376760.0534   22376766.7274   22376759.7874
        50.000          45.000
 112515613.92647 105466691.33547  23313962.6744   23313968.9664   23313963.0384
        47.000          41.000
 115350865.19747  89883782.66647  21950544.1564   21950549.9644   21950544.6754
        50.000          44.000
 107656420.86347  83888102.22247  20486348.0094   20486352.1644   20486348.4734
        55.000          50.000
 109723735.55747  85498992.24547  20879749.3384   20879757.0754   20879748.6584
        56.000          51.000
 13  4 22  2 28 30.0000000  0  8G15G25G22G12G14G21G18G24
 120296585.51747  93737582.19647  22891691.1444   22891697.8924   22891690.3184
        49.000          44.000
 113712980.83847 106399676.96347  23541834.1754   23541846.0904   23541834.5904
        46.000          41.000
 126493930.27847  80774473.74147  22168071.2234   22168074.4524   22168072.1364
        53.000          47.000
 107518975.98947 101573197.24447  22363142.1004   22363148.8774   22363141.9494
        50.000          45.000
 112461090.85547 105424205.86247  23303587.6074   23303593.7064   23303588.2594
        48.000          41.000
 115413767.58847  89932797.41347  21962514.3634   21962519.9184   21962515.0584
        50.000          44.000
 107617476.91247  83857756.27747  20478937.2004   20478941.3734   20478937.8204
        55.000          50.000
 109779118.70247  85542147.91947  20890288.4394   20890295.9234   20890287.7774
        56.000          51.000
 13  4 22  2 29  0.0000000  0  8G15G25G22G12G14G21G18G24
 120356536.39947  93784297.08347  22903099.6424   22903105.8654   22903099.5064
        49.000          44.000
 113613117.59047 106321861.57847  23522830.5054   23522842.2594   23522830.6964
        45.000          41.000
 126413547.30847  80711837.69647  22152774.7794   22152777.9884   22152775.5694
        53.000          47.000
 107447758.47147 101517703.13147  22349590.0694   22349596.3924   22349590.0464
        51.000          45.000
 112406637.70747 105381774.87647  23293225.9094   23293231.3924   23293226.3724
        47.000          41.000
 115477039.51347  89982100.10547  21974554.3854   21974560.1444   21974554.7684
        49.000          44.000
 107578912.51247  83827706.07847  20471598.6894   20471602.8234   20471599.1164
        55.000          50.000
 109834881.44647  85585599.37647  20900899.9844   20900907.4134   20900899.4064
        56.000          51.000
 13  4 22  2 29 30.0000000  0  8G15G25G22G12G14G21G18G24
 120416545.06647  93831057.00447  22914519.2634   22914525.0274   22914519.5014
        49.000          44.000
 113513305.74147 106244086.23547  23503836.8554   23503848.5634   23503836.6184
        46.000          42.000
 126333353.70547  80649349.20647  22137514.4424   22137517.5544   22137515.4184
        53.000          47.000
 107376888.46647 101462479.81147  22336104.2724   22336110.2844   22336104.0154
        51.000          45.000
 112352254.75247 105339398.59847  23282876.3104   23282882.8884   23282876.7774
        47.000          41.000
 115540679.47347  90031689.58147  21986664.2704   21986670.4914   21986664.5274
        49.000          44.000
 107540730.75447  83797954.04347  20464332.9964   20464336.9244   20464333.5604
        55.000          50.000
 109891022.57847  85629345.68947  20911583.3094   20911590.5424   20911582.7994
        56.000          51.000
 13  4 22  2 30  0.0000000  0  8G15G25G22G12G14G21G18G24
 120476610.62347  93877861.24847  22925949.2104   22925954.9664   22925949.0394
        49.000          44.000
 113413547.34947 106166352.54047  23484853.5224   23484865.1044   23484853.3114
        46.000          42.000
 126253350.97447  80587009.45047  22122290.3054   22122293.4044   22122291.1224
        53.000          47.000
 107306367.77247 101407528.67647  22322684.5894   22322690.8454   22322684.5044
        51.000          46.000
 112297940.89147 105297076.14047  23272540.9634   23272546.5844   23272541.3424
        47.000          41.000
 115604683.87147  90081563.02947  21998843.5744   21998850.4394   21998843.6504
        49.000          44.000
 107502932.65347  83768500.96047  20457140.1404   20457144.3594   20457140.6964
        55.000          50.000
 109947538.49947  85673384.03147  20922337.8984   20922345.2214   20922337.4514
        56.000          51.000
 13  4 22  2 30 30.0000000  0  8G15G25G22G12G14G21G18G24
 120536732.83347  93924709.62547  22937389.7614   22937396.0604   22937389.0694
        49.000          44.000
 113313845.02847 106088662.52847  23465880.6024   23465892.5414   23465880.6874
        46.000          42.000
 126173540.34347  80524819.38147  22107102.6224   22107106.3764   22107103.5094
        53.000          47.000
 107236199.30147 101352852.00947  22309331.8754   22309338.0694   22309331.7324
        50.000          45.000
 112243695.34747 105254806.91947  23262218.1364   23262223.9844   23262218.4074
        47.000          41.000
 115669049.25547  90131717.75247  22011092.2644   22011098.9184   22011092.5234
        49.000          44.000
 107465519.57447  83739347.90047  20450020.6314   20450024.9394   20450020.9944
        54.000          50.000
 110004426.92747  85717712.64547  20933163.6504   20933170.7294   20933163.1644
        56.000          51.000
 13  4 22  2 31  0.0000000  0  8G15G25G22G12G14G21G18G24
 120596913.27147  93971603.38347  22948842.4424   22948848.4654   22948842.3674
        50.000          44.000
 113214203.70947 106011020.07047  23446919.3334   23446931.4094   23446919.0864
        46.000          42.000
 126093926.03147  80462782.28947  22091952.1824   22091956.3254   22091953.0454
        53.000          47.000
 107166387.75847 101298453.48047  22296046.8814   22296053.4764   22296046.9964
        51.000          45.000
 112189519.53047 105212592.05747  23251908.7124   23251915.2634   23251908.9484
        47.000          41.000
 115733774.87347  90182153.18047  22023409.5694   22023415.7104   22023410.0804
        49.000          44.000
 107428495.46647  83710497.92947  20442975.3234   20442979.5334   20442975.8574
        54.000          50.000
 110061686.83947  85762330.73347  20944060.2484   20944066.7134   20944059.7814
        56.000          51.000
