     2.10           OBSERVATION DATA    G (GPS)             RINEX VERSION / TYPE
teqc  2002Mar14                         20130423 00:05:03UTCPGM / RUN BY / DATE
MSWin2000|IAx86-PII|bcc32 5.0|MSWin95/98/NT/2000|486/DX+    COMMENT
BIT 2 OF LLI FLAGS DATA COLLECTED UNDER A/S CONDITION       COMMENT
TWTF                                                        MARKER NAME
23603S002                                                   MARKER NUMBER
HMPENG              CHTTL                                   OBSERVER / AGENCY
RT920012202         ASHTECH Z-XII3T     1L01      1D04      REC # / TYPE / VERS
CR620012101         ASH701945C_M    SCIS                    ANT # / TYPE
 -2994437.2459  4951322.1782  2674503.2612                  APPROX POSITION XYZ
        0.0000        0.0000        0.0000                  ANTENNA: DELTA H/E/N
     1     1                                                WAVELENGTH FACT L1/2
     9    L1    L2    C1    P1    P2    D1    D2    S1    S2# / TYPES OF OBSERV
 SNR is mapped to RINEX snr flag value [1-9]                COMMENT
  L1: 1 -> 1;  90 -> 5; 210 -> 9                            COMMENT
  L2: 1 -> 1; 150 -> 5; 250 -> 9                            COMMENT
  2013     4    22     0     0    0.0000000     GPS         TIME OF FIRST OBS
                                                            END OF HEADER
 13  4 22  0  0  0.0000000  0  9G 5G26G29G24G 2G15G18G 9G21
 -12185277.92049  -9451631.67546  22744862.5894   22744862.8854   22744868.1574
     -1406.7124      -1096.1344        228.0004        184.0004
 -16871844.47049 -12537717.06146  21873861.6904   21873862.0734   21873866.2474
     -2919.2114      -2274.7044        232.0004        182.0004
  -6066797.47549  -4708528.44346  23108902.0624   23108902.1794   23108907.6434
     -2039.8414      -1589.4754        222.0004        170.0004
 -14885655.90449 -11588321.78147  21485663.0574   21485664.2074   21485670.3114
      2653.0434       2067.3034        234.0004        197.0004
  -1451905.51349  -1121946.33045  24018341.0144   24018342.8164   24018343.5314
     -3708.3724      -2889.6354        212.0004        149.0004
 -13282359.57649 -10335474.01047  20609987.4994   20609987.3484   20609990.7444
      -844.1644       -657.7924        244.0004        211.0004
  -1885970.50649  -1460679.82845  24559970.4824   24559968.9464   24559975.3244
      2167.4344       1688.9134        207.0004        142.0004
 -20051281.05749 -15612293.47847  21492953.7644   21492953.3434   21492957.6074
     -1393.4174      -1085.7754        238.0004        192.0004
 -11689662.94949  -9084261.65846  22958565.5544   22958565.4254   22958570.2434
      2956.9174       2304.0884        223.0004        169.0004
 13  4 22  0  0 30.0000000  0  9G 5G26G29G24G 2G15G18G 9G21
 -12142999.58749  -9418687.54646  22752907.8654   22752908.4044   22752913.4414
     -1411.8184      -1100.1054        228.0004        185.0004
 -16784199.00449 -12469421.96846  21890540.1154   21890539.4204   21890544.6834
     -2923.8414      -2278.3084        233.0004        181.0004
  -6005502.85249  -4660766.42846  23120566.6384   23120566.3174   23120570.6884
     -2046.4234      -1594.6124        223.0004        170.0004
 -14965062.99749 -11650197.40147  21470552.5924   21470553.6174   21470559.5194
      2640.7474       2057.7274        235.0004        198.0004
  -1340589.49449  -1035206.78945  24039520.1124   24039524.5694   24039528.8864
     -3712.7064      -2892.9924        212.0004        145.0004
 -13256894.25349 -10315630.91047  20614833.7074   20614833.6304   20614836.4774
      -853.4754       -665.0414        245.0004        212.0004
  -1951041.28049  -1511384.29045  24547586.9744   24547587.0534   24547592.3514
      2170.6724       1691.4314        207.0004        141.0004
 -20009177.58149 -15579485.60347  21500965.4224   21500965.4804   21500969.2904
     -1413.4784      -1101.4084        238.0004        192.0004
 -11778253.91449  -9153293.53146  22941707.4984   22941707.6414   22941711.4284
      2949.0844       2297.9634        223.0004        168.0004
 13  4 22  0  1  0.0000000  0  9G 5G26G29G24G 2G15G18G 9G21
 -12100566.52049  -9385622.85346  22760982.0534   22760982.9994   22760988.0454
     -1417.0284      -1104.1774        228.0004        184.0004
 -16696416.08849 -12401019.75746  21907245.1434   21907244.9894   21907249.4034
     -2928.3764      -2281.8324        233.0004        182.0004
  -5944012.35349  -4612851.78046  23132267.4734   23132268.2704   23132272.5044
     -2052.9224      -1599.6764        221.0004        169.0004
 -15044100.47049 -11711785.01247  21455512.1014   21455513.1054   21455519.0324
      2628.3824       2048.0944        235.0004        199.0004
  -1229142.98749   -948365.50845  24060729.2934   24060729.6404   24060739.5134
     -3716.9684      -2896.3334        206.0004        149.0004
 -13231151.61249 -10295571.71147  20619731.8114   20619731.9724   20619735.3084
      -862.6764       -672.2174        244.0004        212.0004
  -2016209.02249  -1562164.32745  24535185.9354   24535184.9854   24535190.0234
      2173.8394       1693.8984        205.0004        140.0004
 -19966473.27749 -15546209.54447  21509092.5084   21509092.1424   21509095.3654
     -1433.4674      -1116.9954        239.0004        192.0004
 -11866606.17549  -9222139.40946  22924894.6284   22924893.7794   22924898.0144
      2941.0324       2291.7094        223.0004        167.0004
 13  4 22  0  1 30.0000000  0  9G 5G26G29G24G 2G15G18G 9G21
 -12057977.53549  -9352436.66346  22769086.4864   22769087.4364   22769092.7204
     -1422.2454      -1108.2334        227.0004        184.0004
 -16608498.18549 -12332512.35646  21923974.9364   21923974.4974   21923979.9914
     -2932.8654      -2285.3474        232.0004        180.0004
  -5882329.33049  -4564787.12046  23144005.6564   23144005.2804   23144010.7124
     -2059.3264      -1604.6764        221.0004        169.0004
 -15122765.26849 -11773082.22847  21440543.2154   21440543.9134   21440549.7104
      2615.9294       2038.3904        237.0004        199.0004
  -1117568.42849   -861424.46845  24081966.3134   24081961.7854   24081967.1044
     -3721.2934      -2899.7054        199.0004        146.0004
 -13205133.19249 -10275297.62247  20624683.1634   20624683.2474   20624686.4604
      -871.8584       -679.3704        244.0004        212.0004
  -2081473.50849  -1613019.75845  24522764.8264   24522764.5794   24522771.8464
      2177.1144       1696.4514        204.0004        139.0004
 -19923169.69049 -15512466.51547  21517332.3514   21517332.0354   21517336.4594
     -1453.4434      -1132.5484        238.0004        192.0004
 -11954717.24749  -9290797.35146  22908127.1974   22908127.2874   22908131.3074
      2933.0034       2285.4524        222.0004        168.0004
 13  4 22  0  2  0.0000000  0  9G 5G26G29G24G 2G15G18G 9G21
 -12015231.83449  -9319128.36146  22777220.8374   22777222.0894   22777226.9474
     -1427.4964      -1112.3294        228.0004        184.0004
 -16520447.64349 -12263901.61046  21940730.4424   21940729.6984   21940735.3684
     -2937.2584      -2288.7714        230.0004        179.0004
  -5820456.74449  -4516574.74146  23155779.5464   23155778.6254   23155785.1944
     -2065.6194      -1609.5744        220.0004        167.0004
 -15201054.96149 -11834087.15247  21425645.7144   21425645.8754   21425651.8544
      2603.3734       2028.6014        237.0004        200.0004
  -1005868.24849   -774385.62245  24103225.3624   24103220.3054   24103222.7354
     -3725.4294      -2902.9294        212.0004        146.0004
 -13178840.74049 -10254810.00447  20629686.3684   20629686.5744   20629689.5034
      -880.9494       -686.4524        245.0004        212.0004
  -2146834.90249  -1663950.67845  24510326.7654   24510326.9194   24510333.3174
      2180.2994       1698.9364        203.0004        139.0004
 -19879268.13349 -15478257.53347  21525686.1624   21525686.6314   21525690.6544
     -1473.3344      -1148.0604        237.0004        192.0004
 -12042584.94849  -9359265.64846  22891407.0934   22891407.0784   22891410.6714
      2924.8554       2279.1174        223.0004        166.0004
 13  4 22  0  2 30.0000000  0  9G 5G26G29G24G 2G15G18G 9G21
 -11972328.71349  -9285697.40246  22785385.3354   22785385.4744   22785390.9544
     -1432.7504      -1116.4244        227.0004        183.0004
 -16432266.93949 -12195189.44346  21957509.8244   21957510.0604   21957515.9294
     -2941.5184      -2292.0864        228.0004        179.0004
  -5758397.55449  -4468216.96046  23167589.8244   23167588.6834   23167594.5594
     -2071.6584      -1614.2764        220.0004        167.0004
 -15278966.75749 -11894797.61247  21410819.1714   21410819.2324   21410825.5454
      2590.7224       2018.7364        238.0004        200.0004
   -894045.00749   -687250.88745  24124501.7374   24124501.9534   24124505.7494
     -3729.4674      -2906.0704        217.0004        148.0004
 -13152276.27649 -10234110.42647  20634741.4184   20634741.4114   20634744.7924
      -890.0074       -693.5114        244.0004        212.0004
  -2212293.02949  -1714956.98845  24497871.9994   24497870.8964   24497878.1694
      2183.5534       1701.4634        205.0004        138.0004
 -19834770.34649 -15443583.96647  21534153.1474   21534153.4024   21534158.2634
     -1493.1834      -1163.5304        235.0004        191.0004
 -12130205.96349  -9427541.74746  22874733.0304   22874732.8304   22874737.2634
      2916.5354       2272.6234        224.0004        166.0004
 13  4 22  0  3  0.0000000  0  9G 5G26G29G24G 2G15G18G 9G21
 -11929267.55149  -9252143.29046  22793580.2884   22793580.1514   22793584.9534
     -1438.0234      -1120.5484        229.0004        184.0004
 -16343958.46549 -12126377.70946  21974314.8364   21974315.1904   21974320.7754
     -2945.7364      -2295.3894        229.0004        177.0004
  -5696154.80549  -4419716.13346  23179434.3014   23179433.7704   23179438.5354
     -2077.7594      -1619.0344        220.0004        167.0004
 -15356498.25349 -11955211.74547  21396065.4564   21396065.8764   21396071.9634
      2578.0284       2008.8584        237.0004        200.0004
   -782101.00249   -600022.02045  24145801.6744   24145805.4964   24145805.7214
     -3733.4044      -2909.1484        215.0004        148.0004
 -13125441.56049 -10213200.26047  20639848.1054   20639848.3094   20639851.3544
      -898.9824       -700.5044        245.0004        212.0004
  -2277847.69349  -1766038.51545  24485399.6124   24485397.5684   24485402.4234
      2186.6954       1703.9154        206.0004        138.0004
 -19789677.77449 -15408446.93547  21542734.4954   21542734.8994   21542738.9534
     -1512.9664      -1178.9344        235.0004        191.0004
 -12217577.95649  -9495623.78746  22858106.2094   22858106.3704   22858110.2884
      2908.2504       2266.1574        222.0004        167.0004
 13  4 22  0  3 30.0000000  0  9G 5G26G29G24G 2G15G18G 9G21
 -11886047.38149  -9218465.27746  22801804.6194   22801804.7704   22801809.5694
     -1443.2924      -1124.6334        229.0004        183.0004
 -16255524.62349 -12057468.28346  21991142.9414   21991143.4404   21991148.8434
     -2949.8714      -2298.5984        230.0004        179.0004
  -5633731.34549  -4371074.50346  23191313.3564   23191312.6274   23191317.3684
     -2083.7544      -1623.7014        221.0004        166.0004
 -15433646.72249 -12015327.41047  21381384.7324   21381384.6654   21381391.1554
      2565.1864       1998.8484        238.0004        200.0004
   -670039.15049   -512701.31545  24167124.7774   24167127.2304   24167130.8514
     -3737.3854      -2912.2444        209.0004        144.0004
 -13098338.15849 -10192080.72847  20645005.0874   20645005.4264   20645008.8434
      -907.9124       -707.4614        244.0004        212.0004
  -2343498.97149  -1817195.32645  24472903.8224   24472902.1144   24472911.1794
      2189.9434       1706.4514        203.0004        137.0004
 -19743992.05649 -15372847.69947  21551428.1014   21551428.1954   21551432.9344
     -1532.7304      -1194.3344        235.0004        191.0004
 -12304699.02249  -9563510.30546  22841527.7834   22841527.1344   22841531.0284
      2899.7874       2259.5854        222.0004        167.0004
 13  4 22  0  4  0.0000000  0  9G 5G26G29G24G 2G15G18G 9G21
 -11842667.73549  -9184662.99246  22810059.7034   22810059.7084   22810064.8954
     -1448.6664      -1128.8244        229.0004        183.0004
 -16166967.75949 -11988463.00246  22007994.9724   22007995.2424   22008000.6904
     -2953.9414      -2301.7674        231.0004        180.0004
  -5571130.18549  -4322294.41846  23203224.7654   23203225.2614   23203230.0544
     -2089.6094      -1628.2644        219.0004        166.0004
 -15510409.29549 -12075142.38147  21366777.1734   21366776.8644   21366783.5654
      2552.2834       1988.7894        238.0004        201.0004
   -557861.61949   -425290.47145  24188471.7724   24188471.2954   24188481.4874
     -3741.1724      -2915.1824        200.0004        146.0004
 -13070968.20149 -10170753.49748  20650213.6444   20650214.1104   20650217.5644
      -916.7574       -714.3574        244.0004        213.0004
  -2409246.55549  -1868427.19145  24460392.0194   24460390.0364   24460399.4124
      2193.1494       1708.9454        200.0004        137.0004
 -19697714.54549 -15336787.32947  21560234.3394   21560234.9754   21560239.5194
     -1552.4494      -1209.6974        235.0004        192.0004
 -12391565.37549  -9631198.34546  22824997.7444   22824997.0544   22825001.9964
      2891.2474       2252.9284        222.0004        166.0004
 13  4 22  0  4 30.0000000  0  9G 5G26G29G24G 2G15G18G 9G21
 -11799127.81749  -9150735.82646  22818345.1964   22818344.9434   22818349.7464
     -1454.0134      -1132.9884        228.0004        183.0004
 -16078290.28749 -11919363.73146  22024869.6704   22024870.3874   22024875.2304
     -2957.9174      -2304.8484        231.0004        180.0004
  -5508354.35349  -4273378.21246  23215170.2434   23215170.9944   23215175.5644
     -2095.3954      -1632.7744        219.0004        166.0004
 -15586783.31649 -12134654.58547  21352243.2384   21352243.3934   21352250.2024
      2539.2914       1978.6714        237.0004        201.0004
   -445570.71949   -337791.29845  24209842.7744   24209840.1244   24209845.8824
     -3745.0174      -2918.1914        197.0004        144.0004
 -13043333.45049 -10149219.93647  20655472.1614   20655472.4934   20655476.2214
      -925.5664       -721.2184        244.0004        212.0004
  -2475090.64649  -1919734.23645  24447861.8994   24447861.9214   24447868.8694
      2196.4304       1711.5024        199.0004        136.0004
 -19650847.25649 -15300267.39747  21569153.4934   21569153.5224   21569158.5834
     -1572.0644      -1224.9884        235.0004        192.0004
 -12478174.62749  -9698686.05446  22808516.3294   22808515.9034   22808520.1054
      2882.6834       2246.2644        222.0004        166.0004
 13  4 22  0  5  0.0000000  0  9G 5G26G29G24G 2G15G18G 9G21
 -11755426.92049  -9116683.20046  22826661.2774   22826661.4094   22826666.1644
     -1459.3794      -1137.1754        229.0004        182.0004
 -15989494.42549 -11850172.20746  22041767.8174   22041768.1284   22041772.7994
     -2961.8174      -2307.9024        231.0004        180.0004
  -5445406.82149  -4224328.22146  23227149.2864   23227150.1204   23227155.0674
     -2101.0344      -1637.1744        220.0004        167.0004
 -15662766.43449 -12193862.19247  21337783.8564   21337784.3414   21337791.0684
      2526.2454       1968.5064        236.0004        200.0004
   -333169.20349   -250205.96445  24231230.6734   24231228.9214   24231237.4654
     -3748.4454      -2920.8654        205.0004        142.0004
 -13015435.39949 -10127481.20047  20660781.2264   20660781.5534   20660785.1494
      -934.2994       -728.0264        244.0004        212.0004
  -2541031.08049  -1971116.36945  24435316.2064   24435313.5924   24435321.4614
      2199.6034       1713.9744        202.0004        135.0004
 -19603391.64449 -15263289.03447  21578184.0884   21578184.0344   21578189.2954
     -1591.6424      -1240.2314        236.0004        193.0004
 -12564524.77949  -9765971.86046  22792084.6964   22792084.7534   22792088.6844
      2874.0344       2239.5264        223.0004        167.0004
 13  4 22  0  5 30.0000000  0  9G 5G26G29G24G 2G15G18G 9G21
 -11711564.39449  -9082504.63146  22835007.1404   22835007.7374   22835012.9954
     -1464.7844      -1141.3924        228.0004        183.0004
 -15900582.66649 -11780890.38846  22058686.5594   22058687.3114   22058691.8884
     -2965.6204      -2310.8644        231.0004        180.0004
  -5382290.69449  -4175146.85946  23239159.4394   23239160.2714   23239165.2184
     -2106.6864      -1641.5644        222.0004        168.0004
 -15738355.84849 -12252763.01947  21323399.5244   21323400.1934   21323406.4194
      2513.0974       1958.2644        236.0004        201.0004
   -220659.57849   -162536.39145  24252639.9764   24252639.6694   24252645.5554
     -3752.1124      -2923.7104        206.0004        143.0004
 -12987276.22249 -10105538.99947  20666139.4854   20666139.9884   20666143.5924
      -942.9644       -734.7744        244.0004        212.0004
  -2607067.55849  -2022573.27845  24422748.4184   24422748.5844   24422754.1694
      2202.9004       1716.5454        202.0004        135.0004
 -19555349.58749 -15225853.70747  21587326.6814   21587326.3734   21587330.9744
     -1611.1514      -1255.4364        235.0004        193.0004
 -12650613.30149  -9833053.80446  22775703.4824   22775701.7844   22775706.3174
      2865.2494       2232.6504        224.0004        167.0004
 13  4 22  0  6  0.0000000  0  9G 5G26G29G24G 2G15G18G 9G21
 -11667539.52949  -9048199.56946  22843384.7234   22843385.7074   22843390.9004
     -1470.1754      -1145.5964        227.0004        182.0004
 -15811557.26349 -11711520.02846  22075627.9764   22075628.0504   22075633.7564
     -2969.4074      -2313.8104        230.0004        179.0004
  -5319008.60449  -4125836.17046  23251201.5754   23251202.1324   23251207.5354
     -2112.1214      -1645.8214        220.0004        168.0004
 -15813549.18149 -12311355.20647  21309090.8514   21309091.3624   21309097.7494
      2499.7814       1947.8864        237.0004        201.0004
   -108044.18549    -74784.39045  24274070.2984   24274070.6844   24274077.7124
     -3755.5714      -2926.4064        206.0004        144.0004
 -12958857.84649 -10083394.82247  20671547.2424   20671547.7634   20671551.2134
      -951.5764       -741.4844        243.0004        212.0004
  -2673199.91949  -2074104.94045  24410162.1684   24410162.8944   24410170.3974
      2206.0584       1719.0034        202.0004        135.0004
 -19506722.54249 -15187962.54347  21596580.2294   21596579.9004   21596584.8264
     -1630.6304      -1270.6184        236.0004        192.0004
 -12736437.29549  -9899929.63046  22759371.9824   22759371.1874   22759374.4654
      2856.3564       2225.7214        224.0004        169.0004
 13  4 22  0  6 30.0000000  0  9G 5G26G29G24G 2G15G18G 9G21
 -11623351.73149  -9013767.54146  22851793.5974   22851794.5274   22851799.5174
     -1475.6464      -1149.8484        228.0004        183.0004
 -15722420.54349 -11642062.91546  22092589.8694   22092590.4594   22092595.5984
     -2973.0724      -2316.6694        231.0004        179.0004
  -5255563.74149  -4076398.64146  23263275.0964   23263275.6544   23263280.9004
     -2117.5194      -1650.0174        220.0004        167.0004
 -15888343.40649 -12369636.40147  21294857.9454   21294858.6284   21294864.7674
      2486.4834       1937.5204        237.0004        201.0004
      4674.58849     13048.18645  24295519.9904   24295521.5664   24295527.3964
     -3759.0674      -2929.1214        199.0004        144.0004
 -12930182.15749 -10061050.14447  20677004.0554   20677004.6594   20677008.3434
      -960.1244       -748.1454        243.0004        212.0004
  -2739428.01749  -2125711.18245  24397560.5264   24397559.1184   24397565.3424
      2209.2174       1721.4704        203.0004        135.0004
 -19457512.25149 -15149616.90647  21605944.6834   21605943.9724   21605948.7574
     -1650.0604      -1285.7524        236.0004        191.0004
 -12821994.02049  -9966597.17346  22743090.7014   22743089.8824   22743093.5554
      2847.4074       2218.7514        225.0004        170.0004
 13  4 22  0  7  0.0000000  0  9G 5G26G29G24G 2G15G18G 9G21
 -11579000.02249  -8979207.78646  22860234.2284   22860234.6974   22860239.5934
     -1481.1174      -1154.1154        228.0004        183.0004
 -15633174.82849 -11572520.87146  22109573.1454   22109573.5374   22109578.5344
     -2976.6764      -2319.4714        230.0004        178.0004
  -5191959.28149  -4026836.74946  23275378.5054   23275379.2014   23275383.9274
     -2122.7924      -1654.1254        219.0004        167.0004
 -15962736.23049 -12427604.81047  21280701.1454   21280702.0904   21280708.0534
      2473.0474       1927.0434        236.0004        202.0004
    117494.13049    100959.25045  24316990.2304   24316989.6724   24316996.2134
     -3762.3714      -2931.7034        203.0004        143.0004
 -12901250.65849 -10038506.13747  20682509.1754   20682510.2024   20682513.7974
      -968.6074       -754.7624        243.0004        212.0004
  -2805751.94949  -2177392.11345  24384938.6404   24384938.6704   24384944.4504
      2212.3974       1723.9424        203.0004        135.0004
 -19407720.59649 -15110818.25147  21615419.9214   21615418.8914   21615423.6704
     -1669.3964      -1300.8334        236.0004        189.0004
 -12907281.04649 -10033054.57146  22726861.3604   22726860.3444   22726863.4374
      2838.3714       2211.7314        225.0004        170.0004
 13  4 22  0  7 30.0000000  0  9G 5G26G29G24G 2G15G18G 9G21
 -11534483.94449  -8944519.96346  22868705.4154   22868705.7374   22868710.8024
     -1486.5854      -1158.3804        229.0004        183.0004
 -15543822.49449 -11502895.73346  22126576.2344   22126576.0454   22126582.1724
     -2980.1754      -2322.2124        228.0004        175.0004
  -5128197.93149  -3977152.61346  23287511.9534   23287512.7474   23287517.4734
     -2127.9624      -1658.1474        220.0004        167.0004
 -16036725.14049 -12485258.48447  21266621.5154   21266622.6384   21266628.6024
      2459.5684       1916.5474        237.0004        202.0004
    230411.93349    188946.88245  24338478.1564   24338476.9404   24338485.6304
     -3765.5414      -2934.1864        205.0004        143.0004
 -12872065.27749 -10015764.29647  20688063.4084   20688063.7454   20688067.4944
      -977.0564       -761.3474        241.0004        211.0004
  -2872171.60149  -2229147.61745  24372300.3614   24372300.5394   24372305.1624
      2215.6414       1726.4724        204.0004        137.0004
 -19357349.30149 -15071567.93147  21625005.5064   21625004.6374   21625009.2384
     -1688.6694      -1315.8434        236.0004        189.0004
 -12992295.57449 -10099299.62146  22710683.5074   22710681.6734   22710687.0514
      2829.2604       2204.5844        226.0004        172.0004
 13  4 22  0  8  0.0000000  0  9G 5G26G29G24G 2G15G18G 9G21
 -11489802.61749  -8909703.37546  22877208.7164   22877208.6764   22877212.9594
     -1492.1314      -1162.6974        230.0004        183.0004
 -15454365.76849 -11433189.25546  22143599.0384   22143598.7604   22143604.2064
     -2983.6394      -2324.9264        228.0004        174.0004
  -5064282.83549  -3927348.66146  23299675.0964   23299674.8184   23299680.3624
     -2133.0844      -1662.1444        218.0004        166.0004
 -16110307.34249 -12542595.24347  21252619.3194   21252620.3464   21252626.6534
      2445.9294       1905.9194        237.0004        203.0004
    343425.42949    277009.10145  24359983.2164   24359984.7164   24359991.6814
     -3768.7004      -2936.6474        206.0004        144.0004
 -12842627.82249  -9992826.04147  20693664.3734   20693665.4844   20693669.0304
      -985.4214       -767.8574        241.0004        211.0004
  -2938686.83049  -2280977.62145  24359643.5694   24359642.6004   24359647.3194
      2218.7924       1728.9284        205.0004        137.0004
 -19306400.25849 -15031867.41447  21634700.0664   21634699.7524   21634704.0414
     -1707.9124      -1330.8554        236.0004        189.0004
 -13077035.42349 -10165330.62546  22694557.3684   22694556.6984   22694561.7184
      2820.0554       2197.4374        225.0004        171.0004
 13  4 22  0  8 30.0000000  0  9G 5G26G29G24G 2G15G18G 9G21
 -11444955.58149  -8874757.66246  22885742.6904   22885742.9564   22885747.1554
     -1497.6414      -1166.9934        230.0004        182.0004
 -15364806.89449 -11363403.19746  22160641.8674   22160641.6514   22160647.7524
     -2986.9754      -2327.5194        228.0004        174.0004
  -5000217.00149  -3877427.25546  23311866.7654   23311866.2314   23311871.4034
     -2137.9694      -1665.9534        218.0004        164.0004
 -16183480.50049 -12599613.26647  21238695.0224   21238696.1664   21238702.1794
      2432.2954       1895.2954        238.0004        203.0004
    456532.46849    365144.17045  24381507.0874   24381508.3464   24381514.2894
     -3771.7364      -2939.0124        209.0004        145.0004
 -12812939.89049  -9969692.59947  20699314.2514   20699315.1274   20699318.5924
      -993.7144       -774.3244        242.0004        211.0004
  -3005297.12449  -2332881.68045  24346968.0844   24346966.3654   24346972.8804
      2221.9834       1731.4114        206.0004        136.0004
 -19254875.24149 -14991718.10647  21644505.0184   21644504.4484   21644509.1604
     -1727.0774      -1345.7654        234.0004        188.0004
 -13161498.00349 -10231145.58546  22678484.8434   22678483.9214   22678488.5314
      2810.7684       2190.2204        225.0004        173.0004
 13  4 22  0  9  0.0000000  0  9G 5G26G29G24G 2G15G18G 9G21
 -11399942.00049  -8839682.17246  22894308.2934   22894308.2594   22894312.9174
     -1503.2104      -1171.3194        229.0004        181.0004
 -15275148.18049 -11293539.33146  22177703.1304   22177702.7924   22177708.4964
     -2990.2774      -2330.0664        227.0004        175.0004
  -4936003.32549  -3827390.65146  23324086.3904   23324085.7274   23324091.2674
     -2142.8884      -1669.7744        218.0004        163.0004
 -16256241.98949 -12656310.50347  21224849.3704   21224849.8884   21224856.1774
      2418.5164       1884.5594        239.0004        204.0004
    569730.14849    453349.91945  24403046.5274   24403048.3414   24403057.1784
     -3774.8544      -2941.4284        203.0004        143.0004
 -12783003.53349  -9946365.58147  20705010.8614   20705011.7864   20705015.3234
     -1002.0324       -780.8054        241.0004        211.0004
  -3072002.30749  -2384859.69345  24334273.1184   24334272.8484   24334278.7114
      2225.1124       1733.8544        205.0004        138.0004
 -19202775.80549 -14951121.18847  21654418.5454   21654418.8764   21654423.9154
     -1746.2174      -1360.6954        233.0004        189.0004
 -13245680.30649 -10296742.14646  22662466.3824   22662464.1994   22662468.5634
      2801.3704       2182.8984        226.0004        173.0004
 13  4 22  0  9 30.0000000  0  9G 5G26G29G24G 2G15G18G 9G21
 -11354761.24149  -8804476.41146  22902905.5804   22902905.5654   22902910.0514
     -1508.8124      -1175.7054        227.0004        180.0004
 -15185391.88149 -11223599.43546  22194783.5444   22194782.6674   22194789.0454
     -2993.4504      -2332.5694        228.0004        175.0004
  -4871644.75449  -3777241.14346  23336333.1014   23336333.5324   23336337.7554
     -2147.6364      -1673.4824        217.0004        163.0004
 -16328589.51449 -12712685.17247  21211082.1034   21211082.6744   21211088.9974
      2404.6264       1873.7334        239.0004        204.0004
    683016.42049    541624.65745  24424604.4924   24424604.9444   24424612.8464
     -3777.7014      -2943.6574        200.0004        141.0004
 -12752820.65349  -9922846.47047  20710754.3294   20710755.3924   20710759.2824
     -1010.1824       -787.1544        242.0004        211.0004
  -3138802.57949  -2436911.80745  24321562.1264   24321560.7384   24321567.1334
      2228.2734       1736.3194        206.0004        138.0004
 -19150103.99649 -14910078.28347  21664441.5784   21664442.1784   21664446.9434
     -1765.2404      -1375.5084        234.0004        190.0004
 -13329579.86449 -10362118.38546  22646499.9124   22646499.5254   22646503.5714
      2791.9494       2175.5534        226.0004        174.0004
 13  4 22  0 10  0.0000000  0  9G 5G26G29G24G 2G15G18G 9G21
 -11309412.62549  -8769139.84846  22911534.6924   22911535.4994   22911539.5824
     -1514.4384      -1180.0714        227.0004        179.0004
 -15095540.25449 -11153585.25146  22211882.1384   22211881.8554   22211886.5764
     -2996.6234      -2335.0354        228.0004        175.0004
  -4807144.44349  -3726981.18446  23348606.9744   23348606.5204   23348612.3714
     -2152.3064      -1677.1254        217.0004        163.0004
 -16400520.23649 -12768735.06547  21197394.1164   21197394.7594   21197400.8544
      2390.7304       1862.9084        240.0004        204.0004
    796388.54349    629966.30245  24446181.8804   24446182.1954   24446188.1744
     -3780.4214      -2945.7794        207.0004        144.0004
 -12722392.84749  -9899136.50647  20716544.8064   20716545.5054   20716548.9114
     -1018.3314       -793.5034        241.0004        210.0004
  -3205697.38449  -2489037.57145  24308831.8364   24308831.9014   24308835.3484
      2231.4424       1738.7824        204.0004        137.0004
 -19096861.96849 -14868591.04747  21674572.7084   21674573.5844   21674578.6364
     -1784.2204      -1390.2984        233.0004        189.0004
 -13413194.18449 -10427272.36546  22630588.6224   22630588.5654   22630592.2734
      2782.3684       2168.0984        225.0004        174.0004
 13  4 22  0 10 30.0000000  0  9G 5G26G29G24G 2G15G18G 9G21
 -11263895.69249  -8733672.15046  22920196.4484   22920197.2154   22920201.6444
     -1520.0534      -1184.4504        228.0004        179.0004
 -15005595.50149 -11083498.50646  22228997.5104   22228997.5684   22229003.0294
     -2999.7264      -2337.4534        227.0004        173.0004
  -4742505.17449  -3676612.96145  23360907.3344   23360908.0034   23360912.0154
     -2156.9544      -1680.7474        217.0004        162.0004
 -16472031.78249 -12824458.32847  21183786.5474   21183786.4244   21183792.4234
      2376.7124       1851.9884        239.0004        204.0004
    909844.23449    718373.05145  24467769.0674   24467770.1184   24467776.4934
     -3783.1814      -2947.9204        208.0004        140.0004
 -12691721.96349  -9875237.13047  20722380.8904   20722382.0504   20722385.6774
     -1026.3864       -799.7814        241.0004        211.0004
  -3272686.30949  -2541236.68645  24296084.6214   24296084.2414   24296090.0844
      2234.5584       1741.2164        206.0004        139.0004
 -19043051.61749 -14826660.96647  21684813.3494   21684813.3224   21684818.6054
     -1803.1324      -1405.0364        233.0004        188.0004
 -13496520.67949 -10492202.05946  22614731.8084   22614730.9824   22614735.5914
      2772.7114       2160.5564        224.0004        172.0004
 13  4 22  0 11  0.0000000  0  9G 5G26G29G24G 2G15G18G 9G21
 -11218209.59349  -8698072.63546  22928889.7374   22928891.1024   22928894.6674
     -1525.6874      -1188.8354        228.0004        180.0004
 -14915559.84449 -11013340.93246  22246130.1604   22246130.5714   22246135.8114
     -3002.6974      -2339.7614        225.0004        172.0004
  -4677730.10849  -3626138.90146  23373233.9404   23373234.8604   23373238.3594
     -2161.3774      -1684.1914        218.0004        164.0004
 -16543121.62249 -12879852.99047  21170258.3734   21170258.5064   21170264.3164
      2362.6334       1841.0134        239.0004        204.0004
   1023380.21649    806842.37645  24489374.8884   24489374.5924   24489381.0454
     -3785.8434      -2949.9974        197.0004        141.0004
 -12660809.93449  -9851149.85047  20728263.7474   20728264.6694   20728268.2674
     -1034.3764       -806.0084        241.0004        211.0004
  -3339769.77949  -2593509.46645  24283319.5834   24283318.4424   24283324.1164
      2237.6614       1743.6334        208.0004        140.0004
 -18988674.73749 -14784289.42547  21695160.3184   21695160.8664   21695166.4684
     -1821.9894      -1419.7284        232.0004        188.0004
 -13579556.77349 -10556905.45946  22598930.7714   22598930.8144   22598934.2574
      2763.0124       2152.9934        224.0004        173.0004
 13  4 22  0 11 30.0000000  0  9G 5G26G29G24G 2G15G18G 9G21
 -11172353.52449  -8662340.68646  22937616.3464   22937617.0154   22937620.9874
     -1531.3774      -1193.2864        227.0004        181.0004
 -14825435.50649 -10943114.23846  22263279.9254   22263280.2554   22263286.6734
     -3005.6604      -2342.0934        223.0004        170.0004
  -4612822.05349  -3575561.23246  23385585.2234   23385585.8254   23385589.8544
     -2165.7814      -1687.6164        221.0004        164.0004
 -16613787.63049 -12934917.38647  21156811.0054   21156811.1214   21156816.9654
      2348.4564       1829.9664        239.0004        204.0004
   1136995.28449    895373.34345  24510995.3124   24510995.3874   24511003.1174
     -3788.4264      -2952.0104        203.0004        140.0004
 -12629658.56049  -9826876.06547  20734191.4744   20734192.2374   20734196.1044
     -1042.3544       -812.2254        241.0004        211.0004
  -3406947.32949  -2645855.56345  24270536.2504   24270534.8524   24270541.0984
      2240.7744       1746.0634        208.0004        141.0004
 -18933733.17249 -14741477.86247  21705615.8834   21705615.8194   21705621.0594
     -1840.7934      -1434.3854        233.0004        189.0004
 -13662299.61949 -10621380.36346  22583184.8854   22583184.5184   22583187.8824
      2753.1884       2145.3334        224.0004        174.0004
 13  4 22  0 12  0.0000000  0  9G 5G26G29G24G 2G15G18G 9G21
 -11126327.19149  -8626476.06246  22946375.0884   22946375.9264   22946379.5214
     -1537.0764      -1197.7214        227.0004        180.0004
 -14735224.67149 -10872820.17546  22280446.4844   22280447.2024   22280453.1934
     -3008.4684      -2344.2574        224.0004        170.0004
  -4547783.93949  -3524882.20846  23397961.7984   23397961.6504   23397966.3874
     -2170.0804      -1690.9794        218.0004        163.0004
 -16684026.95049 -12989649.30747  21143444.8164   21143444.8784   21143451.0864
      2334.1814       1818.8434        240.0004        205.0004
   1250686.51349    983963.63145  24532630.6954   24532631.0584   24532640.4574
     -3790.9634      -2953.9834        203.0004        140.0004
 -12598269.59849  -9802417.15247  20740164.8334   20740165.5144   20740169.4584
     -1050.2614       -818.3854        241.0004        211.0004
  -3474218.76749  -2698274.82245  24257734.8034   24257734.7904   24257739.5074
      2243.8944       1748.4854        210.0004        141.0004
 -18878228.99349 -14698227.89447  21716177.7394   21716178.1764   21716183.1604
     -1859.4954      -1448.9554        232.0004        189.0004
 -13744746.72049 -10685624.82546  22567495.4544   22567495.2244   22567499.5894
      2743.2724       2137.6314        225.0004        175.0004
 13  4 22  0 12 30.0000000  0  9G 5G26G29G24G 2G15G18G 9G21
 -11080129.48349  -8590477.88646  22955166.4044   22955166.8194   22955171.0004
     -1542.7504      -1202.1584        227.0004        179.0004
 -14644929.55749 -10802460.42746  22297629.5714   22297629.6554   22297636.3084
     -3011.1974      -2346.3744        226.0004        170.0004
  -4482618.94649  -3474104.30546  23410363.1114   23410361.8784   23410366.9304
     -2174.2794      -1694.2484        218.0004        164.0004
 -16753837.22149 -13044046.90647  21130160.4844   21130160.7034   21130166.7774
      2319.8474       1807.6764        240.0004        205.0004
   1364451.22649   1072611.18645  24554277.9744   24554279.5834   24554285.4304
     -3793.3704      -2955.8614        200.0004        139.0004
 -12566644.62249  -9777774.32947  20746182.8054   20746183.6534   20746186.9664
     -1058.0774       -824.4764        241.0004        210.0004
  -3541583.73249  -2750766.96545  24244915.4924   24244913.4714   24244921.2424
      2247.0394       1750.9364        211.0004        143.0004
 -18822164.41049 -14654541.24747  21726847.1054   21726846.9884   21726852.6184
     -1878.1444      -1463.4764        233.0004        188.0004
 -13826895.62849 -10749636.91546  22551863.3704   22551862.4904   22551866.9844
      2733.2954       2129.8544        225.0004        175.0004
 13  4 22  0 13  0.0000000  0  9G 5G26G29G24G 2G15G18G 9G21
 -11033760.12949  -8554345.96146  22963990.2104   22963990.4384   22963994.9094
     -1548.5354      -1206.6354        226.0004        180.0004
 -14554552.30249 -10732036.65146  22314828.0804   22314828.0314   22314834.0164
     -3013.9324      -2348.5014        224.0004        169.0004
  -4417330.06049  -3423229.87746  23422786.4474   23422786.6514   23422791.1344
     -2178.3464      -1697.4084        218.0004        165.0004
 -16823216.36649 -13098108.56347  21116957.6534   21116958.0174   21116964.5164
      2305.4044       1796.4214        239.0004        205.0004
   1478287.00549   1161314.12545  24575941.5144   24575940.2244   24575949.4064
     -3795.7544      -2957.7254        198.0004        138.0004
 -12534785.77649  -9752949.26647  20752245.7604   20752246.2854   20752249.6594
     -1065.8224       -830.5094        242.0004        210.0004
  -3609041.83549  -2803331.67545  24232079.3994   24232079.0894   24232083.3084
      2250.1214       1753.3304        213.0004        143.0004
 -18765541.33449 -14610419.40447  21737622.0014   21737621.7334   21737626.7804
     -1896.7434      -1477.9784        233.0004        188.0004
 -13908743.89249 -10813414.72546  22536287.3724   22536288.3194   22536292.8324
      2723.2024       2121.9774        226.0004        176.0004
 13  4 22  0 13 30.0000000  0  9G 5G26G29G24G 2G15G18G 9G21
 -10987218.19049  -8518079.56346  22972846.7014   22972846.8614   22972851.2834
     -1554.2724      -1211.1184        226.0004        180.0004
 -14464095.05849 -10661550.57146  22332041.6354   22332042.3684   22332048.0734
     -3016.5954      -2350.5634        225.0004        170.0004
  -4351920.06049  -3372261.07146  23435233.5844   23435233.2964   23435238.1254
     -2182.3534      -1700.5334        220.0004        164.0004
 -16892161.52849 -13151832.05547  21103837.3484   21103837.9284   21103844.8664
      2290.9284       1785.1454        239.0004        206.0004
   1592191.24849   1250070.37845  24597617.2774   24597616.8024   24597623.8994
     -3797.8844      -2959.3804        201.0004        138.0004
 -12502694.87449  -9727943.39047  20758352.2824   20758352.8784   20758356.4334
     -1073.5224       -836.5084        242.0004        210.0004
  -3676593.21249  -2855969.07645  24219222.6834   24219222.8464   24219230.4394
      2253.2554       1755.7824        211.0004        145.0004
 -18708361.71949 -14565863.90547  21748503.2484   21748502.8044   21748508.3674
     -1915.2484      -1492.4064        234.0004        188.0004
 -13990288.79949 -10876956.17246  22520769.8504   22520770.3744   22520775.2544
      2713.0794       2114.0804        226.0004        177.0004
 13  4 22  0 14  0.0000000  0  9G 5G26G29G24G 2G15G18G 9G21
 -10940503.16349  -8481678.29946  22981736.3494   22981736.6384   22981741.4284
     -1560.0674      -1215.6384        226.0004        181.0004
 -14373560.08449 -10591003.88746  22349271.2454   22349271.4764   22349276.2394
     -3019.1344      -2352.5804        227.0004        172.0004
  -4286392.11449  -3321200.35646  23447704.0454   23447703.9944   23447707.6034
     -2186.1984      -1703.5224        220.0004        165.0004
 -16960670.37649 -13205215.56147  21090800.4014   21090801.2904   21090807.7124
      2276.3064       1773.7434        240.0004        206.0004
   1706161.77149   1338878.30745  24619305.2754   24619307.5074   24619315.1964
     -3800.1174      -2961.1214        202.0004        138.0004
 -12470373.57749  -9702757.97847  20764502.6604   20764503.0904   20764507.0934
     -1081.2244       -842.5124        241.0004        210.0004
  -3744237.20249  -2908678.65245  24206352.1464   24206351.0664   24206355.3384
      2256.2624       1758.1294        210.0004        144.0004
 -18650627.74749 -14520876.43747  21759490.5054   21759489.7284   21759494.8194
     -1933.7224      -1506.7924        234.0004        188.0004
 -14071527.88849 -10940259.30846  22505310.7104   22505311.2524   22505315.6254
      2702.8514       2106.1264        226.0004        176.0004
 13  4 22  0 14 30.0000000  0  9G 5G26G29G24G 2G15G18G 9G21
 -10893614.49249  -8445141.72746  22990659.2084   22990659.4554   22990664.3304
     -1565.8524      -1220.1314        227.0004        182.0004
 -14282949.48649 -10520398.28746  22366513.6804   22366514.0224   22366519.1814
     -3021.6254      -2354.4864        228.0004        175.0004
  -4220749.13149  -3270050.00346  23460195.1834   23460194.5374   23460199.1534
     -2189.9834      -1706.4834        219.0004        165.0004
 -17028740.87049 -13258257.50547  21077847.1844   21077848.2414   21077854.1454
      2261.6834       1762.3504        240.0004        206.0004
   1820196.22449   1427736.07145  24641003.7214   24641005.3794   24641011.5134
     -3802.1784      -2962.7284        200.0004        137.0004
 -12437823.87249  -9677394.59047  20770697.3174   20770697.4204   20770701.0854
     -1088.7324       -848.3674        242.0004        210.0004
  -3811973.84949  -2961460.40045  24193462.4144   24193460.8024   24193466.4804
      2259.5294       1760.6864        213.0004        145.0004
 -18592341.42949 -14475458.57547  21770581.6574   21770581.0654   21770586.4144
     -1952.0464      -1521.0754        233.0004        188.0004
 -14152458.38949 -11003321.98946  22489910.7314   22489911.0014   22489914.4764
      2692.5264       2098.0714        227.0004        177.0004
 13  4 22  0 15  0.0000000  0  9G 5G26G29G24G 2G15G18G 9G21
 -10846551.34249  -8408469.18946  22999615.0554   22999615.3354   22999620.4414
     -1571.6934      -1224.6754        228.0004        182.0004
 -14192265.29749 -10449735.34946  22383770.3534   22383769.8884   22383775.9614
     -3024.0224      -2356.3694        228.0004        175.0004
  -4154993.98049  -3218812.23646  23472707.8184   23472706.8634   23472712.6064
     -2193.6704      -1709.3444        219.0004        166.0004
 -17096370.36949 -13310955.80747  21064978.2374   21064979.0434   21064984.9144
      2246.9474       1750.8724        240.0004        206.0004
   1934291.36649   1516641.10345  24662718.1684   24662716.9394   24662726.3914
     -3804.2194      -2964.3214        203.0004        138.0004
 -12405047.20749  -9651854.34347  20776934.5834   20776934.6244   20776938.1954
     -1096.3244       -854.2754        242.0004        209.0004
  -3879802.65149  -3014313.95445  24180555.0454   24180553.4214   24180559.9884
      2262.5294       1763.0124        215.0004        144.0004
 -18533504.83549 -14429611.91847  21781777.7054   21781777.1674   21781783.1314
     -1970.3744      -1535.3504        233.0004        188.0004
 -14233077.72049 -11066142.20746  22474570.0594   22474569.3014   22474573.1254
      2682.0824       2089.9434        228.0004        177.0004
 13  4 22  0 15 30.0000000  0  9G 5G26G29G24G 2G15G18G 9G21
 -10799313.38449  -8371660.43046  23008603.4744   23008603.6644   23008608.9644
     -1577.5084      -1229.2154        225.0004        180.0004
 -14101509.70949 -10379016.78746  22401040.7844   22401040.0604   22401045.3784
     -3026.3884      -2358.2144        228.0004        174.0004
  -4089129.82249  -3167489.53646  23485240.5774   23485240.8934   23485245.6284
     -2197.2854      -1712.1674        220.0004        166.0004
 -17163556.67349 -13363308.76447  21052192.6284   21052193.6994   21052199.3104
      2232.1344       1739.3244        240.0004        207.0004
   2048445.49649   1605592.07645  24684441.7804   24684441.1344   24684449.2054
     -3806.0784      -2965.7734        202.0004        137.0004
 -12372045.46749  -9626138.72047  20783214.8484   20783214.4914   20783218.4714
     -1103.7994       -860.1034        241.0004        210.0004
  -3947723.33149  -3067239.09545  24167630.1124   24167628.8524   24167633.7804
      2265.5164       1765.3404        213.0004        144.0004
 -18474120.27949 -14383338.29146  21793077.8204   21793077.5164   21793083.0304
     -1988.5604      -1549.5264        232.0004        187.0004
 -14313383.45149 -11128718.07446  22459287.7964   22459287.1094   22459291.5224
      2671.6004       2081.7424        228.0004        176.0004
 13  4 22  0 16  0.0000000  0  9G 5G26G29G24G 2G15G18G 9G21
 -10751899.48849  -8334714.56646  23017625.6404   23017626.9044   23017631.9444
     -1583.3864      -1233.8044        225.0004        180.0004
 -14010684.79349 -10308244.19546  22418324.0164   22418324.4194   22418329.6494
     -3028.6424      -2359.9734        228.0004        175.0004
  -4023159.56449  -3116084.16946  23497793.7964   23497794.3944   23497799.2994
     -2200.7544      -1714.8644        218.0004        166.0004
 -17230297.40549 -13415314.51947  21039492.3604   21039493.4534   21039499.1184
      2217.2274       1727.7064        240.0004        207.0004
   2162656.08049   1694587.06245  24706176.1994   24706176.6084   24706179.6694
     -3807.9744      -2967.2434        204.0004        135.0004
 -12338820.57349  -9600249.20747  20789537.3014   20789537.3914   20789540.9314
     -1111.1964       -865.8634        242.0004        209.0004
  -4015735.71949  -3120235.71145  24154686.1204   24154686.4484   24154692.3014
      2268.5864       1767.7234        213.0004        144.0004
 -18414189.78349 -14336639.25746  21804482.1734   21804481.9194   21804487.8364
     -2006.7734      -1563.7104        232.0004        186.0004
 -14393372.99449 -11191047.53546  22444064.8184   22444065.1864   22444069.5024
      2660.9994       2073.5044        225.0004        175.0004
 13  4 22  0 16 30.0000000  0  9G 5G26G29G24G 2G15G18G 9G21
 -10704309.33849  -8297631.37346  23026682.0284   23026682.9824   23026687.4484
     -1589.2544      -1238.3534        226.0004        178.0004
 -13919792.66749 -10237419.24646  22435620.7934   22435619.8684   22435625.5154
     -3030.8604      -2361.6924        228.0004        175.0004
  -3957085.99349  -3064598.30546  23510366.1404   23510367.9894   23510373.0864
     -2204.1434      -1717.5174        219.0004        167.0004
 -17296590.01549 -13466971.08947  21026877.4534   21026878.1064   21026883.8524
      2202.2734       1716.0614        241.0004        207.0004
   2276920.24349   1783623.78445  24727919.1994   24727917.7934   24727926.6744
     -3809.7464      -2968.6194        207.0004        137.0004
 -12305374.56649  -9574187.39047  20795902.1464   20795901.9694   20795905.4074
     -1118.5254       -871.5744        243.0004        210.0004
  -4083839.24449  -3173303.32345  24141727.0354   24141726.0344   24141733.4864
      2271.6394       1770.1054        213.0004        145.0004
 -18353715.65049 -14289516.61146  21815989.6534   21815989.6504   21815995.2204
     -2024.8474      -1577.8024        231.0004        184.0004
 -14473043.79949 -11253128.64446  22428903.4674   22428903.6784   22428909.3234
      2650.3374       2065.1934        224.0004        176.0004
 13  4 22  0 17  0.0000000  0  9G 5G26G29G24G 2G15G18G 9G21
 -10656542.49049  -8260410.48846  23035772.5114   23035773.1194   23035777.0574
     -1595.1664      -1243.0044        227.0004        178.0004
 -13828835.41849 -10166543.54246  22452928.7734   22452927.8614   22452934.7714
     -3032.9694      -2363.3454        226.0004        173.0004
  -3890912.17149  -3013034.32046  23522959.0714   23522959.0144   23522965.6334
     -2207.3724      -1720.0284        218.0004        165.0004
 -17362432.62549 -13518277.00847  21014348.2684   21014348.6334   21014354.3374
      2187.2334       1704.3344        240.0004        207.0004
   2391236.01549   1872700.72645  24749673.2604   24749674.6194   24749679.1754
     -3811.3394      -2969.8714        205.0004        137.0004
 -12271709.17349  -9547954.62747  20802308.4684   20802308.3944   20802311.5774
     -1125.8354       -877.2784        242.0004        209.0004
  -4152033.90449  -3226441.97045  24128748.1484   24128748.3634   24128755.5854
      2274.6604       1772.4574        212.0004        146.0004
 -18292699.89249 -14241971.92446  21827600.3944   21827600.8494   21827606.4794
     -2042.8694      -1591.8464        230.0004        184.0004
 -14552393.24549 -11314959.33846  22413803.9344   22413804.7114   22413809.5154
      2639.6024       2056.8364        225.0004        176.0004
 13  4 22  0 17 30.0000000  0  9G 5G26G29G24G 2G15G18G 9G21
 -10608597.82449  -8223051.05846  23044896.7314   23044896.5454   23044900.6934
     -1601.0914      -1247.6204        228.0004        177.0004
 -13737815.07949 -10095618.68746  22470249.4434   22470250.1294   22470254.1294
     -3035.0614      -2365.0064        226.0004        171.0004
  -3824641.14449  -2961394.61646  23535570.9064   23535572.1364   23535576.5274
     -2210.5944      -1722.5424        221.0004        165.0004
 -17427822.71249 -13569230.31447  21001905.0354   21001905.1674   21001911.3944
      2172.1364       1692.5684        240.0004        207.0004
   2505600.58549   1961815.70545  24771436.4274   24771435.9834   24771441.4644
     -3812.8984      -2971.0794        205.0004        136.0004
 -12237825.42149  -9521551.70847  20808756.3154   20808755.8274   20808759.6164
     -1133.0344       -882.8804        242.0004        209.0004
  -4220319.36649  -3279651.35645  24115756.1214   24115755.9634   24115761.4064
      2277.6904       1774.8164        212.0004        147.0004
 -18231144.71349 -14194006.90146  21839314.1134   21839314.3734   21839319.7474
     -2060.7864      -1605.8134        230.0004        185.0004
 -14631418.91249 -11376537.74246  22398767.5124   22398766.8784   22398771.4434
      2628.7624       2048.3854        227.0004        176.0004
 13  4 22  0 18  0.0000000  0  8G 5G26G29G24G15G18G 9G21
 -10560475.24749  -8185553.00546  23054054.1544   23054054.0274   23054057.8484
     -1607.0704      -1252.2624        227.0004        177.0004
 -13646733.73749 -10024646.29146  22487581.8044   22487581.8304   22487587.3974
     -3037.0314      -2366.5244        226.0004        169.0004
  -3758275.91549  -2909681.51646  23548200.3334   23548200.5604   23548204.4754
     -2213.7354      -1724.9774        220.0004        163.0004
 -17492757.92349 -13619829.17047  20989548.6784   20989548.7054   20989554.5244
      2156.8824       1680.6844        241.0004        207.0004
 -12203725.56749  -9494980.40547  20815245.2454   20815245.0754   20815248.5594
     -1140.2604       -888.5194        242.0004        210.0004
  -4288694.83749  -3332930.87345  24102744.1504   24102743.7924   24102749.1654
      2280.6784       1777.1494        213.0004        148.0004
 -18169052.34749 -14145623.28846  21851130.0954   21851130.5424   21851135.6884
     -2078.6714      -1619.7484        231.0004        184.0004
 -14710118.13649 -11437861.79246  22383791.7274   22383791.5444   22383794.7564
      2617.8264       2039.8734        226.0004        177.0004
 13  4 22  0 18 30.0000000  0  8G 5G26G29G24G15G18G 9G21
 -10512173.73649  -8147915.50846  23063245.2304   23063245.4454   23063250.1504
     -1613.0344      -1256.9014        226.0004        177.0004
 -13555593.43349  -9953627.96446  22504924.8764   22504924.7294   22504930.9044
     -3039.0404      -2368.0804        225.0004        170.0004
  -3691819.26549  -2857897.15446  23560847.8634   23560847.2494   23560852.6834
     -2216.7394      -1727.3364        221.0004        163.0004
 -17557236.08949 -13670071.88747  20977278.8954   20977278.8074   20977284.6154
      2141.6214       1668.8014        242.0004        208.0004
 -12169411.12249  -9468241.88247  20821775.0934   20821774.8544   20821778.4724
     -1147.3854       -894.0614        242.0004        209.0004
  -4357160.40649  -3386280.59545  24089716.4374   24089716.2654   24089721.5034
      2283.6744       1779.4794        215.0004        148.0004
 -18106425.23549 -14096822.98646  21863047.1884   21863047.8794   21863053.2544
     -2096.4794      -1633.6064        231.0004        185.0004
 -14788488.47149 -11498929.56246  22368878.1384   22368877.2564   22368881.9404
      2606.8584       2031.3314        227.0004        176.0004
 13  4 22  0 19  0.0000000  0  8G 5G26G29G24G15G18G 9G21
 -10463693.06149  -8110138.39946  23072471.4334   23072471.1994   23072476.3514
     -1619.0134      -1261.5594        227.0004        180.0004
 -13464396.24049  -9882565.29646  22522279.2944   22522279.4384   22522284.7664
     -3040.8494      -2369.4914        224.0004        170.0004
  -3625274.30449  -2806044.01745  23573510.3664   23573509.7354   23573515.4924
     -2219.6184      -1729.5764        221.0004        162.0004
 -17621255.02249 -13719956.75447  20965096.5074   20965096.2964   20965102.1644
      2126.2834       1656.8434        242.0004        208.0004
 -12134884.53449  -9441338.05447  20828345.4284   20828344.9664   20828348.6234
     -1154.4024       -899.5284        242.0004        209.0004
  -4425715.38449  -3439699.97845  24076670.1064   24076669.2254   24076676.8954
      2286.6924       1781.8324        214.0004        148.0004
 -18043265.49149 -14047607.64346  21875066.2764   21875067.0894   21875072.1554
     -2114.1764      -1647.4054        230.0004        183.0004
 -14866527.15249 -11559738.89346  22354027.8074   22354027.7924   22354030.9474
      2595.7444       2022.6654        226.0004        174.0004
 13  4 22  0 19 30.0000000  0  8G 5G26G29G24G15G18G 9G21
 -10415032.47449  -8072221.08746  23081730.9594   23081730.5114   23081736.0344
     -1625.0194      -1266.2484        227.0004        180.0004
 -13373144.11049  -9811459.82946  22539643.3594   22539643.3774   22539649.9354
     -3042.6244      -2370.8824        223.0004        169.0004
  -3558644.17349  -2754124.47445  23586188.7314   23586189.2894   23586193.8604
     -2222.4194      -1731.7484        220.0004        161.0004
 -17684812.55449 -13769482.08447  20953001.7394   20953001.7374   20953007.8074
      2110.8684       1644.8334        242.0004        209.0004
 -12100147.29849  -9414270.08747  20834954.9274   20834955.1254   20834958.9654
     -1161.4104       -904.9924        241.0004        208.0004
  -4494359.69949  -3493188.98545  24063607.6874   24063606.8154   24063612.8914
      2289.6294       1784.1374        213.0004        148.0004
 -17979575.56149 -13997979.17246  21887185.9844   21887186.5664   21887192.0974
     -2131.7624      -1661.1044        231.0004        183.0004
 -14944231.85749 -11620287.97746  22339240.6464   22339239.8694   22339244.5884
      2584.5364       2013.9114        226.0004        174.0004
 13  4 22  0 20  0.0000000  0  8G 5G26G29G24G15G18G 9G21
 -10366191.08749  -8034162.91346  23091024.7674   23091025.2654   23091030.8514
     -1631.0574      -1270.9514        226.0004        180.0004
 -13281839.07249  -9740313.12546  22557017.5124   22557017.6654   22557025.0664
     -3044.3944      -2372.2604        220.0004        166.0004
  -3491931.46349  -2702140.60845  23598883.2284   23598885.2464   23598890.9034
     -2225.1514      -1733.8794        219.0004        161.0004
 -17747906.27149 -13818646.00747  20940994.8144   20940995.4674   20941001.3124
      2095.3844       1632.7674        241.0004        209.0004
 -12065201.12649  -9387039.31147  20841605.2394   20841605.3524   20841608.8664
     -1168.3434       -910.3954        242.0004        208.0004
  -4563093.05049  -3546747.34245  24050527.4854   24050527.0964   24050532.7404
      2292.5744       1786.4254        214.0004        148.0004
 -17915357.47949 -13947939.16246  21899406.5704   21899407.0814   21899412.4864
     -2149.3704      -1674.8324        231.0004        184.0004
 -15021599.96749 -11680574.78046  22324518.8104   22324518.3234   22324521.3294
      2573.2954       2005.1654        228.0004        174.0004
 13  4 22  0 20 30.0000000  0  8G 5G26G29G24G15G18G 9G21
 -10317168.77449  -7995963.74346  23100352.6564   23100353.2284   23100359.6534
     -1637.0964      -1275.6574        224.0004        180.0004
 -13190483.05549  -9669126.70446  22574402.1364   22574402.7374   22574408.9384
     -3046.0384      -2373.5394        220.0004        166.0004
  -3425139.06749  -2650094.63245  23611593.1614   23611594.4214   23611598.9684
     -2227.7244      -1735.9034        217.0004        159.0004
 -17810533.89649 -13867446.74147  20929077.3884   20929077.8694   20929083.8384
      2079.8254       1620.6454        242.0004        209.0004
 -12030047.53549  -9359646.91447  20848294.6484   20848294.9534   20848298.3054
     -1175.2174       -915.7554        242.0004        208.0004
  -4631914.75249  -3600374.57845  24037429.6244   24037432.2434   24037437.3374
      2295.5014       1788.7034        213.0004        148.0004
 -17850613.63149 -13897489.46446  21911727.5464   21911727.6924   21911732.9484
     -2166.8584      -1688.4664        233.0004        185.0004
 -15098628.75849 -11740597.17846  22309861.2824   22309860.0304   22309864.1724
      2561.9734       1996.3424        228.0004        176.0004
 13  4 22  0 21  0.0000000  0  8G 5G26G29G24G15G18G 9G21
 -10267964.87949  -7957623.08746  23109715.4694   23109716.3944   23109722.5644
     -1643.1584      -1280.3974        223.0004        179.0004
 -13099078.13349  -9597902.19446  22591796.6594   22591797.4384   22591803.7434
     -3047.6384      -2374.7794        222.0004        167.0004
  -3358269.84849  -2597988.79845  23624319.2444   23624319.3434   23624324.9704
     -2230.2084      -1737.8174        217.0004        159.0004
 -17872693.65549 -13915882.90147  20917248.7414   20917249.3164   20917255.3214
      2064.1594       1608.4404        241.0004        209.0004
 -11994688.56249  -9332094.47847  20855022.8244   20855023.2144   20855027.0254
     -1182.0294       -921.0584        241.0004        208.0004
  -4700824.47349  -3654070.38845  24024317.6064   24024316.8724   24024323.2364
      2298.4504       1790.9994        212.0004        148.0004
 -17785346.43149 -13846631.95846  21924148.2824   21924147.8184   21924152.9184
     -2184.2884      -1702.0454        234.0004        186.0004
 -15175316.20949 -11800353.60446  22295267.5744   22295266.9204   22295270.3524
      2550.5514       1987.4464        229.0004        177.0004
 13  4 22  0 21 30.0000000  0  8G 5G26G29G24G15G18G 9G21
 -10218578.62249  -7919140.33646  23119113.3284   23119114.2944   23119120.2744
     -1649.2694      -1285.1484        223.0004        178.0004
 -13007626.27049  -9526641.09146  22609199.8754   22609200.6944   22609205.6524
     -3049.1904      -2375.9864        221.0004        166.0004
  -3291327.16149  -2545825.71045  23637057.5654   23637058.1734   23637062.5794
     -2232.6214      -1739.6954        216.0004        157.0004
 -17934383.17949 -13963952.64347  20905509.1214   20905509.9494   20905516.2814
      2048.4674       1596.2094        241.0004        209.0004
 -11959125.91149  -9304383.33547  20861789.8524   20861790.5224   20861793.9274
     -1188.8024       -926.3334        241.0004        208.0004
  -4769821.83749  -3707834.49645  24011188.4724   24011188.2494   24011193.0214
      2301.3844       1793.2854        212.0004        149.0004
 -17719558.38049 -13795368.58646  21936667.6064   21936667.3074   21936672.0364
     -2201.6214      -1715.5504        234.0004        186.0004
 -15251659.38749 -11859841.75046  22280740.0834   22280739.1944   22280742.2584
      2539.0034       1978.4424        229.0004        177.0004
 13  4 22  0 22  0.0000000  0  8G 5G26G29G24G15G18G 9G21
 -10169009.48449  -7880515.09346  23128546.4584   23128547.5834   23128552.5194
     -1655.3614      -1289.8834        225.0004        178.0004
 -12916129.39549  -9455344.92346  22626611.0504   22626611.2614   22626616.9434
     -3050.6484      -2377.1234        222.0004        166.0004
  -3224313.69449  -2493607.49945  23649809.1664   23649809.8414   23649816.3084
     -2234.9934      -1741.5524        215.0004        159.0004
 -17995600.33249 -14011654.30447  20893859.1414   20893860.4024   20893867.0584
      2032.6754       1583.9034        241.0004        209.0004
 -11923361.42449  -9276514.91647  20868595.4924   20868596.1214   20868599.9474
     -1195.5124       -931.5654        240.0004        208.0004
  -4838906.31949  -3761666.48745  23998042.4084   23998041.3964   23998046.8984
      2304.2494       1795.5184        213.0004        148.0004
 -17653251.97549 -13743701.31246  21949284.9304   21949284.6584   21949290.1884
     -2218.8404      -1728.9644        233.0004        185.0004
 -15327655.86449 -11919059.73246  22266277.9444   22266276.6074   22266280.1644
      2527.4204       1969.4254        227.0004        176.0004
 13  4 22  0 22 30.0000000  0  8G 5G26G29G24G15G18G 9G21
 -10119256.93849  -7841746.93646  23138014.5674   23138015.0594   23138020.0334
     -1661.4844      -1294.6624        225.0004        179.0004
 -12824589.49749  -9384015.24446  22644030.6574   22644030.9224   22644036.6404
     -3052.0644      -2378.2274        223.0004        167.0004
  -3157232.74249  -2441336.67345  23662575.0844   23662575.6894   23662581.2654
     -2237.1524      -1743.2314        217.0004        159.0004
 -18056342.88649 -14058986.15147  20882300.2534   20882301.3774   20882307.9454
      2016.8484       1571.5704        240.0004        209.0004
 -11887396.54149  -9248490.34947  20875439.5844   20875440.4164   20875443.9694
     -1202.1484       -936.7394        241.0004        208.0004
  -4908077.78149  -3815566.25145  23984878.9894   23984878.0084   23984884.0034
      2307.1524       1797.7864        213.0004        148.0004
 -17586429.33849 -13691631.78646  21962000.9094   21961999.9834   21962005.4854
     -2235.9954      -1742.3254        233.0004        183.0004
 -15403303.18049 -11978005.64446  22251882.1084   22251882.3614   22251886.2544
      2515.7234       1960.3134        227.0004        176.0004
 13  4 22  0 23  0.0000000  0  8G 5G26G29G24G15G18G 9G21
 -10069320.40649  -7802835.41546  23147517.4794   23147518.0544   23147523.1034
     -1667.6294      -1299.4474        226.0004        179.0004
 -12733008.44649  -9312653.49546  22661458.2524   22661458.9044   22661463.6734
     -3053.3814      -2379.2334        224.0004        169.0004
  -3090086.76349  -2389015.22045  23675352.2154   23675352.6554   23675357.7754
     -2239.1824      -1744.8244        218.0004        159.0004
 -18116608.78349 -14105946.58047  20870832.5694   20870833.4374   20870839.5914
      2000.9364       1559.1704        241.0004        210.0004
 -11851233.30249  -9220311.21847  20882320.8214   20882321.9774   20882325.6674
     -1208.7174       -941.8574        240.0004        207.0004
  -4977335.47749  -3869533.21445  23971699.1814   23971698.5484   23971704.6834
      2310.0214       1800.0254        211.0004        149.0004
 -17519092.77649 -13639161.80346  21974815.1144   21974814.0714   21974819.4764
     -2253.1004      -1755.6534        233.0004        183.0004
 -15478598.73049 -12036677.44646  22237554.3974   22237553.3324   22237557.4454
      2503.9704       1951.1424        228.0004        177.0004
 13  4 22  0 23 30.0000000  0  8G 5G26G29G24G15G18G 9G21
 -10019199.27549  -7763780.03746  23157055.5604   23157055.6554   23157060.4904
     -1673.7644      -1304.2304        227.0004        178.0004
 -12641388.25049  -9241261.22046  22678893.9454   22678892.7424   22678900.2854
     -3054.6304      -2380.2424        225.0004        169.0004
  -3022878.82149  -2336645.42645  23688143.2474   23688142.8234   23688147.7604
     -2241.2704      -1746.4404        218.0004        160.0004
 -18176396.30649 -14152534.24147  20859456.2744   20859456.8554   20859462.3664
      1984.9154       1546.6804        242.0004        210.0004
 -11814873.23949  -9191978.71547  20889240.1254   20889240.9164   20889244.6864
     -1215.2584       -946.9554        240.0004        208.0004
  -5046679.09649  -3923567.14045  23958503.7434   23958502.3414   23958510.4924
      2312.9274       1802.2764        210.0004        148.0004
 -17451244.91849 -13586293.39346  21987725.5914   21987725.4704   21987730.1484
     -2270.0894      -1768.9034        232.0004        182.0004
 -15553540.16149 -12095073.31846  22223293.0594   22223293.3294   22223296.7484
      2492.1704       1941.9404        227.0004        177.0004
 13  4 22  0 24  0.0000000  0  8G 5G26G29G24G15G18G 9G21
  -9968893.08049  -7724580.46646  23166629.3394   23166629.2384   23166633.2954
     -1679.9264      -1309.0254        228.0004        179.0004
 -12549730.73649  -9169839.88446  22696335.7384   22696335.2264   22696341.2384
     -3055.8864      -2381.2174        224.0004        166.0004
  -2955611.86349  -2284229.71445  23700941.8844   23700943.1914   23700948.9294
     -2243.2014      -1747.9294        216.0004        158.0004
 -18235703.30049 -14198747.46847  20848170.5624   20848170.6494   20848176.6444
      1968.8934       1534.2004        242.0004        210.0004
 -11778318.18549  -9163494.27247  20896196.2184   20896197.2374   20896200.7244
     -1221.7504       -952.0094        240.0004        207.0004
  -5116108.15849  -3977667.64545  23945291.8464   23945291.2654   23945297.6884
      2315.6724       1804.4164        213.0004        148.0004
 -17382888.16449 -13533028.43946  22000734.1344   22000733.0644   22000737.8064
     -2286.9994      -1782.0764        232.0004        181.0004
 -15628125.35649 -12153191.60646  22209099.9314   22209099.2284   22209103.9344
      2480.1804       1932.6014        227.0004        178.0004
 13  4 22  0 24 30.0000000  0  8G 5G26G29G24G15G18G 9G21
  -9918401.22349  -7685236.21846  23176237.8804   23176237.8714   23176242.0864
     -1686.1474      -1313.8824        229.0004        179.0004
 -12458037.78049  -9098390.92146  22713784.0574   22713783.5554   22713790.4244
     -3056.9914      -2382.0804        221.0004        165.0004
  -2888288.65249  -2231770.11845  23713754.8824   23713753.9324   23713759.2074
     -2245.0304      -1749.3774        218.0004        158.0004
 -18294527.28349 -14244584.33247  20836976.3304   20836976.8134   20836982.7454
      1952.7024       1521.5874        242.0004        211.0004
 -11741569.80949  -9134859.19347  20903189.1724   20903190.3614   20903194.0054
     -1228.1214       -956.9814        241.0004        208.0004
  -5185622.38949  -4031834.50345  23932062.9364   23932062.4694   23932068.6874
      2318.4824       1806.6064        212.0004        148.0004
 -17314025.12749 -13479368.97846  22013837.1724   22013836.4984   22013842.2124
     -2303.8534      -1795.2114        231.0004        180.0004
 -15702350.98249 -12211029.71446  22194974.8804   22194974.7064   22194978.7554
      2468.1884       1923.2574        227.0004        178.0004
 13  4 22  0 25  0.0000000  0  8G 5G26G29G24G15G18G 9G21
  -9867723.06349  -7645746.80046  23185881.2514   23185881.2074   23185886.3204
     -1692.4034      -1318.7464        227.0004        178.0004
 -12366311.38049  -9026915.91046  22731238.2564   22731238.1364   22731243.5744
     -3058.1004      -2382.9204        219.0004        163.0004
  -2820912.29249  -2179269.15145  23726575.3164   23726573.7244   23726580.5374
     -2246.7564      -1750.7134        212.0004        157.0004
 -18352866.54749 -14290043.49347  20825875.0234   20825875.1444   20825881.2194
      1936.5754       1509.0184        243.0004        211.0004
 -11704630.05249  -9106074.98647  20910219.2564   20910219.8614   20910223.1234
     -1234.4844       -961.9304        241.0004        208.0004
  -5255221.40049  -4086067.42945  23918817.8084   23918818.3394   23918824.7264
      2321.3084       1808.8034        209.0004        149.0004
 -17244658.02749 -13425316.75246  22027036.8904   22027037.0344   22027042.7824
     -2320.6154      -1808.2714        229.0004        178.0004
 -15776214.94749 -12268586.01046  22180919.1064   22180918.8074   22180922.8414
      2456.0974       1913.8424        229.0004        179.0004
 13  4 22  0 25 30.0000000  0  8G 5G26G29G24G15G18G 9G21
  -9816858.26449  -7606111.93046  23195559.9074   23195559.5944   23195564.4224
     -1698.6134      -1323.5874        226.0004        175.0004
 -12274553.34949  -8955416.26045  22748698.2994   22748698.7314   22748704.9774
     -3059.1334      -2383.7444        217.0004        162.0004
  -2753485.72849  -2126729.01845  23739406.6504   23739406.4184   23739411.5344
     -2248.4024      -1752.0054        216.0004        158.0004
 -18410718.92349 -14335123.26147  20814866.3794   20814866.2744   20814872.2304
      1920.2684       1496.3124        244.0004        212.0004
 -11667500.37749  -9077142.78847  20917284.5534   20917285.5294   20917288.9634
     -1240.8184       -966.8714        241.0004        208.0004
  -5324904.02649  -4140365.51245  23905558.5194   23905557.7194   23905563.7534
      2324.1484       1811.0234        211.0004        150.0004
 -17174789.27449 -13370873.63046  22040332.4694   22040332.3954   22040338.4064
     -2337.2984      -1821.2684        228.0004        179.0004
 -15849715.13849 -12325858.84846  22166932.5234   22166932.6644   22166936.8504
      2443.9114       1904.3444        229.0004        180.0004
 13  4 22  0 26  0.0000000  0  8G 5G26G29G24G15G18G 9G21
  -9765805.93149  -7566330.93846  23205274.4274   23205274.7814   23205279.4084
     -1704.8594      -1328.4554        224.0004        174.0004
 -12182765.53149  -8883893.36845  22766165.1454   22766165.6824   22766171.8694
     -3060.1294      -2384.5044        219.0004        162.0004
  -2686011.78849  -2074152.00945  23752244.2464   23752246.2214   23752251.8934
     -2249.8284      -1753.1054        213.0004        155.0004
 -18468082.57049 -14379822.20047  20803950.5424   20803950.3764   20803956.3854
      1903.9384       1483.5884        244.0004        212.0004
 -11630182.46849  -9048063.91347  20924386.4624   20924386.6484   20924389.9884
     -1247.0284       -971.7134        242.0004        208.0004
  -5394670.15449  -4194728.64845  23892281.9684   23892282.2854   23892288.1614
      2326.9264       1813.1864        212.0004        151.0004
 -17104421.53949 -13316041.69446  22053722.9964   22053723.7124   22053729.2264
     -2353.8874      -1834.2054        229.0004        180.0004
 -15922848.81149 -12382846.09746  22153015.3694   22153015.6084   22153019.7304
      2431.6554       1894.7754        229.0004        180.0004
 13  4 22  0 26 30.0000000  0  8G 5G26G29G24G15G18G 9G21
  -9714565.83449  -7526403.63846  23215024.1724   23215024.8804   23215030.2074
     -1711.1224      -1333.3494        223.0004        172.0004
 -12090949.78149  -8812348.72445  22783637.1544   22783638.1254   22783643.9654
     -3060.9894      -2385.1854        219.0004        162.0004
  -2618493.38949  -2021540.32445  23765093.4814   23765095.2024   23765100.3184
     -2251.3314      -1754.2814        215.0004        158.0004
 -18524955.47849 -14424138.75047  20793127.7794   20793128.0104   20793133.7354
      1887.5384       1470.8064        244.0004        212.0004
 -11592678.36249  -9018839.95547  20931522.9374   20931523.5554   20931527.1254
     -1253.2404       -976.5544        242.0004        208.0004
  -5464519.17349  -4249156.37445  23878991.1034   23878990.3054   23878996.3564
      2329.6684       1815.3264        214.0004        152.0004
 -17033557.57649 -13260823.07546  22067208.2714   22067208.5434   22067214.0014
     -2370.3764      -1847.0374        230.0004        181.0004
 -15995613.39549 -12439545.74346  22139168.4404   22139169.1554   22139172.2834
      2419.3024       1885.1704        229.0004        180.0004
 13  4 22  0 27  0.0000000  0  8G 5G26G29G24G15G18G 9G21
  -9663137.30049  -7486329.51246  23224810.9394   23224812.0844   23224816.6964
     -1717.4424      -1338.2634        222.0004        172.0004
 -11999107.91449  -8740783.71545  22801114.3494   22801116.0884   22801120.7804
     -3061.8554      -2385.8574        221.0004        162.0004
  -2550933.40449  -1968896.25745  23777950.1644   23777951.4954   23777956.1664
     -2252.6994      -1755.3634        215.0004        158.0004
 -18581335.75749 -14468071.43247  20782398.5104   20782398.7354   20782405.0884
      1871.1104       1458.0094        243.0004        212.0004
 -11554989.56349  -8989472.08047  20938695.3454   20938695.7434   20938699.0344
     -1259.3534       -981.3144        242.0004        208.0004
  -5534450.74349  -4303648.40445  23865683.2574   23865683.5004   23865688.6824
      2332.4214       1817.4634        213.0004        152.0004
 -16962199.73749 -13205219.61946  22080787.3514   22080788.6574   22080793.5304
     -2386.8004      -1859.8404        230.0004        181.0004
 -16068006.44749 -12495955.88946  22125392.4184   22125392.9804   22125396.5764
      2406.8934       1875.5104        230.0004        181.0004
 13  4 22  0 27 30.0000000  0  8G 5G26G29G24G15G18G 9G21
  -9611519.99849  -7446108.29446  23234633.4604   23234635.1144   23234639.8774
     -1723.6814      -1343.1404        223.0004        174.0004
 -11907241.81749  -8669199.83346  22818596.7114   22818597.6364   22818603.0304
     -3062.6524      -2386.4874        222.0004        163.0004
  -2483334.76749  -1916222.06445  23790815.3524   23790814.8014   23790820.3944
     -2253.9564      -1756.3334        219.0004        159.0004
 -18637221.10649 -14511618.45747  20771763.7124   20771764.2214   20771770.2444
      1854.5914       1445.1414        243.0004        212.0004
 -11517117.66049  -8959961.52947  20945902.5544   20945902.6204   20945905.9794
     -1265.4154       -986.0324        244.0004        209.0004
  -5604464.54849  -4358204.52345  23852361.1294   23852360.0254   23852365.4174
      2335.1484       1819.6024        215.0004        151.0004
 -16890350.55049 -13149233.30546  22094459.7014   22094460.3744   22094465.4444
     -2403.1434      -1872.5774        230.0004        180.0004
 -16140025.83049 -12552074.86346  22111688.3184   22111688.0094   22111691.6644
      2394.3874       1865.7614        230.0004        181.0004
 13  4 22  0 28  0.0000000  0  8G 5G26G29G24G15G18G 9G21
  -9559713.59849  -7405739.70946  23244493.1194   23244493.2394   23244498.0864
     -1730.0334      -1348.0854        226.0004        176.0004
 -11815353.23149  -8597598.43646  22836083.4714   22836083.2474   22836089.0054
     -3063.3004      -2386.9894        223.0004        165.0004
  -2415700.35349  -1863519.99245  23803685.4064   23803684.3284   23803690.3894
     -2255.0734      -1757.2074        216.0004        160.0004
 -18692609.91749 -14554778.56047  20761223.5174   20761224.1694   20761229.9384
      1838.0014       1432.2104        243.0004        212.0004
 -11479064.52649  -8930309.75447  20953143.9384   20953143.9614   20953147.5424
     -1271.4324       -990.7254        243.0004        209.0004
  -5674559.95349  -4412824.21645  23839021.7164   23839021.6034   23839027.4744
      2337.8604       1821.7034        215.0004        153.0004
 -16818012.37049 -13092865.95246  22108225.3304   22108225.8984   22108230.7754
     -2419.3984      -1885.2454        228.0004        179.0004
 -16211669.07449 -12607900.74246  22098054.9384   22098054.8184   22098058.4504
      2381.8254       1855.9684        230.0004        181.0004
 13  4 22  0 28 30.0000000  0  8G 5G26G29G24G15G18G 9G21
  -9507716.95649  -7365222.89546  23254388.0754   23254388.6744   23254393.2644
     -1736.3964      -1353.0414        227.0004        178.0004
 -11723443.96249  -8525980.91946  22853573.0884   22853574.1914   22853578.7434
     -3064.0074      -2387.5424        224.0004        164.0004
  -2348033.08849  -1810792.34445  23816561.9874   23816562.1524   23816567.9754
     -2256.1024      -1757.9904        215.0004        160.0004
 -18747500.58149 -14597550.50147  20750777.7394   20750778.9514   20750784.8504
      1821.3614       1419.2444        242.0004        212.0004
 -11440831.88349  -8900518.10847  20960419.4274   20960419.5464   20960422.6704
     -1277.4044       -995.3774        243.0004        208.0004
  -5744736.33149  -4467507.00145  23825666.9734   23825667.1504   23825673.0434
      2340.5474       1823.7934        215.0004        153.0004
 -16745188.07749 -13036119.81846  22122083.5234   22122083.9124   22122088.8914
     -2435.5504      -1897.8174        229.0004        178.0004
 -16282933.49949 -12663431.43546  22084493.4854   22084493.5734   22084497.7654
      2369.1444       1846.0664        230.0004        182.0004
 13  4 22  0 29  0.0000000  0  8G 5G26G29G24G15G18G 9G21
  -9455530.36549  -7324558.07046  23264318.8844   23264318.9564   23264324.6244
     -1742.7314      -1357.9704        227.0004        179.0004
 -11631515.77549  -8454348.66346  22871066.6364   22871067.1694   22871072.1034
     -3064.5894      -2387.9804        221.0004        163.0004
  -2280335.51349  -1758041.06745  23829443.8494   23829443.4244   23829449.5864
     -2257.1004      -1758.7774        216.0004        160.0004
 -18801890.72449 -14639932.42747  20740427.2624   20740428.4684   20740434.7684
      1804.6224       1406.2034        241.0004        212.0004
 -11402421.31949  -8870587.81847  20967728.8784   20967728.3734   20967732.1514
     -1283.2984       -999.9754        242.0004        208.0004
  -5814992.91649  -4522252.30745  23812297.3154   23812297.9964   23812302.4414
      2343.2064       1825.8724        215.0004        153.0004
 -16671880.36249 -12978996.98046  22136033.7054   22136033.6864   22136039.0064
     -2451.6284      -1910.3584        230.0004        178.0004
 -16353816.69449 -12718665.05946  22071004.4874   22071004.6744   22071009.4504
      2356.3994       1836.1584        229.0004        181.0004
 13  4 22  0 29 30.0000000  0  8G 5G26G29G24G15G18G 9G21
  -9403152.84949  -7283744.48646  23274286.0724   23274286.0774   23274292.1584
     -1749.1034      -1362.9344        228.0004        179.0004
 -11539570.51049  -8382703.09845  22888562.6164   22888562.6464   22888569.0794
     -3065.1104      -2388.3774        220.0004        161.0004
  -2212610.88949  -1705268.70445  23842330.8134   23842331.6794   23842337.3614
     -2257.8754      -1759.3874        217.0004        159.0004
 -18855778.73549 -14681923.07847  20730173.1044   20730174.0144   20730180.2924
      1787.8734       1393.1474        242.0004        212.0004
 -11363834.55049  -8840520.23247  20975071.1514   20975071.3014   20975074.9834
     -1289.1394      -1004.5274        242.0004        207.0004
  -5885329.30249  -4577059.78345  23798913.7084   23798914.5364   23798917.8214
      2345.8464       1827.9304        216.0004        154.0004
 -16598091.54249 -12921499.26346  22150075.8834   22150075.7784   22150080.2284
     -2467.6094      -1922.8124        231.0004        179.0004
 -16424316.17649 -12773599.68046  22057589.4144   22057588.8084   22057592.7004
      2343.5384       1826.1384        230.0004        181.0004
 13  4 22  0 30  0.0000000  0  8G 5G26G29G24G15G18G 9G21
  -9350583.85249  -7242781.70346  23284290.0934   23284290.2934   23284295.3344
     -1755.4484      -1367.8764        227.0004        179.0004
 -11447609.84349  -8311045.54046  22906062.2994   22906061.4544   22906068.7544
     -3065.6034      -2388.7854        220.0004        163.0004
  -2144861.98649  -1652477.43145  23855222.8344   23855224.0314   23855229.8474
     -2258.6064      -1759.9454        215.0004        158.0004
 -18909162.70949 -14723520.97847  20720014.2034   20720015.2694   20720021.6714
      1771.0564       1380.0454        242.0004        212.0004
 -11325073.32949  -8810316.70647  20982447.2144   20982446.8774   20982451.2364
     -1294.9354      -1009.0374        241.0004        207.0004
  -5955745.00649  -4631929.05745  23785514.4074   23785513.1144   23785518.8264
      2348.4734       1829.9864        217.0004        153.0004
 -16523824.31549 -12863628.76846  22164208.0614   22164209.0064   22164213.0274
     -2483.4924      -1935.1944        231.0004        179.0004
 -16494429.37349 -12828233.32446  22044247.9204   22044247.4704   22044251.1304
      2330.6894       1816.1164        231.0004        181.0004
 13  4 22  0 30 30.0000000  0  8G 5G26G29G24G15G18G 9G21
  -9297822.96749  -7201669.39446  23294329.9874   23294330.3314   23294334.6354
     -1761.9184      -1372.9184        226.0004        178.0004
 -11355635.57249  -8239377.35846  22923565.3264   22923564.4134   22923570.4334
     -3066.0814      -2389.1314        221.0004        163.0004
  -2077091.61349  -1599669.43045  23868118.0404   23868120.2324   23868125.7674
     -2259.3224      -1760.5084        211.0004        158.0004
 -18962040.85249 -14764724.72347  20709952.2534   20709953.0424   20709959.3044
      1754.0994       1366.8314        243.0004        212.0004
 -11286139.14549  -8779978.40547  20989856.1944   20989856.2064   20989859.9354
     -1300.6894      -1013.5244        242.0004        207.0004
  -6026239.30849  -4686859.58145  23772098.2694   23772098.1994   23772104.0184
      2351.1374       1832.0564        216.0004        154.0004
 -16449081.53949 -12805387.72246  22178431.6424   22178431.4134   22178436.4434
     -2499.3574      -1947.5454        231.0004        178.0004
 -16564154.35749 -12882564.44946  22030979.6814   22030979.2694   22030982.6594
      2317.6584       1805.9734        231.0004        181.0004
 13  4 22  0 31  0.0000000  0  8G 5G26G29G24G15G18G 9G21
  -9244869.79749  -7160407.25846  23304406.2994   23304406.4064   23304411.5864
     -1768.3204      -1377.9024        224.0004        178.0004
 -11263649.42249  -8167699.92446  22941070.0104   22941068.5234   22941076.1844
     -3066.4054      -2389.3954        222.0004        163.0004
  -2009302.71749  -1546847.00445  23881018.9794   23881021.3404   23881024.7944
     -2259.9914      -1761.0354        214.0004        156.0004
 -19014411.24549 -14805532.81548  20699987.0854   20699987.0794   20699993.4124
      1737.1964       1353.6604        243.0004        213.0004
 -11247033.67649  -8749506.62547  20997297.7104   20997297.5154   20997301.3954
     -1306.3514      -1017.9324        241.0004        206.0004
  -6096811.68649  -4741850.95945  23758668.9574   23758669.9134   23758673.6774
      2353.7084       1834.0534        215.0004        154.0004
 -16373865.58649 -12746777.96646  22192744.5334   22192745.0544   22192750.0894
     -2515.0494      -1959.7764        230.0004        178.0004
 -16633488.58149 -12936591.08446  22017785.5894   22017784.9134   22017788.8764
      2304.5884       1795.7874        231.0004        181.0004
 13  4 22  0 31 30.0000000  0  8G 5G26G29G24G15G18G 9G21
  -9191723.89649  -7118994.93846  23314518.7994   23314518.9924   23314525.1284
     -1774.7544      -1382.9224        222.0004        176.0004
 -11171653.14749  -8096014.60745  22958575.6834   22958575.9264   22958581.4204
     -3066.6704      -2389.6174        221.0004        161.0004
  -1941497.75349  -1494012.03345  23893921.4574   23893922.3724   23893928.3094
     -2260.4364      -1761.3724        210.0004        156.0004
 -19066272.52649 -14845944.20048  20690118.1034   20690118.2824   20690124.5414
      1720.2014       1340.4144        244.0004        213.0004
 -11207758.92149  -8718902.93647  21004771.3364   21004771.5994   21004775.2204
     -1311.9704      -1022.3154        241.0004        207.0004
  -6167461.81349  -4796902.92045  23745225.2164   23745225.4584   23745230.0554
      2356.2664       1836.0394        216.0004        153.0004
 -16298179.18149 -12687801.63546  22207147.2594   22207146.8064   22207152.3984
     -2530.7014      -1971.9734        229.0004        178.0004
 -16702429.39349 -12990311.16646  22004666.6544   22004665.6344   22004669.7314
      2291.4514       1785.5444        230.0004        181.0004
 13  4 22  0 32  0.0000000  0  8G 5G26G29G24G15G18G 9G21
  -9138384.38549  -7077431.74946  23324668.5904   23324669.8774   23324674.6774
     -1781.2134      -1387.9694        221.0004        174.0004
 -11079648.40549  -8024322.68145  22976083.6994   22976084.0514   22976089.9554
     -3066.9864      -2389.8624        220.0004        160.0004
  -1873680.10849  -1441167.21545  23906826.9304   23906828.6104   23906833.6554
     -2260.7704      -1761.6484        211.0004        154.0004
 -19117622.29949 -14885957.00648  20680346.9434   20680347.0324   20680352.9404
      1703.1194       1327.1074        246.0004        214.0004
 -11168316.24949  -8688168.40447  21012276.3064   21012276.9144   21012281.0064
     -1317.5544      -1026.6624        240.0004        206.0004
  -6238188.81049  -4852014.77545  23731767.2834   23731766.2014   23731771.0554
      2358.7934       1838.0234        216.0004        155.0004
 -16222025.31949 -12628461.05346  22221638.7454   22221638.2754   22221643.9644
     -2546.2564      -1984.0884        229.0004        177.0004
 -16770974.72649 -13043723.07946  21991622.7544   21991622.3954   21991625.6054
      2278.2354       1775.2444        231.0004        183.0004
 13  4 22  0 32 30.0000000  0  8G 5G26G29G24G15G18G 9G21
  -9084851.36349  -7035717.78346  23334855.7114   23334856.4074   23334862.2104
     -1787.6434      -1392.9804        222.0004        173.0004
 -10987636.94249  -7952625.53145  22993592.8954   22993593.3204   22993598.6044
     -3067.2054      -2390.0294        220.0004        160.0004
  -1805852.45949  -1388314.56645  23919733.7694   23919734.8764   23919740.3954
     -2261.0004      -1761.8194        206.0004        153.0004
 -19168459.32649 -14925570.27148  20670673.2444   20670672.9964   20670678.9834
      1686.0254       1313.7844        246.0004        214.0004
 -11128707.32449  -8657304.31947  21019813.8754   21019814.3684   21019818.1144
     -1323.0654      -1030.9584        240.0004        205.0004
  -6308991.63349  -4907185.71745  23718292.9714   23718292.2644   23718297.7434
      2361.3374       1840.0044        216.0004        155.0004
 -16145406.57649 -12568758.22946  22236218.7934   22236218.8764   22236223.5154
     -2561.6834      -1996.1114        227.0004        176.0004
 -16839122.17649 -13096824.96046  21978654.7494   21978654.0324   21978658.3184
      2264.9034       1764.8594        231.0004        184.0004
 13  4 22  0 33  0.0000000  0  8G 5G26G29G24G15G18G 9G21
  -9031124.40649  -6993852.70346  23345080.0374   23345081.2834   23345086.2054
     -1794.1464      -1398.0224        222.0004        172.0004
 -10895620.36049  -7880924.37845  23011102.6904   23011103.3834   23011109.8654
     -3067.2624      -2390.0714        221.0004        162.0004
  -1738017.60849  -1335456.35145  23932643.3724   23932644.0124   23932649.8024
     -2261.2394      -1762.0024        213.0004        153.0004
 -19218781.49749 -14964782.34948  20661097.1644   20661097.2534   20661102.9994
      1668.8114       1300.3714        246.0004        214.0004
 -11088933.35149  -8626311.62447  21027382.0354   21027383.0304   21027386.7174
     -1328.5304      -1035.2194        239.0004        205.0004
  -6379870.10549  -4962415.60245  23704806.4394   23704805.1224   23704811.0674
      2363.8684       1841.9564        218.0004        157.0004
 -16068325.58849 -12508695.20146  22250887.3934   22250886.4884   22250891.9684
     -2577.0384      -2008.0824        227.0004        175.0004
 -16906868.83849 -13149614.53946  21965762.8544   21965762.3154   21965766.5294
      2251.5264       1754.4364        232.0004        183.0004
 13  4 22  0 33 30.0000000  0  8G 5G26G29G24G15G18G 9G21
  -8977202.92549  -6951836.02846  23355340.9374   23355341.3514   23355347.4034
     -1800.6564      -1403.1154        223.0004        173.0004
 -10803600.37449  -7809220.57545  23028613.5704   23028615.6734   23028620.3404
     -3067.3904      -2390.1724        220.0004        161.0004
  -1670178.45349  -1282594.76745  23945553.5774   23945552.3894   23945558.7004
     -2261.3094      -1762.0554        209.0004        153.0004
 -19268587.15249 -15003591.95048  20651619.3014   20651619.5214   20651625.3734
      1651.5814       1286.9474        247.0004        214.0004
 -11048996.39949  -8595191.92447  21034981.7564   21034982.3584   21034986.7704
     -1333.9274      -1039.4274        238.0004        204.0004
  -6450823.57649  -5017703.93545  23691303.4364   23691302.3844   23691307.9714
      2366.3754       1843.9254        216.0004        154.0004
 -15990785.00349 -12448274.05846  22265643.0134   22265641.8734   22265647.5854
     -2592.3164      -2019.9774        227.0004        174.0004
 -16974213.12649 -13202090.58246  21952947.2824   21952947.2094   21952950.8034
      2238.0944       1743.9714        232.0004        184.0004
 13  4 22  0 34  0.0000000  0  8G 5G26G29G24G15G18G 9G21
  -8923086.35449  -6909667.33246  23365639.0124   23365639.8354   23365645.2174
     -1807.1474      -1408.1674        221.0004        172.0004
 -10711578.63749  -7737515.42545  23046124.5724   23046126.0224   23046131.6364
     -3067.4264      -2390.1984        220.0004        159.0004
  -1602337.71449  -1229731.94345  23958464.9344   23958463.1804   23958468.9764
     -2261.3464      -1762.0874        212.0004        152.0004
 -19317875.22749 -15041998.23448  20642239.8474   20642240.0484   20642246.1474
      1634.2924       1273.4694        246.0004        214.0004
 -11008898.06349  -8563946.48447  21042612.3624   21042613.1394   21042617.2734
     -1339.2884      -1043.5984        239.0004        204.0004
  -6521851.33349  -5073050.16445  23677787.1664   23677786.1394   23677790.9344
      2368.8314       1845.8514        218.0004        154.0004
 -15912787.38849 -12387496.77546  22280485.4144   22280484.8964   22280490.3524
     -2607.5204      -2031.8384        228.0004        176.0004
 -17041152.45649 -13254251.07346  21940209.6544   21940208.8014   21940212.8724
      2224.5494       1733.4094        233.0004        185.0004
 13  4 22  0 34 30.0000000  0  8G 5G26G29G24G15G18G 9G21
  -8868774.15149  -6867346.20846  23375973.8414   23375974.3384   23375980.8544
     -1813.6824      -1413.2554        221.0004        172.0004
 -10619556.82649  -7665810.20845  23063636.2544   23063636.7224   23063642.5974
     -3067.4244      -2390.1944        219.0004        159.0004
  -1534498.02949  -1176869.95045  23971373.0454   23971372.7804   23971379.0304
     -2261.2144      -1761.9884        211.0004        152.0004
 -19366643.63549 -15079999.59248  20632959.0764   20632959.7284   20632965.7924
      1616.9564       1259.9664        246.0004        214.0004
 -10968640.05049  -8532576.61047  21050273.0114   21050273.6774   21050278.2484
     -1344.5714      -1047.7164        238.0004        205.0004
  -6592952.57649  -5128453.63745  23664256.0464   23664255.3134   23664260.7144
      2371.2414       1847.7224        216.0004        155.0004
 -15834335.73049 -12326365.68646  22295414.6884   22295413.8974   22295419.4974
     -2622.5864      -2043.5764        227.0004        175.0004
 -17107684.60949 -13306094.28146  21927548.5854   21927548.2974   21927552.4754
      2210.9384       1722.7974        232.0004        185.0004
 13  4 22  0 35  0.0000000  0  8G 5G26G29G24G15G18G 9G21
  -8814266.00949  -6824872.39746  23386347.5444   23386348.4544   23386352.4784
     -1820.2184      -1418.3514        224.0004        172.0004
 -10527536.54949  -7594106.20045  23081146.9384   23081147.2004   23081153.2494
     -3067.3064      -2390.1124        218.0004        159.0004
  -1466662.48049  -1124011.20045  23984281.5924   23984281.7664   23984286.4704
     -2261.1364      -1761.9244        212.0004        153.0004
 -19414890.17249 -15117594.29248  20623777.6774   20623778.7754   20623784.9204
      1599.4824       1246.3504        245.0004        214.0004
 -10928224.00849  -8501083.60347  21057963.9954   21057965.1074   21057969.0464
     -1349.8124      -1051.8014        239.0004        205.0004
  -6664126.74849  -5183913.96545  23650712.4834   23650712.3754   23650717.5274
      2373.6904       1849.6354        217.0004        154.0004
 -15755432.76749 -12264882.93946  22310429.8764   22310428.4094   22310435.0584
     -2637.6224      -2055.2744        226.0004        175.0004
 -17173807.30549 -13357618.43146  21914965.3004   21914965.6374   21914969.7754
      2197.2144       1712.1134        231.0004        185.0004
 13  4 22  0 35 30.0000000  0  8G 5G26G29G24G15G18G 9G21
  -8759561.50549  -6782245.59146  23396757.3174   23396756.9474   23396762.8964
     -1826.7634      -1423.4464        225.0004        171.0004
 -10435519.37649  -7522404.62245  23098656.6454   23098656.4614   23098663.9574
     -3067.1994      -2390.0084        218.0004        157.0004
  -1398833.75149  -1071157.73645  23997187.8304   23997188.9624   23997195.1834
     -2260.8204      -1761.6754        210.0004        153.0004
 -19462614.49649 -15154782.07048  20614696.0874   20614696.9594   20614703.0904
      1582.0754       1232.7824        245.0004        214.0004
 -10887651.51749  -8469468.68247  21065684.6024   21065685.4534   21065689.9914
     -1355.0124      -1055.8534        238.0004        205.0004
  -6735373.27049  -5239430.62545  23637155.9644   23637155.0854   23637158.5944
      2376.0724       1851.4864        220.0004        155.0004
 -15676081.08649 -12203050.53446  22325528.4774   22325528.4954   22325534.8244
     -2652.5264      -2066.9004        224.0004        172.0004
 -17239518.23649 -13408821.72946  21902460.7174   21902460.6824   21902465.1374
      2183.4724       1701.3944        232.0004        185.0004
 13  4 22  0 36  0.0000000  0  8G 5G26G29G24G15G18G 9G21
  -8704660.04549  -6739465.29746  23407204.9564   23407205.2754   23407210.4484
     -1833.3674      -1428.6054        223.0004        170.0004
 -10343506.99749  -7450706.76545  23116166.5864   23116165.7214   23116172.4874
     -3066.9684      -2389.8494        217.0004        157.0004
  -1331014.58949  -1018311.72845  24010093.8334   24010094.7824   24010100.4934
     -2260.4364      -1761.3694        211.0004        155.0004
 -19509814.15649 -15191561.02148  20605714.0014   20605715.2634   20605721.1964
      1564.5534       1219.1354        245.0004        214.0004
 -10846924.18249  -8437733.11247  21073435.0704   21073435.6534   21073440.0134
     -1360.1594      -1059.8684        239.0004        205.0004
  -6806691.56949  -5295003.24245  23623583.7084   23623582.6024   23623587.1444
      2378.4804       1853.3494        220.0004        156.0004
 -15596283.50949 -12140870.67646  22340712.9794   22340713.3144   22340719.1134
     -2667.3634      -2078.4424        223.0004        171.0004
 -17304815.04549 -13459702.34646  21890035.2094   21890035.8434   21890038.8774
      2169.6244       1690.6184        232.0004        184.0004
 13  4 22  0 36 30.0000000  0  8G 5G26G29G24G15G18G 9G21
  -8649561.70649  -6696531.59746  23417690.0014   23417690.6874   23417695.9234
     -1839.8944      -1433.6874        224.0004        171.0004
 -10251500.95649  -7379013.84745  23133675.0694   23133674.3194   23133680.8214
     -3066.7754      -2389.6974        217.0004        156.0004
  -1263208.04249   -965475.57745  24022996.7854   24022998.3174   24023004.7084
     -2259.9554      -1761.0014        213.0004        156.0004
 -19556487.72949 -15227930.02748  20596832.7454   20596833.7004   20596839.4694
      1546.9884       1205.4464        245.0004        214.0004
 -10806043.50049  -8405878.05047  21081214.3974   21081215.0974   21081219.3614
     -1365.2254      -1063.8134        239.0004        205.0004
  -6878080.86449  -5350631.18045  23609999.3744   23609998.3094   23610003.2404
      2380.8144       1855.1714        220.0004        155.0004
 -15516042.99349 -12078345.66946  22355982.4944   22355982.6234   22355988.7514
     -2682.0134      -2089.8624        223.0004        171.0004
 -17369695.10549 -13510258.22146  21877689.1194   21877689.1564   21877693.1934
      2155.6934       1679.7574        230.0004        185.0004
 13  4 22  0 37  0.0000000  0  8G 5G26G29G24G15G18G 9G21
  -8594266.12749  -6653444.20746  23428212.6974   23428213.3184   23428217.7024
     -1846.4804      -1438.8144        226.0004        172.0004
 -10159502.84949  -7307327.11145  23151181.9784   23151181.7314   23151187.2784
     -3066.4724      -2389.4634        217.0004        156.0004
  -1195416.55649   -912651.15345  24035897.9214   24035898.1704   24035903.4494
     -2259.4044      -1760.5764        211.0004        156.0004
 -19602633.74149 -15263887.95148  20588051.4804   20588052.0674   20588058.1324
      1529.3874       1191.7304        245.0004        214.0004
 -10765011.07349  -8373904.75047  21089023.2324   21089023.5184   21089027.1694
     -1370.2624      -1067.7364        240.0004        205.0004
  -6949540.17849  -5406313.67645  23596400.5504   23596399.3994   23596404.7544
      2383.1204       1856.9814        220.0004        157.0004
 -15435362.28049 -12015477.65046  22371336.3504   22371336.1124   22371341.6864
     -2696.6924      -2101.3244        226.0004        172.0004
 -17434156.32949 -13560487.74146  21865422.5224   21865422.6504   21865426.2464
      2141.7014       1668.8604        231.0004        185.0004
 13  4 22  0 37 30.0000000  0  9G 5G26G29G12G24G15G18G 9G21
  -8538772.49549  -6610202.49546  23438773.0034   23438774.4544   23438778.6444
     -1853.1024      -1443.9714        226.0004        173.0004
 -10067514.26649  -7235647.78045  23168686.9464   23168687.6234   23168693.7184
     -3066.1184      -2389.1764        214.0004        156.0004
  -1127643.15149   -859840.83245  24048795.3644   24048795.3374   24048801.6284
     -2258.8024      -1760.0994        214.0004        155.0004
    -27362.32651     -3111.04853                                  25225064.2744
      2260.9004       1761.0774                         74.0004
 -19648250.51049 -15299433.48148  20579370.9864   20579371.6474   20579377.5674
      1511.7204       1177.9644        246.0004        214.0004
 -10723828.54749  -8341814.48447  21096860.4464   21096860.3104   21096863.8864
     -1375.2354      -1071.6154        241.0004        205.0004
  -7021068.59349  -5462050.02345  23582790.0614   23582788.4304   23582792.5334
      2385.4384       1858.7964        222.0004        156.0004
 -15354244.17149 -11952268.79046  22386772.4414   22386773.0694   22386779.3084
     -2711.2084      -2112.6054        226.0004        172.0004
 -17498196.46449 -13610389.13346  21853236.3054   21853236.0304   21853240.4574
      2127.6264       1657.8984        231.0004        185.0004
 13  4 22  0 38  0.0000000  0  8G 5G26G29G24G15G18G 9G21
  -8483080.31249  -6566806.06346  23449370.2504   23449371.2994   23449376.9404
     -1859.7324      -1449.1454        224.0004        173.0004
  -9975536.70249  -7163977.04345  23186190.0684   23186190.2224   23186196.8634
     -3065.7294      -2388.8744        217.0004        158.0004
  -1059890.86049   -807046.95845  24061689.7834   24061688.3564   24061693.5294
     -2258.0134      -1759.4924        215.0004        155.0004
 -19693336.63849 -15334565.51948  20570792.1004   20570792.0064   20570798.1244
      1494.0004       1164.1554        246.0004        214.0004
 -10682497.55149  -8309608.53147  21104725.9224   21104725.4174   21104729.1074
     -1380.1824      -1075.4724        242.0004        205.0004
  -7092665.95049  -5517840.09745  23569164.7794   23569163.3044   23569167.1634
      2387.6744       1860.5084        219.0004        156.0004
 -15272691.62549 -11888721.41146  22402291.7874   22402291.3364   22402297.2244
     -2725.6404      -2123.8774        226.0004        174.0004
 -17561813.20749 -13659960.60446  21841130.3674   21841129.8604   21841134.3884
      2113.4514       1646.8264        232.0004        185.0004
 13  4 22  0 38 30.0000000  0  8G 5G26G29G24G15G18G 9G21
  -8427189.46849  -6523254.82446  23460005.2084   23460005.7244   23460011.5344
     -1866.3314      -1454.2794        221.0004        171.0004
  -9883571.72649  -7092316.12145  23203689.9384   23203690.5674   23203696.9474
     -3065.2884      -2388.5304        217.0004        159.0004
   -992161.89449   -754271.26145  24074577.7064   24074576.5824   24074582.6904
     -2257.2314      -1758.8734        214.0004        154.0004
 -19737890.90549 -15369283.12348  20562313.4164   20562313.5344   20562319.8594
      1476.2304       1150.3114        246.0004        215.0004
 -10641019.76149  -8277288.19447  21112618.3014   21112618.2674   21112621.9384
     -1385.0304      -1079.2424        242.0004        205.0004
  -7164331.22649  -5573683.10645  23555526.9104   23555525.6924   23555531.1174
      2389.9634       1862.2984        220.0004        155.0004
 -15190707.34049 -11824837.62646  22417892.5514   22417892.2754   22417898.9454
     -2739.9514      -2135.0354        226.0004        175.0004
 -17625004.27049 -13709200.38646  21829105.8134   21829105.4824   21829109.3754
      2099.2634       1635.8004        232.0004        186.0004
 13  4 22  0 39  0.0000000  0  8G 5G26G29G24G15G18G 9G21
  -8371099.17549  -6479548.17146  23470678.7174   23470679.2124   23470685.5434
     -1872.9714      -1459.4614        221.0004        169.0004
  -9791620.87149  -7020666.19745  23221188.0154   23221187.6634   23221194.2544
     -3064.8204      -2388.1724        216.0004        159.0004
   -924459.01849   -701515.90545  24087461.3094   24087460.3454   24087466.9184
     -2256.2654      -1758.1224        215.0004        154.0004
 -19781911.46749 -15403584.85948  20553936.7724   20553936.7614   20553942.9444
      1458.4964       1136.4884        245.0004        215.0004
 -10599396.48649  -8244854.49447  21120539.8524   21120539.4824   21120542.6944
     -1389.8274      -1082.9874        242.0004        206.0004
  -7236063.81149  -5629578.56745  23541876.0944   23541875.4204   23541880.2074
      2392.1874       1864.0274        221.0004        155.0004
 -15108293.86049 -11760619.40746  22433575.0544   22433575.0944   22433582.6424
     -2754.2244      -2146.1434        225.0004        174.0004
 -17687767.93049 -13758107.12346  21817163.0404   21817162.5514   21817165.7554
      2084.9684       1624.6514        233.0004        186.0004
 13  4 22  0 39 30.0000000  0  8G 5G26G29G24G15G18G 9G21
  -8314809.72149  -6435686.36846  23481390.3404   23481390.9924   23481395.7534
     -1879.6594      -1464.6804        221.0004        168.0004
  -9699685.63649  -6949028.44545  23238682.7734   23238682.9154   23238688.9044
     -3064.2564      -2387.7284        216.0004        159.0004
   -856785.46749   -648783.39445  24100338.9924   24100338.9954   24100344.1344
     -2255.2664      -1757.3384        215.0004        154.0004
 -19825396.91949 -15437469.62748  20545661.3824   20545661.5584   20545667.9694
      1440.6034       1122.5494        246.0004        215.0004
 -10557629.38249  -8212308.72047  21128487.0934   21128487.1974   21128490.8194
     -1394.5974      -1086.6974        241.0004        206.0004
  -7307862.63449  -5685525.66345  23528212.8484   23528212.0484   23528217.3474
      2394.3954       1865.7564        221.0004        155.0004
 -15025454.38249 -11696069.24546  22449338.5414   22449339.1454   22449345.7854
     -2768.3704      -2157.1644        224.0004        173.0004
 -17750101.43949 -13806678.67546  21805301.0434   21805300.4844   21805304.2114
      2070.5974       1613.4434        233.0004        187.0004
 13  4 22  0 40  0.0000000  0  8G 5G26G29G24G15G18G 9G21
  -8258320.50649  -6391668.89546  23492139.9634   23492140.5664   23492146.4534
     -1886.3164      -1469.8624        220.0004        168.0004
  -9607767.52249  -6877404.05045  23256173.0864   23256174.3664   23256180.6114
     -3063.6624      -2387.2724        214.0004        159.0004
   -789143.74449   -596075.68045  24113211.3564   24113210.0754   24113215.5324
     -2254.1714      -1756.4934        213.0004        153.0004
 -19868346.02649 -15470936.46048  20537488.7884   20537488.9454   20537494.7604
      1422.6684       1108.5744        246.0004        215.0004
 -10515719.69549  -8179651.84647  21136462.4724   21136462.5764   21136465.8794
     -1399.3334      -1090.3854        242.0004        206.0004
  -7379727.25449  -5741524.01745  23514537.8304   23514536.5284   23514542.1724
      2396.5974       1867.4774        220.0004        156.0004
 -14942191.81949 -11631189.41146  22465182.9434   22465183.8334   22465190.0734
     -2782.4194      -2168.1174        223.0004        172.0004
 -17812002.79049 -13854913.46946  21793521.5494   21793520.3094   21793524.4974
      2056.1204       1602.1644        233.0004        187.0004
 13  4 22  0 40 30.0000000  0  9G 5G26G29G12G24G15G18G 9G21
  -8201631.13549  -6347495.46346  23502928.7654   23502928.5474   23502934.2194
     -1893.0244      -1475.0714        222.0004        169.0004
  -9515868.05449  -6805794.20345  23273661.8134   23273662.5534   23273669.3834
     -3063.0444      -2386.7664        216.0004        158.0004
   -721536.66949   -543394.97945  24126076.1794   24126076.4574   24126081.8404
     -2252.9604      -1755.5484        213.0004        156.0004
   -438888.19749   -324661.53345  25146523.6994   25146523.6534   25146531.9484
      2311.0754       1800.8344        206.0004        142.0004
 -19910757.41549 -15503984.29348  20529418.1304   20529418.1834   20529424.2264
      1404.7284       1094.5974        246.0004        215.0004
 -10473669.32749  -8146885.35547  21144464.2304   21144464.2764   21144468.2274
     -1404.0144      -1094.0384        242.0004        206.0004
  -7451656.65049  -5797572.84745  23500849.8884   23500849.5914   23500854.4354
      2398.7264       1869.1314        220.0004        158.0004
 -14858508.89549 -11565982.02246  22481107.5014   22481108.1134   22481114.1244
     -2796.4304      -2179.0294        224.0004        171.0004
 -17873469.78549 -13902809.80846  21781823.7554   21781823.7924   21781828.2664
      2041.6204       1590.8674        232.0004        187.0004
 13  4 22  0 41  0.0000000  0  9G 5G26G29G12G24G15G18G 9G21
  -8144741.42449  -6303165.91946  23513754.5124   23513754.9364   23513760.3654
     -1899.6694      -1480.2594        221.0004        171.0004
  -9423988.68149  -6734199.98945  23291145.3524   23291145.5524   23291153.1354
     -3062.3634      -2386.2484        214.0004        155.0004
   -653966.75749   -490743.22545  24138932.7094   24138932.8954   24138939.5384
     -2251.6964      -1754.5634        210.0004        154.0004
   -508343.79659   -378782.79355  25133307.6724   25133308.6284   25133316.2784
      2319.2854       1807.2364        205.0004        142.0004
 -19952629.77849 -15536612.10748  20521449.4074   20521450.2694   20521456.0604
      1386.7484       1080.5834        246.0004        215.0004
 -10431479.82649  -8114010.44647  21152492.8124   21152493.0124   21152496.5924
     -1408.6054      -1097.6174        242.0004        206.0004
  -7523650.33349  -5853671.77145  23487151.1674   23487149.3144   23487154.4934
      2400.8754       1870.8294        222.0004        157.0004
 -14774408.55349 -11500449.37546  22497111.5114   22497111.3604   22497117.1274
     -2810.2554      -2189.8054        224.0004        170.0004
 -17934500.39249 -13950366.11146  21770210.9314   21770209.8044   21770214.7694
      2027.0454       1579.5154        232.0004        187.0004
 13  4 22  0 41 30.0000000  0  9G 5G26G29G12G24G15G18G 9G21
  -8087650.69549  -6258679.72946  23524618.8364   23524618.0054   23524624.5134
     -1906.3974      -1485.4954        222.0004        170.0004
  -9332130.89149  -6662622.61145  23308624.9584   23308626.4964   23308633.2154
     -3061.6164      -2385.6704        212.0004        154.0004
   -586436.76949   -438122.59645  24151784.2594   24151786.3354   24151789.8934
     -2250.3074      -1753.4794        212.0004        154.0004
   -578041.80149   -433092.95645  25120043.1744   25120043.7414   25120054.6514
      2327.2464       1813.4354        204.0004        140.0004
 -19993961.67849 -15568818.78248  20513584.2964   20513585.1094   20513590.7724
      1368.7414       1066.5564        245.0004        215.0004
 -10389152.65549  -8081028.26047  21160547.1054   21160547.6444   21160551.2844
     -1413.1794      -1101.1734        241.0004        205.0004
  -7595707.26449  -5909819.99345  23473438.4454   23473438.5374   23473441.6144
      2402.9264       1872.4234        222.0004        157.0004
 -14689893.37549 -11434593.47446  22513194.5114   22513195.2994   22513200.3784
     -2824.0344      -2200.5334        224.0004        169.0004
 -17995092.20749 -13997580.49146  21758681.3224   21758679.6814   21758683.9654
      2012.3994       1568.0924        233.0004        187.0004
 13  4 22  0 42  0.0000000  0  9G 5G26G29G12G24G15G18G 9G21
  -8030358.76349  -6214036.76846  23535520.6964   23535521.1484   23535526.7484
     -1913.1004      -1490.7154        221.0004        169.0004
  -9240296.15349  -6591063.18645  23326102.5174   23326102.7304   23326108.9654
     -3060.8064      -2385.0354        216.0004        155.0004
   -518949.56249   -385535.29745  24164625.3194   24164627.1954   24164633.0904
     -2248.8694      -1752.3604        209.0004        153.0004
   -647980.44749   -487590.59745  25106734.4374   25106734.8044   25106744.0264
      2335.1924       1819.6344        208.0004        139.0004
 -20034751.99149 -15600603.43848  20505822.0454   20505823.1254   20505828.9484
      1350.6364       1052.4414        246.0004        216.0004
 -10346689.32249  -8047939.97447  21168626.7534   21168627.9534   21168631.7904
     -1417.6934      -1104.7004        240.0004        205.0004
  -7667826.56649  -5966016.80045  23459714.8464   23459714.0394   23459718.0634
      2404.9914       1874.0134        223.0004        158.0004
 -14604966.54549 -11368416.80346  22529355.6434   22529355.4054   22529361.6814
     -2837.7414      -2211.2124        222.0004        168.0004
 -18055242.95949 -14044451.19847  21747234.7034   21747234.1114   21747237.2404
      1997.6454       1556.6124        232.0004        188.0004
 13  4 22  0 42 30.0000000  0  9G 5G26G29G12G24G15G18G 9G21
  -7972865.54549  -6169236.95046  23546461.6294   23546461.7364   23546467.3064
     -1919.8344      -1495.9614        223.0004        170.0004
  -9148485.87849  -6519522.81845  23343572.9594   23343573.3934   23343579.4144
     -3059.9244      -2384.3544        218.0004        157.0004
   -451507.97249   -332983.56645  24177459.4404   24177460.7574   24177466.9204
     -2247.2254      -1751.0824        210.0004        153.0004
   -718157.41249   -542273.98545  25093379.2194   25093379.5834   25093388.8164
      2343.2244       1825.8904        204.0004        140.0004
 -20074999.16449 -15631964.87248  20498163.0924   20498164.0774   20498170.2024
      1332.5114       1038.3234        245.0004        216.0004
 -10304091.37249  -8014746.79047  21176733.2514   21176733.7174   21176737.8984
     -1422.1724      -1108.1834        239.0004        204.0004
  -7740007.51849  -6022261.64045  23445978.8284   23445977.9004   23445981.7894
      2407.0274       1875.6034        223.0004        157.0004
 -14519631.01249 -11301921.65946  22545594.4854   22545595.1174   22545600.4374
     -2851.3164      -2221.7934        223.0004        169.0004
 -18114950.80249 -14090976.77947  21735871.9704   21735871.3984   21735875.6594
      1982.8834       1545.1094        232.0004        188.0004
 13  4 22  0 43  0.0000000  0  9G 5G26G29G12G24G15G18G 9G21
  -7915170.47449  -6124279.83546  23557441.1024   23557441.2654   23557446.3184
     -1926.5544      -1501.2064        223.0004        171.0004
  -9056701.53249  -6448002.66145  23361039.0404   23361038.9584   23361046.7824
     -3059.0724      -2383.6864        218.0004        157.0004
   -384114.37249   -280469.19845  24190284.9094   24190285.7754   24190291.7734
     -2245.5964      -1749.8084        208.0004        151.0004
   -788570.69749   -597141.49245  25079981.2274   25079980.6174   25079990.9314
      2351.0394       1831.9784        202.0004        137.0004
 -20114701.79849 -15662901.99548  20490607.9144   20490608.9364   20490615.0144
      1314.3484       1024.1674        245.0004        216.0004
 -10261360.24549  -7981449.83147  21184864.0714   21184865.2884   21184869.4534
     -1426.5694      -1111.6154        239.0004        204.0004
  -7812249.21749  -6078553.82945  23432231.1574   23432230.5054   23432235.3254
      2409.0844       1877.2184        222.0004        158.0004
 -14433889.70149 -11235110.35146  22561910.4494   22561910.2254   22561917.2664
     -2864.7694      -2232.2884        224.0004        170.0004
 -18174213.21849 -14137155.28047  21724594.3124   21724594.0844   21724598.4084
      1967.9754       1533.4934        232.0004        188.0004
 13  4 22  0 43 30.0000000  0  9G 5G26G29G12G24G15G18G 9G21
  -7857273.22549  -6079165.17346  23568459.0134   23568459.6664   23568464.0524
     -1933.2794      -1506.4514        224.0004        173.0004
  -8964944.51849  -6376503.80445  23378499.6774   23378499.4884   23378507.3914
     -3058.0954      -2382.9224        215.0004        156.0004
   -316771.57349   -227994.46745  24203099.0504   24203100.9674   24203108.6254
     -2243.8694      -1748.4604        210.0004        151.0004
   -859218.18849   -652191.49645  25066535.7564   25066537.4114   25066544.5654
      2358.8044       1838.0264        202.0004        137.0004
 -20153859.10749 -15693414.18248  20483156.6514   20483157.5104   20483163.8244
      1296.1574       1009.9964        245.0004        216.0004
 -10218497.52449  -7948050.33047  21193020.8924   21193021.7404   21193026.0764
     -1430.9374      -1115.0164        238.0004        204.0004
  -7884550.86649  -6134892.71145  23418471.9544   23418471.8124   23418476.7814
      2411.0174       1878.7294        222.0004        159.0004
 -14347745.41849 -11167985.02146  22578303.7714   22578303.6824   22578310.4124
     -2878.1774      -2242.7464        223.0004        171.0004
 -18233028.38249 -14182985.26647  21713402.4364   21713401.8834   21713406.3664
      1953.0274       1521.8454        232.0004        188.0004
 13  4 22  0 44  0.0000000  0  9G 5G26G29G12G24G15G18G 9G21
  -7799173.26649  -6033892.56146  23579514.4764   23579515.4004   23579520.7374
     -1940.0474      -1511.7384        224.0004        172.0004
  -8873216.18549  -6305027.30245  23395954.8714   23395955.1954   23395963.4144
     -3057.1264      -2382.1754        216.0004        155.0004
   -249482.45549   -175561.55345  24215903.8174   24215905.3094   24215911.2494
     -2242.1114      -1747.0944        206.0004        148.0004
   -930097.88249   -707422.43945  25053048.6334   25053049.4704   25053057.5064
      2366.3974       1843.9414        201.0004        138.0004
 -20192469.44949 -15723500.16548  20475809.5734   20475810.2204   20475816.0944
      1277.8894        995.7564        246.0004        216.0004
 -10175504.48449  -7914549.28447  21201202.4414   21201203.2584   21201207.4654
     -1435.2404      -1118.3704        239.0004        204.0004
  -7956911.59049  -6191277.63445  23404702.2184   23404702.6474   23404706.3264
      2412.9894       1880.2684        221.0004        159.0004
 -14261201.20949 -11100548.07546  22594772.4874   22594772.6534   22594779.4394
     -2891.4474      -2253.0694        222.0004        171.0004
 -18291394.17349 -14228465.10147  21702295.8124   21702295.8164   21702299.1864
      1938.0014       1510.1304        233.0004        188.0004
 13  4 22  0 44 30.0000000  0  9G 5G26G29G12G24G15G18G 9G21
  -7740870.90649  -5988462.23246  23590608.8224   23590609.5504   23590614.9544
     -1946.7744      -1516.9624        223.0004        171.0004
  -8781517.92249  -6233574.24745  23413404.4964   23413405.1204   23413412.0844
     -3056.1244      -2381.3754        215.0004        154.0004
   -182249.45249   -123172.34645  24228698.2544   24228698.0854   24228704.9824
     -2240.0554      -1745.4944        207.0004        146.0004
  -1001207.54049   -762832.53745  25039515.2074   25039517.2604   25039525.4324
      2374.1584       1849.9864        199.0004        137.0004
 -20230531.82349 -15753159.16048  20468566.9404   20468567.1034   20468572.9634
      1259.5944        981.5064        246.0004        215.0004
 -10132382.85549  -7880948.04047  21209408.1294   21209409.0194   21209413.0524
     -1439.5004      -1121.6834        239.0004        204.0004
  -8029330.72249  -6247708.06645  23390921.2244   23390921.1424   23390927.0234
      2414.9514       1881.7644        222.0004        159.0004
 -14174260.13749 -11032801.89446  22611316.4224   22611317.1674   22611323.5134
     -2904.6354      -2263.3524        221.0004        169.0004
 -18349308.11449 -14273592.84647  21691274.9354   21691275.1774   21691278.2064
      1922.9354       1498.3954        234.0004        188.0004
 13  4 22  0 45  0.0000000  0  9G 5G26G29G12G24G15G18G 9G21
  -7682365.45249  -5942873.65046  23601741.7404   23601742.5784   23601748.6944
     -1953.5644      -1522.2564        220.0004        170.0004
  -8689851.18549  -6162145.72645  23430847.9224   23430847.9304   23430855.8524
     -3055.0974      -2380.5914        216.0004        153.0004
   -115075.69849    -70829.32345  24241483.0224   24241482.4184   24241488.0154
     -2238.1394      -1744.0044        211.0004        147.0004
  -1072545.21349   -818420.40245  25025942.5144   25025941.7244   25025948.9924
      2381.7024       1855.8694        204.0004        138.0004
 -20268045.05749 -15782390.25048  20461428.3154   20461428.4614   20461434.3384
      1241.2764        967.2284        246.0004        215.0004
 -10089134.36149  -7847247.93347  21217638.1624   21217638.8654   21217643.1564
     -1443.7494      -1124.9964        239.0004        204.0004
  -8101807.09349  -6304183.09845  23377128.9594   23377128.3804   23377134.2974
      2416.8054       1883.2244        219.0004        159.0004
 -14086924.74549 -10964748.45046  22627936.1734   22627935.8134   22627942.9124
     -2917.7244      -2273.5304        221.0004        170.0004
 -18406768.34749 -14318367.04647  21680340.5494   21680340.8444   21680344.3594
      1907.7504       1486.5614        233.0004        188.0004
 13  4 22  0 45 30.0000000  0  9G 5G26G29G12G24G15G18G 9G21
  -7623656.85349  -5897126.76746  23612912.9724   23612913.7384   23612920.8644
     -1960.3444      -1527.5334        219.0004        169.0004
  -8598217.27949  -6090742.80145  23448284.8674   23448285.4094   23448293.6244
     -3053.9574      -2379.6904        216.0004        153.0004
    -47963.51749    -18534.27745  24254253.7994   24254252.1664   24254259.9114
     -2236.0424      -1742.3684        207.0004        146.0004
  -1144108.52149   -874183.98145  25012323.3934   25012323.7734   25012332.7484
      2389.1424       1861.6664        199.0004        137.0004
 -20305008.14749 -15811192.66048  20454394.6114   20454394.7674   20454400.6074
      1222.8804        952.8934        246.0004        216.0004
 -10045759.98549  -7813449.74747  21225892.4824   21225892.6824   21225896.8394
     -1447.8864      -1128.2204        239.0004        203.0004
  -8174339.67049  -6360701.93045  23363327.0884   23363326.8424   23363332.1584
      2418.6664       1884.6764        221.0004        162.0004
 -13999197.89449 -10896389.94746  22644629.8394   22644630.0794   22644636.5194
     -2930.7344      -2283.7044        221.0004        169.0004
 -18463773.09349 -14362786.32647  21669493.4424   21669493.2054   21669496.6904
      1892.5164       1474.6764        233.0004        188.0004
 13  4 22  0 46  0.0000000  0  9G 5G26G29G12G24G15G18G 9G21
  -7564744.76449  -5851221.32446  23624123.9564   23624124.7394   23624131.2714
     -1967.1354      -1532.8334        220.0004        168.0004
  -8506617.50549  -6019366.46645  23465716.5974   23465717.9314   23465724.3024
     -3052.7854      -2378.7894        218.0004        155.0004
     19084.65349     33710.87545  24267009.6314   24267010.8544   24267019.3544
     -2233.8814      -1740.6824        207.0004        145.0004
  -1215895.29649   -930121.74045  24998665.0574   24998664.6184   24998673.1964
      2396.6264       1867.4964        207.0004        140.0004
 -20341419.50149 -15839565.14448  20447466.1084   20447466.1734   20447472.0044
      1204.4984        938.5704        246.0004        216.0004
 -10002261.29349  -7779554.68247  21234170.4634   21234170.3284   21234174.2174
     -1452.0284      -1131.4504        240.0004        204.0004
  -8246927.75249  -6417263.98745  23349513.5794   23349513.7964   23349519.9544
      2420.4954       1886.1034        219.0004        160.0004
 -13911082.68349 -10827728.84246  22661398.6414   22661397.9824   22661404.6614
     -2943.5914      -2293.7124        223.0004        170.0004
 -18520320.12449 -14406848.94747  21658732.7864   21658732.9634   21658736.4624
      1877.2324       1462.7734        234.0004        188.0004
 13  4 22  0 46 30.0000000  0  9G 5G26G29G12G24G15G18G 9G21
  -7505628.41849  -5805156.72546  23635373.1524   23635373.5714   23635381.9794
     -1973.9454      -1538.1264        219.0004        170.0004
  -8415053.21649  -5948017.76945  23483141.2254   23483140.3674   23483148.0294
     -3051.5994      -2377.8624        217.0004        155.0004
     86066.19349     85904.10945  24279757.6474   24279758.8754   24279767.0974
     -2231.5734      -1738.8774        207.0004        147.0004
  -1287903.42949   -986231.96045  24984960.9224   24984960.9844   24984968.3254
      2403.9214       1873.1864        204.0004        138.0004
 -20377278.23949 -15867507.01848  20440642.2884   20440642.3074   20440648.4724
      1186.0794        924.2164        246.0004        216.0004
  -9958639.66649  -7745563.82847  21242471.1454   21242471.2004   21242475.0744
     -1456.0744      -1134.6054        240.0004        203.0004
  -8319570.57949  -6473868.73145  23335689.6964   23335689.5334   23335695.4014
      2422.3024       1887.5124        221.0004        161.0004
 -13822582.25149 -10758767.55146  22678239.6244   22678239.4394   22678245.4374
     -2956.3974      -2303.6774        223.0004        172.0004
 -18576407.46949 -14450553.35647  21648059.6604   21648059.2774   21648063.1094
      1861.9134       1450.8414        233.0004        188.0004
 13  4 22  0 47  0.0000000  0  9G 5G26G29G12G24G15G18G 9G21
  -7446308.20849  -5758933.26546  23646662.6734   23646663.1554   23646670.0644
     -1980.7474      -1543.4334        222.0004        169.0004
  -8323525.82349  -5876697.82745  23500558.0864   23500557.9724   23500566.1184
     -3050.3094      -2376.8604        216.0004        152.0004
    152977.80349    138042.86545  24292490.8684   24292491.2834   24292497.7384
     -2229.3864      -1737.1784        206.0004        145.0004
  -1360130.58849  -1042512.86545  24971216.2154   24971217.4484   24971225.6944
      2411.2154       1878.8724        205.0004        139.0004
 -20412583.57449 -15895017.67548  20433923.5694   20433923.9474   20433930.2464
      1167.6024        909.8204        246.0004        216.0004
  -9914897.13849  -7711478.77347  21250795.3714   21250795.5924   21250798.9574
     -1460.0974      -1137.7334        240.0004        203.0004
  -8392267.29449  -6530515.44645  23321856.7674   23321856.1494   23321862.1334
      2424.0944       1888.9074        220.0004        161.0004
 -13733699.49349 -10689508.34046  22695154.2574   22695153.8904   22695160.5984
     -2969.0974      -2313.5734        225.0004        172.0004
 -18632033.01149 -14493897.92747  21637474.0374   21637474.1344   21637477.9694
      1846.4854       1438.8234        232.0004        188.0004
 13  4 22  0 47 30.0000000  0  9G 5G26G29G12G24G15G18G 9G21
  -7386783.54549  -5712550.50646  23657990.7114   23657990.4914   23657996.3734
     -1987.5694      -1548.7544        222.0004        169.0004
  -8232036.60249  -5805407.63845  23517968.5794   23517968.4234   23517974.8254
     -3049.0334      -2375.8654        214.0004        153.0004
    219817.35349    190125.43245  24305210.0074   24305211.5154   24305216.8434
     -2226.7194      -1735.1034        210.0004        147.0004
  -1432574.55349  -1098962.68545  24957431.5374   24957432.1894   24957438.7294
      2418.3824       1884.4464        205.0004        138.0004
 -20447334.00049 -15922095.93448  20427310.4194   20427311.0494   20427317.2174
      1149.0584        895.3684        246.0004        216.0004
  -9871034.55949  -7677300.15747  21259142.1754   21259142.0914   21259145.6644
     -1464.0844      -1140.8504        240.0004        203.0004
  -8465016.79649  -6587203.30245  23308012.2924   23308012.1244   23308017.7684
      2425.8454       1890.2694        219.0004        162.0004
 -13644437.32149 -10619953.47446  22712140.1514   22712139.6404   22712145.7484
     -2981.6944      -2323.4054        224.0004        171.0004
 -18687194.70449 -14536881.05746  21626977.4704   21626977.0054   21626981.1174
      1830.9714       1426.7334        232.0004        187.0004
 13  4 22  0 48  0.0000000  0  9G 5G26G29G12G24G15G18G 9G21
  -7327054.32549  -5666008.36146  23669356.8534   23669356.6804   23669362.0064
     -1994.3364      -1554.0204        222.0004        168.0004
  -8140586.81749  -5734148.18445  23535370.4124   23535371.4904   23535377.1764
     -3047.6504      -2374.7864        215.0004        152.0004
    286582.38849    242149.92745  24317914.5994   24317917.1204   24317923.2044
     -2224.2334      -1733.1664        210.0004        145.0004
  -1505233.37149  -1155579.92545  24943603.9254   24943602.2784   24943612.6224
      2425.4834       1889.9824        204.0004        141.0004
 -20481528.73949 -15948741.19048  20420803.2534   20420804.1024   20420810.0974
      1130.5684        880.9624        246.0004        217.0004
  -9827053.34949  -7643029.11247  21267511.4874   21267511.5144   21267515.2384
     -1467.9914      -1143.8864        240.0004        203.0004
  -8537818.08949  -6643931.50045  23294159.7514   23294159.1244   23294163.7614
      2427.5394       1891.5824        220.0004        161.0004
 -13554798.79449 -10550105.35946  22729197.5764   22729197.3824   22729203.5434
     -2994.1674      -2333.1114        224.0004        170.0004
 -18741890.51149 -14579501.15046  21616569.9934   21616568.8494   21616572.6054
      1815.3974       1414.5904        233.0004        187.0004
 13  4 22  0 48 30.0000000  0  9G 5G26G29G12G24G15G18G 9G21
  -7267120.45149  -5619306.73246  23680761.4164   23680761.0604   23680767.8424
     -2001.2224      -1559.3974        222.0004        169.0004
  -8049177.81349  -5662920.49345  23552765.9024   23552765.3954   23552772.8964
     -3046.2824      -2373.7274        215.0004        152.0004
    353270.31149    294114.35345  24330607.3434   24330607.3224   24330612.6934
     -2221.7534      -1731.2214        213.0004        145.0004
  -1578104.73249  -1212362.79645  24929739.0084   24929738.8604   24929746.1414
      2432.6424       1895.5574        207.0004        139.0004
 -20515166.84949 -15974952.70548  20414402.0854   20414402.8944   20414408.7694
      1111.9804        866.4814        246.0004        216.0004
  -9782955.04249  -7608666.81647  21275902.6784   21275903.3004   21275906.9294
     -1471.8544      -1146.9004        240.0004        204.0004
  -8610670.20849  -6700699.34145  23280295.0594   23280294.5024   23280299.7014
      2429.2574       1892.9274        218.0004        161.0004
 -13464786.74349 -10479966.19146  22746326.3974   22746325.5874   22746332.5384
     -3006.5644      -2342.7804        223.0004        170.0004
 -18796118.61549 -14621756.80746  21606250.3124   21606249.6024   21606253.3544
      1799.7964       1402.4314        234.0004        187.0004
 13  4 22  0 49  0.0000000  0  9G 5G26G29G12G24G15G18G 9G21
  -7206981.74749  -5572445.49746  23692205.4634   23692205.4654   23692212.0004
     -2008.0644      -1564.7234        219.0004        168.0004
  -7957810.79649  -5591725.51245  23570151.6734   23570151.5364   23570158.6934
     -3044.9434      -2372.6714        216.0004        151.0004
    419878.12449    346016.34845  24343283.3494   24343281.3094   24343288.4404
     -2218.9794      -1729.0624        215.0004        145.0004
  -1651186.65949  -1269309.68545  24915828.0494   24915829.9504   24915838.8534
      2439.5124       1900.9144        205.0004        139.0004
 -20548247.00349 -16000729.45248  20408106.6834   20408107.8964   20408113.7294
      1093.3414        851.9544        245.0004        217.0004
  -9738741.29449  -7574214.57247  21284316.8664   21284317.1284   21284320.6144
     -1475.7104      -1149.9064        240.0004        204.0004
  -8683572.39849  -6757506.17345  23266422.1404   23266422.3734   23266427.1604
      2430.8614       1894.1794        219.0004        162.0004
 -13374404.16749 -10409538.30646  22763525.1934   22763524.4444   22763532.0814
     -3018.8844      -2352.3634        222.0004        169.0004
 -18849877.11149 -14663646.54147  21596020.1494   21596019.4634   21596023.0484
      1784.0524       1390.1684        232.0004        188.0004
 13  4 22  0 49 30.0000000  0  9G 5G26G29G12G24G15G18G 9G21
  -7146637.81249  -5525424.32646  23703687.9824   23703688.5034   23703695.3684
     -2014.9304      -1570.0704        218.0004        166.0004
  -7866487.11449  -5520564.28645  23587530.8684   23587529.7184   23587536.3514
     -3043.3964      -2371.4854        215.0004        151.0004
    486403.31249    397853.94045  24355941.3074   24355939.2574   24355947.3384
     -2216.2214      -1726.9234        210.0004        145.0004
  -1724476.37849  -1326418.57145  24901883.8444   24901883.1784   24901891.8144
      2446.3854       1906.2714        206.0004        139.0004
 -20580768.90849 -16026071.20048  20401917.9214   20401919.2524   20401925.2804
      1074.7184        837.4444        245.0004        217.0004
  -9694412.94149  -7539673.01647  21292751.5704   21292752.4884   21292755.9424
     -1479.4924      -1152.8514        240.0004        203.0004
  -8756523.50049  -6814351.13245  23252539.8114   23252539.1834   23252546.0294
      2432.5184       1895.4684        217.0004        161.0004
 -13283654.11749 -10338824.06346  22780794.0824   22780794.5414   22780801.6234
     -3031.0634      -2361.8704        221.0004        167.0004
 -18903163.46549 -14705168.36347  21585881.0744   21585879.9214   21585883.4254
      1768.3144       1377.9094        233.0004        188.0004
 13  4 22  0 50  0.0000000  0  9G 5G26G29G12G24G15G18G 9G21
  -7086088.25649  -5478242.95446  23715210.1134   23715211.1534   23715216.6914
     -2021.7794      -1575.4224        218.0004        166.0004
  -7775207.95249  -5449437.76645  23604899.0724   23604899.4694   23604907.5164
     -3041.8784      -2370.2734        210.0004        148.0004
    552843.13449    449625.02745  24368583.9694   24368584.1974   24368590.8004
     -2213.2174      -1724.5754        211.0004        148.0004
  -1797971.89849  -1383687.75645  24887893.7214   24887895.6884   24887904.5294
      2453.1864       1911.5674        201.0004        137.0004
 -20612730.70149 -16050976.49348  20395836.4884   20395837.2244   20395843.3264
      1056.0424        822.8904        246.0004        217.0004
  -9649971.73049  -7505043.51647  21301208.1724   21301209.0054   21301212.9214
     -1483.2354      -1155.7704        239.0004        203.0004
  -8829522.47449  -6871233.40645  23238648.1514   23238648.8714   23238653.3804
      2434.1054       1896.7204        219.0004        161.0004
 -13192539.76449 -10267825.95946  22798132.6874   22798132.8984   22798139.0464
     -3043.2104      -2371.3484        220.0004        168.0004
 -18955976.34649 -14746321.24447  21575831.0974   21575829.6684   21575833.4634
      1752.5644       1365.6434        233.0004        188.0004
 13  4 22  0 50 30.0000000  0  9G 5G26G29G12G24G15G18G 9G21
  -7025332.92749  -5430901.25146  23726771.4844   23726772.6414   23726778.6504
     -2028.5884      -1580.7164        220.0004        169.0004
  -7683974.54849  -5378346.89745  23622260.8084   23622261.1624   23622269.7114
     -3040.3294      -2369.0774        210.0004        146.0004
    619195.19049    501327.72145  24381210.2804   24381210.5014   24381217.7284
     -2210.2094      -1722.2324        209.0004        149.0004
  -1871671.09849  -1441115.69645  24873875.5144   24873874.2324   24873884.0104
      2460.0314       1916.8964        201.0004        142.0004
 -20644132.23549 -16075445.22048  20389861.1714   20389861.5784   20389867.6944
      1037.3884        808.3544        247.0004        218.0004
  -9605419.43349  -7470327.46347  21309685.8474   21309687.0614   21309690.8104
     -1486.9054      -1158.6324        238.0004        202.0004
  -8902568.31149  -6928152.18846  23224748.9284   23224748.8634   23224753.6194
      2435.6384       1897.8914        220.0004        163.0004
 -13101064.00049 -10196546.24946  22815540.5014   22815539.7584   22815546.9444
     -3055.2004      -2380.6774        222.0004        165.0004
 -19008313.83349 -14787103.70047  21565871.4514   21565869.5414   21565874.0084
      1736.6524       1353.2344        234.0004        188.0004
 13  4 22  0 51  0.0000000  0  9G 5G26G29G12G24G15G18G 9G21
  -6964371.86249  -5383399.23146  23738372.4334   23738373.9274   23738379.2034
     -2035.4584      -1586.0544        221.0004        169.0004
  -7592788.15349  -5307292.66345  23639612.6304   23639614.4984   23639621.8284
     -3038.6664      -2367.7934        209.0004        147.0004
    685456.77749    552959.94245  24393819.0104   24393820.0524   24393826.5844
     -2207.2154      -1719.9024        210.0004        151.0004
  -1945571.49049  -1498700.34345  24859809.6574   24859811.0954   24859819.4404
      2466.7044       1922.1024        205.0004        142.0004
 -20674972.35149 -16099476.47848  20383992.3114   20383992.9184   20383998.9544
      1018.6344        793.7434        245.0004        218.0004
  -9560756.94649  -7435525.54147  21318185.4194   21318185.7564   21318190.2054
     -1490.5724      -1161.4914        238.0004        202.0004
  -8975660.25949  -6985106.89246  23210840.1994   23210839.1884   23210845.3904
      2437.1554       1899.0694        221.0004        165.0004
 -13009229.79449 -10124987.22046  22833015.8994   22833016.1684   22833022.7684
     -3067.0404      -2389.8984        220.0004        164.0004
 -19060173.91049 -14827514.15647  21556001.7774   21556002.0094   21556005.3374
      1720.7034       1340.8184        233.0004        188.0004
 13  4 22  0 51 30.0000000  0  9G 5G26G29G12G24G15G18G 9G21
  -6903204.88449  -5335736.75646  23750012.1784   23750012.7594   23750018.5074
     -2042.3144      -1591.4174        220.0004        166.0004
  -7501650.02649  -5236276.05345  23656956.4934   23656956.9434   23656964.7804
     -3037.0884      -2366.5644        210.0004        148.0004
    751625.14449    604519.50845  24406411.1254   24406412.5284   24406418.7054
     -2204.0224      -1717.4194        210.0004        152.0004
  -2019670.91149  -1556440.13345  24845711.0654   24845711.0594   24845717.1254
      2473.2514       1927.2134        209.0004        142.0004
 -20705250.07449 -16123069.50648  20378231.3804   20378231.4944   20378237.3854
       999.8604        779.1094        246.0004        218.0004
  -9515985.79149  -7400638.95647  21326704.6154   21326705.6064   21326709.6554
     -1494.1844      -1164.3014        239.0004        202.0004
  -9048797.21849  -7042096.70446  23196922.6624   23196923.2904   23196927.6474
      2438.6204       1900.2354        223.0004        165.0004
 -12917040.24849 -10053151.32846  22850558.7234   22850558.4434   22850564.7144
     -3078.8654      -2399.1124        221.0004        164.0004
 -19111554.54849 -14867551.01347  21546224.5284   21546224.5564   21546228.1964
      1704.6824       1328.3234        233.0004        189.0004
 13  4 22  0 52  0.0000000  0  9G 5G26G29G12G24G15G18G 9G21
  -6841831.58649  -5287913.53646  23761691.4054   23761692.4504   23761695.7324
     -2049.1994      -1596.7754        220.0004        164.0004
  -7410561.31249  -5165297.94045  23674288.9894   23674290.8304   23674297.3334
     -3035.4464      -2365.2854        210.0004        150.0004
    817698.30149    656004.91145  24418984.3574   24418985.4344   24418993.3444
     -2200.7764      -1714.8844        210.0004        150.0004
  -2093966.91549  -1614333.07345  24831571.0354   24831572.3294   24831581.2404
      2479.7554       1932.2714        203.0004        143.0004
 -20734964.79049 -16146223.82448  20372576.6464   20372576.7014   20372582.8924
       981.1114        764.5024        246.0004        218.0004
  -9471107.46849  -7365668.85247  21335245.1814   21335245.8014   21335249.5084
     -1497.6924      -1167.0254        239.0004        201.0004
  -9121978.01949  -7099120.65746  23182997.6354   23182996.5024   23183001.0544
      2440.1014       1901.3644        223.0004        166.0004
 -12824498.49949  -9981040.97946  22868169.2374   22868168.5554   22868175.3614
     -3090.5644      -2408.2294        221.0004        164.0004
 -19162453.78049 -14907212.75147  21536538.8314   21536538.5564   21536542.0634
      1688.6094       1315.7894        234.0004        189.0004
 13  4 22  0 52 30.0000000  0  9G 5G26G29G12G24G15G18G 9G21
  -6780252.02249  -5239929.56946  23773409.8004   23773410.6764   23773415.2834
     -2056.0124      -1602.0774        219.0004        165.0004
  -7319523.17749  -5094359.23745  23691613.4914   23691615.4164   23691622.7184
     -3033.7044      -2363.9214        210.0004        151.0004
    883673.58249    707414.02745  24431540.2934   24431539.7334   24431547.6624
     -2197.5464      -1712.3754        210.0004        152.0004
  -2168457.23449  -1672377.43545  24817398.0364   24817398.3264   24817406.4924
      2486.1774       1937.2794        208.0004        143.0004
 -20764115.85449 -16168938.93448  20367029.6104   20367029.5184   20367035.4554
       962.2934        749.8384        246.0004        218.0004
  -9426123.01449  -7330616.05347  21343805.2364   21343805.9324   21343809.7134
     -1501.2464      -1169.8014        239.0004        201.0004
  -9195201.65049  -7156177.98846  23169063.9604   23169063.8644   23169067.3954
      2441.4824       1902.4404        225.0004        167.0004
 -12731607.41449  -9908658.41746  22885844.9384   22885844.6854   22885851.8894
     -3102.1944      -2417.3124        219.0004        163.0004
 -19212869.55749 -14946497.77347  21526945.1654   21526944.5254   21526948.1464
      1672.4764       1303.2214        233.0004        188.0004
 13  4 22  0 53  0.0000000  0  9G 5G26G29G12G24G15G18G 9G21
  -6718465.64349  -5191784.45246  23785166.7294   23785167.4874   23785175.4474
     -2063.0134      -1607.5354        217.0004        163.0004
  -7228536.81149  -5023460.86645  23708928.0084   23708927.9154   23708937.6784
     -3031.9904      -2362.5814        212.0004        152.0004
    949548.19749    758744.71945  24444075.4164   24444075.4504   24444083.6024
     -2194.0664      -1709.6564        209.0004        151.0004
  -2243139.97249  -1730571.74545  24803184.7904   24803185.7474   24803195.9254
      2492.7384       1942.3944        205.0004        144.0004
 -20792702.06549 -16191213.89848  20361589.7414   20361589.6544   20361595.8384
       943.4484        735.1544        246.0004        218.0004
  -9381033.82849  -7295481.64347  21352386.3424   21352386.5104   21352390.1154
     -1504.6824      -1172.4784        240.0004        202.0004
  -9268466.94849  -7213267.79546  23155122.1354   23155120.8614   23155125.8844
      2442.8554       1903.5154        225.0004        167.0004
 -12638370.02149  -9836006.03346  22903588.3684   22903588.4724   22903595.5234
     -3113.6324      -2426.1964        221.0004        164.0004
 -19262800.64149 -14985405.11347  21517443.3384   21517443.1894   21517447.1184
      1656.2754       1290.5994        234.0004        189.0004
 13  4 22  0 53 30.0000000  0  9G 5G26G29G12G24G15G18G 9G21
  -6656473.20149  -5143478.76046  23796964.0404   23796964.1584   23796970.5534
     -2069.8354      -1612.8714        218.0004        164.0004
  -7137603.42049  -4952603.77145  23726233.0174   23726232.6274   23726241.4214
     -3030.2254      -2361.2054        214.0004        152.0004
   1015319.74149    809995.07945  24456590.9044   24456590.3314   24456598.0184
     -2190.6864      -1707.0224        208.0004        149.0004
  -2318012.07349  -1788913.58945  24788939.5854   24788938.7904   24788945.7394
      2498.8504       1947.1614        212.0004        144.0004
 -20820722.54449 -16213048.03848  20356257.1944   20356257.5454   20356263.7214
       924.5994        720.4714        246.0004        219.0004
  -9335841.54849  -7260266.90147  21360986.3934   21360986.1744   21360989.9744
     -1508.1064      -1175.1464        240.0004        202.0004
  -9341773.28049  -7270389.57646  23141172.3714   23141171.0354   23141175.9704
      2444.2574       1904.6224        226.0004        169.0004
 -12544789.21549  -9763086.04646  22921396.7614   22921396.1614   22921403.0294
     -3125.0334      -2435.0804        219.0004        163.0004
 -19312245.04949 -15023933.22847  21508034.0714   21508034.4514   21508037.9904
      1640.0054       1277.9304        234.0004        189.0004
 13  4 22  0 54  0.0000000  0  9G 5G26G29G12G24G15G18G 9G21
  -6594273.56649  -5095011.64646  23808801.3394   23808800.9834   23808807.4364
     -2076.7424      -1618.2454        220.0004        165.0004
  -7046724.06349  -4881788.78345  23743526.9054   23743527.0044   23743534.1504
     -3028.3954      -2359.7944        213.0004        152.0004
   1080985.55449    861163.04445  24469087.4274   24469087.7834   24469095.0424
     -2187.0594      -1704.1944        210.0004        148.0004
  -2393071.50749  -1847401.39045  24774653.7674   24774654.4774   24774662.8744
      2505.0754       1952.0044        208.0004        144.0004
 -20848176.84949 -16234441.00448  20351032.6534   20351033.2354   20351039.4344
       905.7274        705.7644        245.0004        219.0004
  -9290547.31249  -7224972.70847  21369605.6954   21369605.5114   21369609.0854
     -1511.4794      -1177.7694        240.0004        202.0004
  -9415119.66349  -7327542.56546  23127216.0064   23127214.0714   23127218.3644
      2445.5194       1905.6404        227.0004        168.0004
 -12450867.87849  -9689900.70745  22939267.8444   22939267.6534   22939276.6414
     -3136.3244      -2443.8994        218.0004        161.0004
 -19361200.88049 -15062080.62747  21498717.4884   21498718.4544   21498722.0054
      1623.7294       1265.2364        233.0004        190.0004
 13  4 22  0 54 30.0000000  0  9G 5G26G29G12G24G15G18G 9G21
  -6531866.90449  -5046383.21246  23820677.5504   23820677.5954   23820683.7244
     -2083.6644      -1623.6454        223.0004        166.0004
  -6955900.01649  -4811016.89645  23760810.3754   23760809.9244   23760818.6064
     -3026.5484      -2358.3414        213.0004        150.0004
   1146543.14649    912246.68745  24481563.9564   24481562.9014   24481570.0464
     -2183.4634      -1701.3964        207.0004        145.0004
  -2468315.90949  -1906033.37045  24760335.9164   24760336.4834   24760343.6904
      2511.2434       1956.8124        208.0004        144.0004
 -20875064.74049 -16255392.60648  20345915.8264   20345916.7694   20345922.9494
       886.7974        691.0104        245.0004        219.0004
  -9245152.55349  -7189600.19347  21378243.6514   21378243.5014   21378247.7744
     -1514.8224      -1180.3814        240.0004        201.0004
  -9488504.40949  -7384725.44146  23113250.1044   23113249.4824   23113254.0694
      2446.7934       1906.6044        227.0004        170.0004
 -12356609.29649  -9616452.58445  22957205.9584   22957205.6164   22957211.9654
     -3147.5334      -2452.6344        218.0004        160.0004
 -19409666.12349 -15099845.74947  21489495.3244   21489495.8854   21489499.0454
      1607.2984       1252.4374        234.0004        190.0004
 13  4 22  0 55  0.0000000  0  9G 5G26G29G12G24G15G18G 9G21
  -6469253.29349  -4997593.50046  23832591.3484   23832592.1054   23832597.5484
     -2090.5624      -1629.0044        218.0004        163.0004
  -6865132.22649  -4740288.84145  23778082.6024   23778082.8574   23778089.9794
     -3024.6254      -2356.8514        210.0004        149.0004
   1211990.17249    963244.20145  24494017.9354   24494018.1964   24494022.7984
     -2179.6594      -1698.4314        207.0004        147.0004
  -2543743.01549  -1964807.68945  24745981.1604   24745981.7594   24745991.8414
      2517.2614       1961.5004        206.0004        143.0004
 -20901384.83849 -16275901.77548  20340907.4424   20340908.2414   20340914.3664
       867.8864        676.2784        245.0004        219.0004
  -9199658.35849  -7154150.19047  21386901.2034   21386900.9294   21386904.6224
     -1518.1014      -1182.9384        240.0004        201.0004
  -9561926.56849  -7441937.47546  23099279.5894   23099277.6974   23099281.4734
      2448.0054       1907.5124        227.0004        169.0004
 -12262016.61349  -9542744.12145  22975205.4284   22975206.3914   22975213.0474
     -3158.6154      -2461.2504        215.0004        159.0004
 -19457639.26849 -15137227.41447  21480366.9244   21480366.8014   21480370.2154
      1590.8774       1239.6434        234.0004        190.0004
 13  4 22  0 55 30.0000000  0  9G 5G26G29G12G24G15G18G 9G21
  -6406432.54349  -4948642.38645  23844545.6704   23844546.6814   23844551.4674
     -2097.4584      -1634.3884        218.0004        161.0004
  -6774421.99549  -4669605.64245  23795345.0854   23795345.8064   23795352.8314
     -3022.7044      -2355.3514        210.0004        149.0004
   1277324.00649   1014153.50545  24506448.1594   24506448.5984   24506458.0864
     -2175.7764      -1695.4074        201.0004        143.0004
  -2619350.22449  -2023722.35245  24731593.1074   24731594.4784   24731602.4244
      2523.2244       1966.1494        206.0004        143.0004
 -20927136.95749 -16295968.36648  20336006.8324   20336007.7704   20336013.8354
       848.9284        661.5034        245.0004        219.0004
  -9154066.41749  -7118624.02847  21395576.3854   21395576.6794   21395580.4214
     -1521.3384      -1185.4584        240.0004        201.0004
  -9635385.36849  -7499178.05046  23085298.9594   23085298.2404   23085302.6684
      2449.2184       1908.4644        226.0004        168.0004
 -12167092.76949  -9468777.63345  22993268.8054   22993269.7384   22993276.1914
     -3169.6114      -2469.8204        217.0004        160.0004
 -19505118.39749 -15174224.13547  21471332.4404   21471331.7874   21471334.8684
      1574.4284       1226.8234        235.0004        190.0004
 13  4 22  0 56  0.0000000  0  9G 5G26G29G12G24G15G18G 9G21
  -6343404.41249  -4899529.69746  23856540.3924   23856540.8714   23856545.8614
     -2104.4134      -1639.7854        220.0004        164.0004
  -6683770.26749  -4598968.04345  23812595.0664   23812594.9634   23812602.5714
     -3020.7864      -2353.8604        213.0004        149.0004
   1342542.22049   1064972.67745  24518859.3834   24518860.4544   24518869.7994
     -2171.9054      -1692.3914        203.0004        145.0004
  -2695135.33349  -2082775.63145  24717174.4924   24717173.7924   24717181.2674
      2529.1554       1970.7684        210.0004        145.0004
 -20952320.20449 -16315591.68048  20331214.4494   20331215.4264   20331221.6024
       829.9664        646.7254        245.0004        219.0004
  -9108377.84149  -7083022.55247  21404270.9874   21404271.3254   21404274.6694
     -1524.5334      -1187.9454        240.0004        201.0004
  -9708879.57849  -7556446.23446  23071313.7474   23071312.6884   23071317.9614
      2450.3634       1909.3914        226.0004        168.0004
 -12071840.95449  -9394555.57145  23011395.4534   23011396.0644   23011402.6304
     -3180.4754      -2478.2834        216.0004        161.0004
 -19552102.06849 -15210834.77547  21462391.3324   21462390.8144   21462394.7764
      1557.8264       1213.8954        235.0004        190.0004
 13  4 22  0 56 30.0000000  0  9G 5G26G29G12G24G15G18G 9G21
  -6280168.71449  -4850255.26446  23868573.2284   23868573.3764   23868579.3554
     -2111.3164      -1645.1754        219.0004        164.0004
  -6593178.23849  -4528376.95745  23829833.9114   23829834.0314   23829841.6134
     -3018.7064      -2352.2364        211.0004        149.0004
   1407642.25449   1115699.81245  24531248.3054   24531248.4844   24531256.1664
     -2167.9444      -1689.3034        203.0004        144.0004
  -2771095.59249  -2141965.37745  24702718.9004   24702718.9584   24702726.2554
      2534.8404       1975.2034        208.0004        145.0004
 -20976934.07549 -16334771.32448  20326530.6334   20326531.6394   20326537.6704
       810.9374        631.8994        245.0004        219.0004
  -9062593.71049  -7047346.62447  21412982.8914   21412983.4564   21412987.2944
     -1527.7004      -1190.4094        238.0004        200.0004
  -9782407.93549  -7613741.02846  23057320.8564   23057320.8854   23057324.9594
      2451.4884       1910.2234        223.0004        167.0004
 -11976264.10649  -9320080.23246  23029583.9854   23029583.4254   23029590.6604
     -3191.1974      -2486.6464        218.0004        163.0004
 -19598588.51249 -15247057.97547  21453545.5994   21453544.8844   21453548.6684
      1541.2334       1200.9664        234.0004        191.0004
 13  4 22  0 57  0.0000000  0  9G 5G26G29G12G24G15G18G 9G21
  -6216725.48549  -4800819.10746  23880646.0994   23880646.5914   23880652.4374
     -2118.2254      -1650.5614        218.0004        163.0004
  -6502646.94249  -4457833.18345  23847061.9964   23847061.9094   23847068.9684
     -3016.8124      -2350.7524        214.0004        150.0004
   1472621.73649   1166332.97645  24543614.1994   24543614.1314   24543623.0774
     -2163.8414      -1686.1024        206.0004        145.0004
  -2847229.01749  -2201290.07145  24688230.4974   24688231.7784   24688239.5934
      2540.6424       1979.7134        208.0004        145.0004
 -21000977.61249 -16353506.55248  20321955.6084   20321956.3764   20321962.3574
       791.9684        617.1154        245.0004        219.0004
  -9016715.36449  -7011597.28147  21421713.2464   21421713.8474   21421717.8994
     -1530.8524      -1192.8684        238.0004        201.0004
  -9855969.43549  -7671061.65246  23043323.2474   23043321.5654   23043327.9544
      2452.6024       1911.1344        223.0004        166.0004
 -11880365.12449  -9245353.87146  23047832.0234   23047832.7334   23047839.3224
     -3201.9634      -2495.0254        217.0004        164.0004
 -19644575.79649 -15282892.21747  21444795.1804   21444794.3194   21444797.4934
      1524.5554       1187.9594        236.0004        191.0004
 13  4 22  0 57 30.0000000  0  9G 5G26G29G12G24G15G18G 9G21
  -6153074.86349  -4751221.35546  23892758.1374   23892758.6134   23892764.6524
     -2125.1904      -1655.9974        219.0004        163.0004
  -6412177.44649  -4387337.56545  23864277.2344   23864277.7864   23864286.0584
     -3014.6314      -2349.0664        214.0004        151.0004
   1537478.17949   1216870.31145  24555957.8804   24555956.2324   24555963.2574
     -2159.7404      -1682.9174        208.0004        145.0004
  -2923532.75749  -2260747.45545  24673709.9164   24673710.4154   24673720.3084
      2546.3004       1984.1284        206.0004        145.0004
 -21024450.99049 -16371797.50048  20317489.2704   20317489.6084   20317495.7604
       772.9104        602.2704        246.0004        219.0004
  -8970744.36449  -6975775.74947  21430460.6324   21430461.8214   21430465.4734
     -1533.8734      -1195.2264        238.0004        200.0004
  -9929562.89249  -7728407.16846  23029318.7304   23029317.9844   23029322.6804
      2453.6274       1911.9264        223.0004        168.0004
 -11784147.02249  -9170378.84146  23066142.4834   23066142.3844   23066149.5194
     -3212.5654      -2503.2934        218.0004        163.0004
 -19690062.26649 -15318336.22447  21436139.0184   21436138.0254   21436141.7894
      1507.8714       1174.9674        235.0004        191.0004
 13  4 22  0 58  0.0000000  0  9G 5G26G29G12G24G15G18G 9G21
  -6089216.53049  -4701461.76446  23904910.1224   23904911.8804   23904917.2684
     -2132.0504      -1661.3434        220.0004        164.0004
  -6321770.78349  -4316890.91945  23881481.1444   23881482.0894   23881487.9924
     -3012.5264      -2347.4154        212.0004        150.0004
   1602209.11449   1267309.80145  24568273.2044   24568272.4574   24568282.4454
     -2155.5574      -1679.6434        203.0004        145.0004
  -3000004.85249  -2320336.03645  24659158.4024   24659160.0274   24659165.5804
      2551.8874       1988.4854        204.0004        146.0004
 -21047352.97249 -16389643.20448  20313131.0474   20313131.2824   20313137.5984
       753.8814        587.4394        245.0004        219.0004
  -8924681.77649  -6939882.84447  21439226.7994   21439227.6264   21439231.0104
     -1536.9324      -1197.6094        239.0004        201.0004
 -10003186.89649  -7785776.47946  23015308.6174   23015308.0764   23015313.1654
      2454.6104       1912.6784        224.0004        167.0004
 -11687612.93449  -9095157.59445  23084511.7034   23084511.8214   23084518.7274
     -3223.0074      -2511.4244        218.0004        162.0004
 -19735046.28749 -15353388.69947  21427578.2344   21427577.4984   21427581.3094
      1491.0754       1161.8634        235.0004        190.0004
 13  4 22  0 58 30.0000000  0  9G 5G26G29G12G24G15G18G 9G21
  -6025150.41849  -4651540.27446  23917102.0294   23917103.4044   23917108.9904
     -2138.9874      -1666.7334        219.0004        166.0004
  -6231428.02049  -4246494.07845  23898672.2774   23898673.1624   23898680.9804
     -3010.4204      -2345.7844        210.0004        148.0004
   1666811.82249   1317649.36945  24580567.5494   24580568.2994   24580575.5544
     -2151.2864      -1676.3214        207.0004        145.0004
  -3076642.72749  -2380053.79545  24644571.7994   24644573.1944   24644585.8024
      2557.3654       1992.7454        202.0004        146.0004
 -21069683.59149 -16407043.69548  20308881.7994   20308881.9094   20308888.2934
       734.8144        572.5864        246.0004        219.0004
  -8878528.71049  -6903919.44447  21448009.5194   21448009.7834   21448014.0244
     -1539.9384      -1199.9504        238.0004        200.0004
 -10076840.56349  -7843168.92646  23001292.5964   23001292.1234   23001297.7524
      2455.6014       1913.4414        225.0004        168.0004
 -11590765.99549  -9019692.56145  23102941.5174   23102941.9334   23102949.3834
     -3233.3644      -2519.4954        216.0004        160.0004
 -19779525.93849 -15388048.16547  21419113.5634   21419113.6964   21419117.1594
      1474.2614       1148.7784        235.0004        190.0004
 13  4 22  0 59  0.0000000  0  9G 5G26G29G12G24G15G18G 9G21
  -5960876.22649  -4601456.61846  23929333.1394   23929333.5794   23929340.3004
     -2145.9214      -1672.1344        219.0004        166.0004
  -6141150.18249  -4176147.83445  23915852.2674   23915853.5874   23915860.1204
     -3008.1654      -2344.0124        208.0004        146.0004
   1731284.16949   1367887.39845  24592835.4444   24592837.4154   24592844.1504
     -2146.8814      -1672.8904        206.0004        147.0004
  -3153443.80849  -2439898.74545  24629959.8454   24629959.8524   24629970.1294
      2562.7514       1996.9534        206.0004        147.0004
 -21091442.05049 -16423998.34748  20304741.6214   20304741.4394   20304747.6644
       715.7214        557.7024        246.0004        219.0004
  -8832286.70049  -6867886.73947  21456809.3304   21456810.1914   21456813.5944
     -1542.8174      -1202.1884        238.0004        200.0004
 -10150522.65549  -7900583.53046  22987271.6474   22987270.8574   22987276.8564
      2456.5484       1914.1834        225.0004        169.0004
 -11493609.37549  -8943986.23145  23121430.1544   23121430.2744   23121437.0214
     -3243.7134      -2527.5604        214.0004        161.0004
 -19823500.02549 -15422313.68747  21410746.0114   21410745.5184   21410748.7674
      1457.2994       1135.5454        235.0004        192.0004
 13  4 22  0 59 30.0000000  0  9G 5G26G29G12G24G15G18G 9G21
  -5896394.32449  -4551211.11146  23941603.2614   23941604.9384   23941610.7354
     -2152.8234      -1677.5224        218.0004        164.0004
  -6050938.32749  -4105853.02245  23933018.8984   23933018.8514   23933027.7174
     -3005.9044      -2342.2624        208.0004        146.0004
   1795623.76949   1418021.92645  24605079.7664   24605080.4764   24605086.8454
     -2142.4174      -1669.4054        209.0004        147.0004
  -3230405.51949  -2499868.83245  24615312.9284   24615314.4514   24615324.3734
      2568.0514       2001.0754        207.0004        147.0004
 -21112627.77149 -16440506.70548  20300710.0154   20300710.0404   20300716.1714
       696.6544        542.8394        246.0004        219.0004
  -8785956.81649  -6831785.55347  21465625.5804   21465625.9274   21465629.7974
     -1545.7914      -1204.5074        237.0004        199.0004
 -10224232.05249  -7958019.38846  22973246.0764   22973245.2904   22973249.4944
      2457.4704       1914.9124        227.0004        170.0004
 -11396145.94849  -8868040.82145  23139976.9174   23139977.3414   23139984.7764
     -3253.8104      -2535.4344        216.0004        161.0004
 -19866966.95349 -15456184.03347  21402474.5754   21402474.3134   21402477.8494
      1440.4404       1122.4174        235.0004        192.0004
 13  4 22  1  0  0.0000000  0  9G 5G26G29G12G24G15G18G 9G21
  -5831704.57349  -4500803.68346  23953914.4434   23953914.2734   23953918.5964
     -2159.7954      -1682.9524        219.0004        163.0004
  -5960793.30449  -4035610.25445  23950173.5124   23950173.4324   23950180.5064
     -3003.7674      -2340.5974        210.0004        147.0004
   1859828.19049   1468051.14645  24617299.8794   24617299.4014   24617306.0004
     -2137.9344      -1665.9174        213.0004        148.0004
  -3307525.36849  -2559962.14045  24600639.9004   24600639.2164   24600648.7974
      2573.3054       2005.1734        206.0004        149.0004
 -21133240.73449 -16456568.75848  20296787.4204   20296787.4904   20296793.5904
       677.5354        527.9514        246.0004        219.0004
  -8739540.34949  -6795616.90847  21474458.5644   21474458.7174   21474462.6494
     -1548.6464      -1206.7364        238.0004        200.0004
 -10297967.49249  -8015475.54846  22959213.7194   22959213.4554   22959217.0874
      2458.2494       1915.5214        226.0004        170.0004
 -11298378.65749  -8791858.62646  23158581.6704   23158582.1414   23158588.6364
     -3263.8974      -2543.2994        220.0004        163.0004
 -19909925.17849 -15489657.97947  21394299.4714   21394299.0414   21394303.1264
      1423.4424       1109.1804        235.0004        192.0004
 13  4 22  1  0 30.0000000  0  9G 5G26G29G12G24G15G18G 9G21
  -5766806.98749  -4450234.32545  23966263.6144   23966263.9864   23966267.6384
     -2166.7284      -1688.3604        218.0004        160.0004
  -5870716.25549  -3965420.42945  23967314.8654   23967314.8084   23967322.5484
     -3001.4544      -2338.7904        213.0004        148.0004
   1923895.00649   1517973.15345  24629491.1094   24629490.1564   24629496.6914
     -2133.2644      -1662.2794        213.0004        147.0004
  -3384801.14349  -2620176.98745  24585932.1894   24585933.6794   24585944.3094
      2578.4194       2009.1554        205.0004        147.0004
 -21153280.22849 -16472183.95748  20292973.3424   20292974.0024   20292980.1394
       658.4384        513.0674        245.0004        219.0004
  -8693038.36149  -6759381.63047  21483308.0954   21483307.5954   21483311.9834
     -1551.4784      -1208.9394        239.0004        200.0004
 -10371727.98449  -8072951.23446  22945176.7874   22945177.3384   22945181.0674
      2459.1354       1916.2044        225.0004        169.0004
 -11200310.68449  -8715442.14046  23177243.9774   23177243.3684   23177250.4414
     -3273.9564      -2551.1344        219.0004        165.0004
 -19952372.98349 -15522734.18847  21386221.2784   21386221.7364   21386225.7234
      1406.4014       1095.8914        234.0004        192.0004
 13  4 22  1  1  0.0000000  0  9G 5G26G29G12G24G15G18G 9G21
  -5701701.21749  -4399502.70445  23978652.6064   23978652.3644   23978659.7034
     -2173.6594      -1693.7634        214.0004        160.0004
  -5780708.18549  -3895284.35845  23984442.6354   23984442.1754   23984450.0984
     -2999.1914      -2337.0314        211.0004        150.0004
   1987821.74949   1567786.02545  24641654.6154   24641655.2954   24641662.4224
     -2128.5334      -1658.5884        211.0004        147.0004
  -3462230.22749  -2680511.27645  24571199.8854   24571199.4244   24571209.8664
      2583.5054       2013.1194        206.0004        147.0004
 -21172745.95949 -16487352.06948  20289269.3074   20289269.8804   20289275.9364
       639.2754        498.1384        245.0004        219.0004
  -8646452.33949  -6723080.87347  21492172.9024   21492172.7954   21492176.7234
     -1554.2644      -1211.1064        239.0004        199.0004
 -10445512.16449  -8130445.36946  22931135.3784   22931136.7164   22931141.8184
      2459.8514       1916.7754        225.0004        170.0004
 -11101945.03149  -8638793.68846  23195962.1064   23195962.4124   23195968.9024
     -3283.7734      -2558.7694        219.0004        165.0004
 -19994308.59749 -15555411.30347  21378241.5794   21378241.9944   21378245.1664
      1389.2924       1082.5614        235.0004        192.0004
 13  4 22  1  1 30.0000000  0  9G 5G26G29G12G24G15G18G 9G21
  -5636387.41549  -4348608.96345  23991081.5234   23991081.9374   23991088.6064
     -2180.6364      -1699.1714        216.0004        161.0004
  -5690770.01949  -3825202.74245  24001557.6094   24001556.8314   24001564.7374
     -2996.8544      -2335.2154        213.0004        151.0004
   2051605.94849   1617487.81745  24653792.8744   24653792.0424   24653799.8754
     -2123.7654      -1654.8774        207.0004        146.0004
  -3539809.92249  -2740962.93245  24556433.6414   24556434.7984   24556444.2794
      2588.4154       2016.9434        202.0004        146.0004
 -21191637.52349 -16502072.76748  20285674.0674   20285674.9354   20285680.9824
       620.1704        483.2484        245.0004        219.0004
  -8599783.17749  -6686715.31547  21501053.1424   21501053.2994   21501057.8884
     -1557.0134      -1213.2514        237.0004        199.0004
 -10519318.70849  -8187956.94246  22917091.4414   22917091.0974   22917096.3214
      2460.5874       1917.3454        226.0004        169.0004
 -11003284.89349  -8561915.76746  23214736.4474   23214736.9154   23214743.3464
     -3293.5884      -2566.4394        218.0004        164.0004
 -20035730.85949 -15587688.39247  21370359.7114   21370359.3624   21370362.7944
      1372.1594       1069.2154        235.0004        192.0004
 13  4 22  1  2  0.0000000  0  9G 5G26G29G12G24G15G18G 9G21
  -5570865.70649  -4297553.25045  24003550.5924   24003550.9224   24003556.4484
     -2187.5434      -1704.5764        219.0004        160.0004
  -5600902.68849  -3755176.35045  24018657.7624   24018657.5314   24018666.7124
     -2994.4074      -2333.3054        211.0004        151.0004
   2115245.31149   1667076.75545  24665901.4374   24665903.6094   24665911.8634
     -2118.8794      -1651.0664        207.0004        147.0004
  -3617537.90549  -2801530.10845  24541645.3534   24541643.8474   24541653.4104
      2593.4574       2020.8694        203.0004        146.0004
 -21209954.64249 -16516345.84948  20282188.3764   20282189.2724   20282195.1864
       601.0114        468.3224        245.0004        219.0004
  -8553032.39649  -6650286.16747  21509950.1564   21509949.8164   21509953.9244
     -1559.6944      -1215.3464        239.0004        198.0004
 -10593146.52749  -8245485.07646  22903041.9894   22903041.9374   22903047.5054
      2461.2224       1917.8254        225.0004        169.0004
 -10904333.38749  -8484810.81146  23233566.2254   23233566.8274   23233575.0034
     -3303.2754      -2573.9744        219.0004        163.0004
 -20076638.06549 -15619564.13947  21362575.0944   21362574.6654   21362578.7094
      1354.9694       1055.8114        235.0004        192.0004
 13  4 22  1  2 30.0000000  0  9G 5G26G29G12G24G15G18G 9G21
  -5505136.38349  -4246335.74645  24016058.8234   24016059.2984   24016064.9224
     -2194.4104      -1709.9244        218.0004        159.0004
  -5511107.10449  -3685205.85145  24035745.8854   24035744.8364   24035754.9244
     -2991.9824      -2331.4114        210.0004        150.0004
   2178737.12749   1716550.73645  24677982.9574   24677983.7064   24677993.0994
     -2113.8544      -1647.1464        203.0004        145.0004
  -3695411.45249  -2862210.72745  24526825.0654   24526826.7074   24526832.7694
      2598.1534       2024.5384        205.0004        146.0004
 -21227697.31149 -16530171.30448  20278811.8994   20278813.0064   20278819.1044
       581.8184        453.3674        245.0004        219.0004
  -8506200.91549  -6613794.11947  21518861.5504   21518861.7014   21518865.8504
     -1562.3644      -1217.4274        237.0004        199.0004
 -10666994.29249  -8303028.76746  22888988.8094   22888990.0564   22888994.0314
      2461.9234       1918.3864        225.0004        169.0004
 -10805093.47349  -8407481.13146  23252451.0974   23252451.4744   23252458.8204
     -3312.7954      -2581.3984        217.0004        163.0004
 -20117028.33449 -15651037.08747  21354889.7144   21354888.8874   21354892.5884
      1337.7204       1042.3864        235.0004        192.0004
 13  4 22  1  3  0.0000000  0  9G 5G26G29G12G24G15G18G 9G21
  -5439198.65149  -4194955.85246  24028607.0674   24028607.0654   24028613.2774
     -2201.3864      -1715.3484        220.0004        163.0004
  -5421384.22449  -3615291.99745  24052819.3194   24052819.2554   24052828.7074
     -2989.4974      -2329.4854        210.0004        149.0004
   2242079.77749   1765908.46645  24690038.0624   24690039.4934   24690047.7694
     -2108.9754      -1643.3464        209.0004        145.0004
  -3773428.04849  -2923002.81545  24511981.3354   24511981.1654   24511989.2204
      2602.9514       2028.2704        208.0004        148.0004
 -21244864.89449 -16543548.64848  20275544.8104   20275545.9854   20275552.2494
       562.6574        438.4384        244.0004        219.0004
  -8459289.95849  -6577240.16047  21527787.8904   21527788.6194   21527792.9464
     -1565.0314      -1219.5024        238.0004        199.0004
 -10740860.54349  -8360586.84646  22874933.8364   22874933.0304   22874936.2864
      2462.5084       1918.8284        226.0004        170.0004
 -10705568.18449  -8329929.09145  23271390.1014   23271390.2564   23271398.1164
     -3322.2584      -2588.7604        216.0004        161.0004
 -20156900.65149 -15682106.42747  21347302.5994   21347301.5924   21347304.9244
      1320.4324       1028.9104        236.0004        192.0004
 13  4 22  1  3 30.0000000  0  9G 5G26G29G12G24G15G18G 9G21
  -5373053.13949  -4143414.05045  24041194.9344   24041193.9554   24041198.8454
     -2208.3074      -1720.7524        220.0004        161.0004
  -5331735.01949  -3545435.58345  24069878.4004   24069879.0004   24069889.0334
     -2987.0454      -2327.5684        207.0004        146.0004
   2305270.52549   1815147.84945  24702063.8614   24702064.1054   24702071.1534
     -2103.7824      -1639.3024        209.0004        145.0004
  -3851585.08749  -2983904.29845  24497108.4894   24497107.5184   24497117.2024
      2607.4994       2031.8224        209.0004        148.0004
 -21261457.32749 -16556477.81548  20272387.7504   20272388.7974   20272394.6634
       543.4994        423.5034        245.0004        219.0004
  -8412300.72149  -6540625.19147  21536729.4174   21536730.2714   21536734.6004
     -1567.5884      -1221.4984        237.0004        199.0004
 -10814744.21249  -8418158.49646  22860873.9664   22860873.3784   22860877.6354
      2463.0904       1919.2654        226.0004        170.0004
 -10605760.40649  -8252156.90945  23290382.7184   23290382.6644   23290391.0164
     -3331.5974      -2596.0434        215.0004        160.0004
 -20196253.18449 -15712770.73947  21339814.0634   21339813.0694   21339816.6774
      1303.1114       1015.4174        236.0004        192.0004
 13  4 22  1  4  0.0000000  0  9G 5G26G29G12G24G15G18G 9G21
  -5306699.66449  -4091710.21545  24053820.8994   24053820.8404   24053825.8144
     -2215.2114      -1726.1524        218.0004        158.0004
  -5242160.30849  -3475637.20845  24086925.0764   24086924.3144   24086933.2324
     -2984.6684      -2325.7214        204.0004        144.0004
   2368306.97949   1864267.00545  24714059.2384   24714058.7534   24714067.1484
     -2098.5714      -1635.2444        204.0004        144.0004
  -3929880.12149  -3044913.35345  24482208.6534   24482209.1434   24482215.5114
      2612.1164       2035.4114        210.0004        147.0004
 -21277474.52049 -16568958.74048  20269340.0334   20269340.7474   20269346.7234
       524.3044        408.5474        245.0004        219.0004
  -8365234.46649  -6503950.20747  21545686.2664   21545686.9344   21545691.1504
     -1570.1444      -1223.4874        239.0004        200.0004
 -10888643.90249  -8475742.63146  22846810.9344   22846810.1754   22846815.3794
      2463.5654       1919.6534        225.0004        170.0004
 -10505673.53749  -8174167.27345  23309428.9064   23309429.1184   23309436.3394
     -3340.8534      -2603.2454        215.0004        158.0004
 -20235085.06049 -15743029.34547  21332424.3824   21332423.5414   21332426.8394
      1285.7184       1001.8634        235.0004        192.0004
 13  4 22  1  4 30.0000000  0  9G 5G26G29G12G24G15G18G 9G21
  -5240138.19949  -4039844.30945  24066485.6754   24066485.5354   24066492.4774
     -2222.1394      -1731.5304        216.0004        157.0004
  -5152661.01549  -3405897.61445  24103957.2194   24103956.4854   24103964.3814
     -2982.0584      -2323.6714        203.0004        142.0004
   2431186.75449   1913264.01445  24726024.8524   24726025.8494   24726032.8624
     -2093.3774      -1631.2014        207.0004        145.0004
  -4008310.66949  -3106028.00745  24467283.7364   24467283.0784   24467292.2674
      2616.5384       2038.8584        210.0004        147.0004
 -21292916.15149 -16580991.18248  20266401.7274   20266402.1964   20266408.5004
       505.1284        393.6054        245.0004        219.0004
  -8318092.30549  -6467216.07847  21554656.9844   21554657.7254   21554661.9544
     -1572.6574      -1225.4494        238.0004        200.0004
 -10962558.64849  -8533338.50346  22832745.8574   22832744.0974   22832749.1884
      2464.0494       1920.0284        227.0004        169.0004
 -10405310.42849  -8095962.39345  23328527.4614   23328527.6974   23328536.3984
     -3350.0084      -2610.3844        216.0004        160.0004
 -20273394.63149 -15772880.96047  21325134.3714   21325133.5234   21325137.1354
      1268.2584        988.2554        235.0004        192.0004
 13  4 22  1  5  0.0000000  0  9G 5G26G29G12G24G15G18G 9G21
  -5173368.84149  -3987816.40745  24079191.9204   24079192.5784   24079200.5744
     -2229.0994      -1736.9524        216.0004        161.0004
  -5063238.06349  -3336217.51945  24120972.3074   24120971.7384   24120982.1984
     -2979.4514      -2321.6404        204.0004        143.0004
   2493907.57049   1962137.21745  24737960.8764   24737960.9804   24737968.4004
     -2088.0824      -1627.0734        202.0004        142.0004
  -4086873.91849  -3167246.04145  24452334.6574   24452333.8114   24452341.8574
      2620.9524       2042.3014        212.0004        150.0004
 -21307781.76849 -16592574.77948  20263573.2834   20263573.4064   20263579.6314
       485.9104        378.6334        246.0004        219.0004
  -8270875.21649  -6430423.56347  21563642.0684   21563642.7364   21563647.2154
     -1575.1424      -1227.3754        238.0004        199.0004
 -11036486.90249  -8590944.88546  22818677.6124   22818677.7984   22818681.5104
      2464.5354       1920.4094        226.0004        170.0004
 -10304674.13549  -8017544.62945  23347677.9084   23347677.3974   23347684.7984
     -3359.1024      -2617.4744        215.0004        158.0004
 -20311180.47149 -15802324.47647  21317943.8404   21317943.2014   21317946.5574
      1250.7634        974.6254        235.0004        193.0004
 13  4 22  1  5 30.0000000  0  9G 5G26G29G12G24G15G18G 9G21
  -5106391.70549  -3935626.58845  24091936.3024   24091937.3514   24091944.9704
     -2236.0504      -1742.3754        213.0004        161.0004
  -4973892.31449  -3266597.57845  24137974.8244   24137975.0984   24137983.8694
     -2976.9134      -2319.6694        210.0004        142.0004
   2556467.16349   2010884.75545  24749865.5444   24749865.8664   24749873.4674
     -2082.5424      -1622.7524        204.0004        142.0004
  -4165567.32749  -3228565.50945  24437358.1084   24437359.4284   24437366.2734
      2625.3344       2045.7094        209.0004        148.0004
 -21322071.68049 -16603709.77448  20260853.6434   20260853.7174   20260860.0764
       466.7424        363.6914        245.0004        218.0004
  -8223584.23249  -6393573.47247  21572641.8474   21572641.8734   21572646.2914
     -1577.5734      -1229.2744        238.0004        199.0004
 -11110427.15449  -8648560.63346  22804608.1664   22804607.6504   22804611.5494
      2464.8054       1920.6304        228.0004        170.0004
 -10203767.94849  -7938916.55145  23366879.6244   23366880.2164   23366887.1554
     -3367.9714      -2624.3914        215.0004        158.0004
 -20348440.96549 -15831358.62547  21310853.3614   21310852.4874   21310856.1454
      1233.2514        960.9744        235.0004        193.0004
 13  4 22  1  6  0.0000000  0  9G 5G26G29G12G24G15G18G 9G21
  -5039206.83049  -3883274.90945  24104721.2734   24104722.7224   24104730.7404
     -2242.9504      -1747.7414        215.0004        161.0004
  -4884624.59949  -3197038.42145  24154962.9524   24154961.1934   24154969.9894
     -2974.3024      -2317.6344        211.0004        142.0004
   2618863.41649   2059505.04645  24761739.6794   24761739.4944   24761748.4534
     -2077.1304      -1618.5364        206.0004        142.0004
  -4244388.34749  -3289984.42945  24422361.4184   24422359.8834   24422367.9464
      2629.4704       2048.9344        211.0004        148.0004
 -21335785.44249 -16614395.83048  20258244.1164   20258244.1524   20258250.7294
       447.5664        348.7574        244.0004        218.0004
  -8176220.59049  -6356666.76147  21581654.0974   21581654.9854   21581659.3534
     -1579.9864      -1231.1524        237.0004        198.0004
 -11184378.38749  -8706184.92646  22790535.4534   22790534.5364   22790538.7024
      2465.2144       1920.9184        227.0004        171.0004
 -10102594.78849  -7860080.45545  23386132.3034   23386133.1454   23386139.3214
     -3376.8244      -2631.2924        216.0004        157.0004
 -20385175.04149 -15859982.58947  21303862.5964   21303862.3004   21303866.2184
      1215.6964        947.2944        235.0004        194.0004
 13  4 22  1  6 30.0000000  0  9G 5G26G29G12G24G15G18G 9G21
  -4971814.47249  -3830761.55646  24117547.2514   24117548.0364   24117556.0374
     -2249.8754      -1753.1484        215.0004        164.0004
  -4795435.79549  -3127540.74045  24171934.3204   24171934.7484   24171941.7444
     -2971.6514      -2315.5694        211.0004        141.0004
   2681094.01049   2107996.27845  24773579.3994   24773580.2214   24773588.5934
     -2071.5714      -1614.2124        202.0004        139.0004
  -4323334.18249  -3351500.61345  24407337.2224   24407337.2554   24407344.8934
      2633.6114       2052.1604        210.0004        150.0004
 -21348923.32349 -16624633.14648  20255744.1194   20255744.0914   20255750.5174
       428.3494        333.7794        244.0004        218.0004
  -8128785.58849  -6319704.45547  21590681.5814   21590681.6914   21590685.6664
     -1582.3534      -1232.9994        238.0004        198.0004
 -11258339.24849  -8763816.72846  22776460.6034   22776460.8364   22776464.1924
      2465.5034       1921.1724        227.0004        171.0004
 -10001157.49949  -7781038.54345  23405435.3354   23405436.4064   23405443.5874
     -3385.6244      -2638.1494        215.0004        156.0004
 -20421381.28449 -15888195.24947  21296972.8774   21296973.0174   21296976.8054
      1198.0614        933.5544        235.0004        195.0004
 13  4 22  1  7  0.0000000  0  9G 5G26G29G12G24G15G18G 9G21
  -4904214.48549  -3778086.44545  24130411.2164   24130410.8954   24130418.5914
     -2256.8034      -1758.5344        216.0004        162.0004
  -4706326.71349  -3058105.20045  24188891.1634   24188892.1174   24188898.5324
     -2968.9704      -2313.4854        210.0004        140.0004
   2743156.54949   2156356.53445  24785390.4054   24785392.7364   24785400.0134
     -2065.8804      -1609.7724        204.0004        141.0004
  -4402402.55649  -3413112.24745  24392291.2474   24392290.9454   24392298.7804
      2637.6124       2055.2784        212.0004        150.0004
 -21361484.74449 -16634421.27148  20253353.7514   20253353.8754   20253359.7794
       409.1364        318.8104        244.0004        218.0004
  -8081280.25349  -6282687.33247  21599721.2504   21599721.1274   21599725.8824
     -1584.6494      -1234.7884        237.0004        197.0004
 -11332308.52649  -8821455.08946  22762385.8474   22762384.5524   22762388.8394
      2465.7984       1921.3954        229.0004        172.0004
  -9899459.31049  -7701793.34745  23424788.1444   23424788.1214   23424795.9054
     -3394.2264      -2644.8444        214.0004        156.0004
 -20457058.35749 -15915995.57947  21290183.6584   21290183.6114   21290187.6664
      1180.4124        919.8024        235.0004        195.0004
 13  4 22  1  7 30.0000000  0  9G 5G26G29G12G24G15G18G 9G21
  -4836406.90649  -3725249.58246  24143314.6254   24143316.0944   24143322.5934
     -2263.6714      -1763.8874        216.0004        163.0004
  -4617298.18649  -2988732.42745  24205832.9184   24205832.8284   24205839.8644
     -2966.3024      -2311.4004        209.0004        141.0004
   2805048.59849   2204583.97645  24797166.5584   24797169.3134   24797179.4654
     -2060.1714      -1605.3234        200.0004        139.0004
  -4481590.41949  -3474817.04145  24377221.6704   24377222.5814   24377230.3334
      2641.5534       2058.3564        211.0004        151.0004
 -21373469.94649 -16643760.39648  20251072.5404   20251073.2264   20251079.3424
       389.9354        303.8454        245.0004        219.0004
  -8033705.62649  -6245616.22547  21608774.7024   21608774.2254   21608778.9444
     -1586.9514      -1236.5874        238.0004        197.0004
 -11406284.71649  -8879098.83846  22748308.0224   22748306.6504   22748310.8754
      2465.9574       1921.5194        228.0004        172.0004
  -9797503.32949  -7622347.27745  23444189.8174   23444190.3044   23444197.1314
     -3402.7624      -2651.4944        215.0004        157.0004
 -20492204.99549 -15943382.57847  21283495.4314   21283495.1464   21283499.4854
      1162.6894        905.9924        236.0004        196.0004
 13  4 22  1  8  0.0000000  0  9G 5G26G29G12G24G15G18G 9G21
  -4768391.96449  -3672251.14846  24156258.6174   24156260.0864   24156265.2724
     -2270.5944      -1769.2834        218.0004        163.0004
  -4528351.09049  -2919423.11345  24222758.1314   24222758.1294   24222767.1444
     -2963.6044      -2309.2954        206.0004        141.0004
   2866768.13049   2252676.92745  24808914.6374   24808914.6514   24808921.6764
     -2054.3524      -1600.7924        206.0004        141.0004
  -4560895.46249  -3536613.10545  24362132.1674   24362132.4734   24362138.1574
      2645.4304       2061.3714        215.0004        152.0004
 -21384878.98249 -16652650.56748  20248901.3734   20248902.1004   20248908.4004
       370.7044        288.8574        244.0004        219.0004
  -7986062.77749  -6208491.95647  21617840.6424   21617840.9144   21617845.0614
     -1589.2294      -1238.3674        236.0004        197.0004
 -11480266.30049  -8936746.77746  22734230.7994   22734228.4744   22734233.1704
      2466.1374       1921.6594        229.0004        171.0004
  -9695292.41749  -7542702.56945  23463640.7464   23463640.9584   23463648.1034
     -3411.2594      -2658.1234        215.0004        158.0004
 -20526819.86149 -15970355.20847  21276908.2614   21276908.4634   21276912.1474
      1144.9484        892.1654        235.0004        196.0004
 13  4 22  1  8 30.0000000  0 10G 5G26G29G12G24G14G15G18G 9G21
  -4700169.90449  -3619091.32345  24169239.9344   24169240.8334   24169248.5634
     -2277.5374      -1774.6924        216.0004        162.0004
  -4439486.14049  -2850177.81945  24239668.1584   24239669.9004   24239678.2124
     -2960.7994      -2307.1144        205.0004        141.0004
   2928312.82349   2300633.67645  24820626.4374   24820626.3994   24820633.5114
     -2048.5894      -1596.2994        206.0004        141.0004
  -4640314.69949  -3598498.15845  24347017.0294   24347018.1644   24347027.1354
      2649.1894       2064.3054        211.0004        152.0004
 -21395711.86849 -16661091.78948  20246839.6154   20246840.7704   20246846.9394
       351.4874        273.8854        244.0004        219.0004
   -171490.50759   -126017.12955  25014809.6034                   25014817.9014
      2008.1114       1564.7654        202.0004        134.0004
  -7938352.83349  -6171315.39947  21626919.5124   21626919.9744   21626923.7264
     -1591.4474      -1240.0884        237.0004        197.0004
 -11554251.99949  -8994397.93446  22720149.9574   22720149.9854   22720154.4674
      2466.2114       1921.7294        227.0004        173.0004
  -9592829.79849  -7462861.71645  23483138.8624   23483139.2204   23483146.8914
     -3419.6094      -2664.6284        217.0004        159.0004
 -20560902.05549 -15996912.76647  21270422.5344   21270422.7314   21270426.7164
      1127.1874        878.3194        236.0004        195.0004
 13  4 22  1  9  0.0000000  0 10G 5G26G29G12G24G14G15G18G 9G21
  -4631740.62449  -3565770.01345  24182263.1824   24182262.4974   24182270.6684
     -2284.3914      -1780.0304        219.0004        162.0004
  -4350704.15149  -2780997.15245  24256564.0104   24256564.6124   24256572.5364
     -2958.0494      -2304.9674        204.0004        142.0004
   2989680.43849   2348452.41545  24832304.1404   24832305.1254   24832312.1874
     -2042.5824      -1591.6164        208.0004        140.0004
  -4719845.59149  -3660470.20345  24331884.1584   24331884.8174   24331890.9404
      2652.8844       2067.1824        214.0004        150.0004
 -21405968.61249 -16669084.07248  20244887.8494   20244889.0054   20244895.1124
       332.2914        258.9234        244.0004        219.0004
   -231656.58749   -172899.67045  25003358.2934   25003357.0814   25003367.8354
      2003.0554       1560.8124        196.0004        136.0004
  -7890576.55549  -6134087.16047  21636011.2604   21636011.5464   21636015.3014
     -1593.6294      -1241.7914        237.0004        197.0004
 -11628240.35049  -9052051.15446  22706070.8754   22706070.2024   22706073.6394
      2466.3114       1921.7954        228.0004        172.0004
  -9490118.41149  -7382827.01645  23502684.0994   23502685.2104   23502691.8904
     -3427.8784      -2671.0734        216.0004        159.0004
 -20594449.90549 -16023053.95247  21264038.6414   21264038.5244   21264042.5644
      1109.3464        864.4224        236.0004        195.0004
 13  4 22  1  9 30.0000000  0 10G 5G26G29G12G24G14G15G18G 9G21
  -4563104.08949  -3512287.23346  24195324.3204   24195324.9334   24195331.0534
     -2291.3234      -1785.4354        217.0004        164.0004
  -4262005.88649  -2711881.74045  24273441.7804   24273442.8324   24273451.7604
     -2955.3044      -2302.8304        201.0004        140.0004
   3050868.51149   2396131.25045  24843949.0374   24843947.6864   24843955.3784
     -2036.5744      -1586.9414        207.0004        140.0004
  -4799485.57949  -3722527.27245  24316726.3964   24316727.0804   24316735.4054
      2656.3374       2069.8684        207.0004        149.0004
 -21415649.12949 -16676627.34548  20243045.7494   20243046.7654   20243052.8284
       313.0834        243.9594        245.0004        219.0004
   -291669.30249   -219662.70545  24991941.0144   24991939.4374   24991945.9724
      1997.8354       1556.7514        203.0004        136.0004
  -7842735.12149  -6096808.14447  21645114.6744   21645115.6884   21645119.7404
     -1595.7924      -1243.4764        236.0004        197.0004
 -11702230.20549  -9109705.52746  22691990.9314   22691990.7294   22691994.3324
      2466.3344       1921.8294        228.0004        172.0004
  -9387161.45449  -7302600.96245  23522276.6724   23522276.5744   23522283.7744
     -3435.9684      -2677.3724        217.0004        161.0004
 -20627462.38849 -16048777.97647  21257756.7084   21257756.5754   21257760.7754
      1091.4734        850.5044        236.0004        194.0004
 13  4 22  1 10  0.0000000  0 10G 5G26G29G12G24G14G15G18G 9G21
  -4494260.57349  -3458643.12445  24208422.7674   24208423.1784   24208432.5514
     -2298.1684      -1790.7734        214.0004        159.0004
  -4173392.16749  -2642832.21545  24290305.5724   24290305.6534   24290314.3514
     -2952.3714      -2300.5484        197.0004        139.0004
   3111875.07449   2443668.65945  24855557.7534   24855557.4524   24855564.8464
     -2030.5674      -1582.2604        204.0004        140.0004
  -4879231.66949  -3784667.03245  24301554.4704   24301554.0704   24301561.1364
      2659.9704       2072.6984        213.0004        152.0004
 -21424753.51049 -16683721.67848  20241313.3394   20241314.2314   20241320.4094
       293.8984        229.0134        244.0004        218.0004
   -351529.05559   -266306.54455  24980550.9384   24980550.3254   24980557.1274
      1992.8154       1552.8334        206.0004        138.0004
  -7794829.90349  -6059479.42847  21654230.4034   21654231.5044   21654235.7184
     -1597.9014      -1245.1094        236.0004        197.0004
 -11776220.09349  -9167359.94846  22677910.7814   22677910.3954   22677914.5504
      2466.3314       1921.8054        228.0004        172.0004
  -9283961.94049  -7222185.89145  23541915.1214   23541915.7934   23541922.4004
     -3443.9994      -2683.6304        218.0004        160.0004
 -20659938.40049 -16074083.96347  21251576.7734   21251576.4084   21251580.8544
      1073.5894        836.5634        236.0004        195.0004
 13  4 22  1 10 30.0000000  0 10G 5G26G29G12G24G14G15G18G 9G21
  -4425210.29149  -3404837.90645  24221563.9374   24221564.6294   24221571.1524
     -2305.0494      -1796.1264        215.0004        160.0004
  -4084863.64449  -2573849.05445  24307151.9874   24307154.2754   24307162.1944
     -2949.5324      -2298.3404        197.0004        135.0004
   3172697.72149   2491062.73245  24867133.1614   24867131.6024   24867139.2054
     -2024.3474      -1577.4054        207.0004        140.0004
  -4959081.17649  -3846887.31345  24286354.9794   24286355.1664   24286365.5454
      2663.2994       2075.3014        209.0004        150.0004
 -21433282.14649 -16690367.38048  20239690.6504   20239691.3934   20239697.5394
       274.7094        214.0594        245.0004        219.0004
   -411236.23549   -312831.51345  24969189.3684   24969186.2884   24969196.2694
      1987.6204       1548.7974        206.0004        135.0004
  -7746861.76749  -6022101.68747  21663359.0774   21663359.6134   21663363.9544
     -1599.9764      -1246.7334        237.0004        198.0004
 -11850208.41649  -9225013.12846  22663831.2664   22663830.2914   22663836.1074
      2466.2484       1921.7594        227.0004        173.0004
  -9180522.91649  -7141584.17545  23561598.7324   23561599.1534   23561606.9174
     -3451.9344      -2689.8094        217.0004        159.0004
 -20691876.72249 -16098970.96747  21245499.3634   21245498.9324   21245502.8264
      1055.6474        822.5844        236.0004        194.0004
 13  4 22  1 11  0.0000000  0 10G 5G26G29G12G24G14G15G18G 9G21
  -4355953.33649  -3350871.66845  24234743.5514   24234743.2114   24234751.2034
     -2312.0514      -1801.5964        215.0004        159.0004
  -3996421.15448  -2504933.00145  24323982.3414   24323980.5594   24323992.8194
     -2946.6274      -2296.0684        194.0004        136.0004
   3233334.70749   2538312.22045  24878672.9734   24878671.2144   24878679.5234
     -2018.1804      -1572.6124        202.0004        141.0004
  -5039031.63649  -3909186.31745  24271146.3684   24271145.9064   24271152.5544
      2666.6344       2077.8974        217.0004        151.0004
 -21441235.15149 -16696564.54248  20238177.3814   20238177.8784   20238184.1924
       255.4994        199.0904        245.0004        219.0004
   -470791.27349   -359237.96245  24957854.5814   24957854.9364   24957861.8444
      1982.6724       1544.9364        201.0004        135.0004
  -7698831.68349  -5984675.67147  21672498.6374   21672499.5364   21672504.0064
     -1602.0334      -1248.3384        236.0004        199.0004
 -11924193.95449  -9282664.14946  22649751.8004   22649752.3144   22649755.3334
      2466.1014       1921.6314        227.0004        173.0004
  -9076847.13549  -7060797.98145  23581327.8914   23581327.8214   23581335.5114
     -3459.7714      -2695.9254        216.0004        157.0004
 -20723275.86649 -16123437.83547  21239524.3864   21239523.9994   21239527.7574
      1037.6434        808.5554        236.0004        194.0004
 13  4 22  1 11 30.0000000  0 10G 5G26G29G12G24G14G15G18G 9G21
  -4286490.12449  -3296744.69245  24247961.2964   24247962.4104   24247970.7464
     -2318.8694      -1806.9194        215.0004        158.0004
  -3908065.40749  -2436084.49545  24340796.4804   24340795.6024   24340804.3234
     -2943.7604      -2293.8304        205.0004        141.0004
   3293783.45249   2585414.96245  24890173.0274   24890173.2124   24890182.6584
     -2011.6884      -1567.5474        203.0004        141.0004
  -5119080.08949  -3971561.65645  24255909.6914   24255909.8324   24255918.7994
      2669.7304       2080.3184        212.0004        151.0004
 -21448612.38249 -16702313.04648  20236773.6724   20236774.0384   20236780.3534
       236.3294        184.1514        245.0004        219.0004
   -530194.43349   -405526.07145  24946549.2274   24946550.1454   24946558.5774
      1977.6084       1540.9884        195.0004        134.0004
  -7650740.66049  -5947202.17947  21681650.4584   21681651.0084   21681655.3334
     -1604.0344      -1249.8904        237.0004        199.0004
 -11998175.12249  -9340311.76346  22635674.6134   22635674.2804   22635678.1624
      2465.9684       1921.5044        228.0004        173.0004
  -8972937.88149  -6979829.85545  23601100.4954   23601101.3344   23601108.8654
     -3467.5004      -2701.9404        214.0004        155.0004
 -20754135.28949 -16147484.14047  21233652.1614   21233651.4224   21233654.8214
      1019.6304        794.5304        237.0004        194.0004
 13  4 22  1 12  0.0000000  0 10G 5G26G29G12G24G14G15G18G 9G21
  -4216820.44349  -3242456.83045  24261219.8974   24261219.8654   24261227.5604
     -2325.7794      -1812.2904        217.0004        158.0004
  -3819797.14249  -2367304.13645  24357593.4524   24357593.3684   24357602.2424
     -2940.8254      -2291.5524        207.0004        144.0004
   3354041.84549   2632369.41945  24901639.0674   24901640.7514   24901649.6544
     -2005.4764      -1562.7014        201.0004        143.0004
  -5199223.91449  -4034011.30845  24240660.8034   24240661.5514   24240667.2324
      2672.9504       2082.8104        214.0004        152.0004
 -21455414.25149 -16707613.22048  20235479.8364   20235479.9574   20235486.1274
       217.1634        169.2204        246.0004        219.0004
   -589445.87749   -451695.91944  24935274.2364   24935276.0444   24935281.3274
      1972.4784       1536.9994        199.0004        131.0004
  -7602589.72849  -5909682.00847  21690813.9584   21690814.2614   21690818.3514
     -1606.0384      -1251.4554        238.0004        200.0004
 -12072150.43549  -9397954.81746  22621596.8444   22621596.1804   22621601.2994
      2465.7084       1921.3384        228.0004        173.0004
  -8868798.22949  -6898682.20645  23620917.1364   23620918.7044   23620925.4644
     -3475.1714      -2707.9164        212.0004        152.0004
 -20784453.70149 -16171108.88047  21227883.1634   21227882.3724   21227885.6464
      1001.5714        780.4444        237.0004        194.0004
 13  4 22  1 12 30.0000000  0 10G 5G26G29G12G24G14G15G18G 9G21
  -4146944.67949  -3188008.39245  24274516.9774   24274516.8994   24274524.0014
     -2332.5564      -1817.5684        217.0004        159.0004
  -3731617.16749  -2298592.55745  24374373.3404   24374373.7574   24374382.3864
     -2937.8494      -2289.2284        210.0004        147.0004
   3414107.55148   2679173.72445  24913067.8104   24913070.2544   24913079.6324
     -1998.9894      -1557.6504        193.0004        140.0004
  -5279460.37849  -4096533.13045  24225391.5224   24225391.7044   24225399.8984
      2676.0614       2085.2474        209.0004        153.0004
 -21461641.32849 -16712465.49448  20234295.0944   20234295.0094   20234301.2194
       197.9864        154.2754        246.0004        219.0004
   -648546.49749   -497748.31045  24924028.2554   24924026.6444   24924034.6854
      1967.5284       1533.1334        199.0004        133.0004
  -7554379.98149  -5872116.00047  21699987.9504   21699988.2444   21699992.3634
     -1607.9804      -1252.9684        239.0004        199.0004
 -12146118.55349  -9455592.26446  22607521.2684   22607521.0734   22607525.0654
      2465.4674       1921.1524        227.0004        174.0004
  -8764431.14749  -6817357.33445  23640778.1174   23640777.9334   23640784.9594
     -3482.6604      -2713.7674        211.0004        150.0004
 -20814230.16249 -16194311.32747  21222216.8854   21222215.8384   21222219.3184
       983.4884        766.3554        237.0004        194.0004
 13  4 22  1 13  0.0000000  0 10G 5G26G29G12G24G14G15G18G 9G21
  -4076862.86249  -3133399.40745  24287854.0324   24287854.5884   24287861.0574
     -2339.4844      -1822.9724        218.0004        161.0004
  -3643525.99249  -2229950.17645  24391137.0014   24391136.3614   24391145.4934
     -2934.8874      -2286.9204        212.0004        148.0004
   3473978.64449   2725826.37245  24924463.8864   24924464.0834   24924474.7404
     -1992.4324      -1552.5394        200.0004        143.0004
  -5359786.75349  -4159125.02745  24210107.2724   24210106.9004   24210111.7504
      2678.9834       2087.5154        217.0004        152.0004
 -21467293.41249 -16716869.72348  20233219.3244   20233219.1664   20233225.4734
       178.8464        139.3634        246.0004        219.0004
   -707496.29749   -543683.10844  24912810.2194   24912810.2154   24912818.0094
      1962.5694       1529.2674        196.0004        130.0004
  -7506112.27149  -5834504.83147  21709173.3734   21709173.3384   21709177.1634
     -1609.8734      -1254.4404        239.0004        199.0004
 -12220078.04749  -9513222.98846  22593447.4944   22593446.7134   22593451.1424
      2465.1624       1920.9004        228.0004        174.0004
  -8659839.33749  -6735857.34045  23660680.5914   23660680.7104   23660689.4034
     -3490.1574      -2719.5964        210.0004        150.0004
 -20843463.35249 -16217090.44647  21216653.8024   21216653.4434   21216656.1434
       965.3914        752.2524        237.0004        194.0004
 13  4 22  1 13 30.0000000  0 10G 5G26G29G12G24G14G15G18G 9G21
  -4006575.28749  -3078630.08945  24301228.2454   24301228.8584   24301237.2124
     -2346.3714      -1828.3324        214.0004        159.0004
  -3555524.49049  -2161377.68945  24407882.6414   24407883.3174   24407891.6064
     -2931.8904      -2284.5814        210.0004        147.0004
   3533652.98249   2772325.73245  24935820.3914   24935819.3474   24935828.8694
     -1985.8804      -1547.4344        202.0004        140.0004
  -5440200.46249  -4221784.93145  24194803.5444   24194803.1744   24194812.8354
      2681.9004       2089.7964        217.0004        154.0004
 -21472370.70849 -16720826.06448  20232253.1744   20232253.2954   20232259.2554
       159.6564        124.4084        246.0004        219.0004
   -766295.86149   -589500.89245  24901620.3294   24901622.8054   24901629.4654
      1957.4604       1525.2944        196.0004        133.0004
  -7457787.41249  -5796849.13547  21718369.1244   21718369.0054   21718373.1194
     -1611.7804      -1255.9274        238.0004        198.0004
 -12294027.46749  -9570845.87646  22579374.1294   22579375.1354   22579378.7244
      2464.7764       1920.6054        227.0004        174.0004
  -8555026.27249  -6654184.94945  23680625.6124   23680625.3464   23680633.9534
     -3497.4124      -2725.2524        209.0004        149.0004
 -20872152.21349 -16239445.41347  21211194.2244   21211194.0274   21211197.2574
       947.1924        738.0714        236.0004        194.0004
 13  4 22  1 14  0.0000000  0 10G 5G26G29G12G24G14G15G18G 9G21
  -3936082.47449  -3023700.85645  24314642.2924   24314643.9884   24314648.9554
     -2353.1264      -1833.5844        212.0004        156.0004
  -3467613.07049  -2092875.39545  24424612.1764   24424612.3224   24424620.5744
     -2928.8784      -2282.2384        212.0004        145.0004
   3593128.36749   2818670.05845  24947137.5414   24947136.8434   24947145.9974
     -1979.1564      -1542.1934        199.0004        140.0004
  -5520698.29749  -4284510.46145  24179486.4554   24179486.0064   24179493.6724
      2684.6184       2091.9064        216.0004        154.0004
 -21476873.72949 -16724334.91548  20231396.2574   20231396.3574   20231402.4344
       140.5494        109.5194        246.0004        219.0004
   -824945.50549   -635201.83945  24890459.9234   24890461.8394   24890468.3314
      1952.4554       1521.4064        201.0004        132.0004
  -7409406.68149  -5759149.90447  21727575.3814   21727575.6514   21727579.6374
     -1613.6174      -1257.3714        238.0004        198.0004
 -12367964.98549  -9628459.48746  22565305.6194   22565305.1874   22565308.6724
      2464.3714       1920.2914        228.0004        174.0004
  -8449995.00849  -6572342.53545  23700612.1874   23700613.4434   23700621.4144
     -3504.6794      -2730.9074        208.0004        149.0004
 -20900296.01049 -16261375.65547  21205838.7864   21205838.3684   21205841.8774
       929.0414        723.9234        236.0004        194.0004
 13  4 22  1 14 30.0000000  0 10G 5G26G29G12G24G14G15G18G 9G21
  -3865384.21249  -2968611.54745  24328095.5684   24328096.3424   24328104.7464
     -2359.9204      -1838.8934        211.0004        155.0004
  -3379792.61049  -2024443.98745  24441323.8354   24441323.8704   24441332.6284
     -2925.9164      -2279.9324        210.0004        145.0004
   3652402.79549   2864857.75045  24958416.4034   24958418.0264   24958425.2404
     -1972.4334      -1536.9554        200.0004        139.0004
  -5601277.67849  -4347299.47845  24164150.6494   24164149.6324   24164159.6774
      2687.2374       2093.9384        214.0004        153.0004
 -21480802.80049 -16727396.53548  20230648.2034   20230648.7424   20230654.7914
       121.4334         94.6214        246.0004        219.0004
   -883445.46749   -680786.12244  24879327.2934   24879329.1924   24879331.8644
      1947.4734       1517.5004        196.0004        130.0004
  -7360970.96049  -5721407.81947  21736791.5864   21736792.1834   21736796.5964
     -1615.4204      -1258.7714        236.0004        197.0004
 -12441889.48949  -9686062.94646  22551237.6444   22551237.3134   22551242.0044
      2463.9014       1919.9124        229.0004        175.0004
  -8344748.19049  -6490332.15645  23720640.7854   23720640.4034   23720649.3234
     -3511.7504      -2736.4284        208.0004        150.0004
 -20927893.90649 -16282880.51947  21200586.7674   21200587.2044   21200590.0104
       910.7984        709.7124        236.0004        194.0004
 13  4 22  1 15  0.0000000  0 10G 5G26G29G12G24G14G15G18G 9G21
  -3794480.81549  -2913362.34145  24341588.1564   24341588.8654   24341596.8004
     -2366.8274      -1844.2774        208.0004        155.0004
  -3292063.71949  -1956083.92145  24458017.9314   24458018.1244   24458026.4424
     -2922.8454      -2277.5394        207.0004        144.0004
   3711474.12449   2910887.23045  24969660.3324   24969657.0944   24969667.3604
     -1965.6984      -1531.7064        203.0004        139.0004
  -5681935.76349  -4410149.86745  24148803.0474   24148803.0474   24148810.2044
      2689.8864       2096.0164        217.0004        155.0004
 -21484158.11549 -16730011.06648  20230009.7424   20230010.4104   20230016.3914
       102.2814         79.7014        246.0004        220.0004
   -941796.36348   -726254.26745  24868223.9704   24868227.3904   24868234.7484
      1942.5264       1513.6554        194.0004        133.0004
  -7312481.11749  -5683623.56147  21746019.4774   21746019.5884   21746023.9284
     -1617.2514      -1260.1874        236.0004        196.0004
 -12515799.18949  -9743654.88146  22537172.9124   22537173.4254   22537177.7924
      2463.3694       1919.4964        229.0004        176.0004
  -8239289.11949  -6408156.39045  23740708.5724   23740708.5504   23740718.3514
     -3518.8014      -2741.9144        206.0004        149.0004
 -20954944.50049 -16303958.91847  21195439.4834   21195439.3534   21195442.0674
       892.5644        695.5154        237.0004        195.0004
 13  4 22  1 15 30.0000000  0 10G 5G26G29G12G24G14G15G18G 9G21
  -3723372.42049  -2857953.43745  24355121.4454   24355121.7594   24355129.4184
     -2373.7314      -1849.6524        216.0004        158.0004
  -3204427.04649  -1887795.72845  24474694.9204   24474694.8864   24474703.0714
     -2919.6154      -2275.0214        204.0004        144.0004
   3770340.10149   2956756.67645  24980859.4274   24980859.8144   24980868.8734
     -1958.7174      -1526.2644        206.0004        140.0004
  -5762669.78049  -4473059.39845  24133438.6254   24133438.1204   24133446.3854
      2692.3384       2097.9244        216.0004        152.0004
 -21486940.43849 -16732179.11148  20229480.0904   20229480.7634   20229487.0724
        83.1964         64.8274        246.0004        220.0004
   -999998.65249   -771606.63745  24857149.9424   24857148.6584   24857153.4874
      1937.5914       1509.8194        199.0004        133.0004
  -7263938.06849  -5645797.84147  21755256.4814   21755257.0314   21755261.4684
     -1618.9784      -1261.5404        235.0004        196.0004
 -12589692.86849  -9801234.33946  22523111.8064   22523110.9524   22523116.1344
      2462.8164       1919.0644        229.0004        175.0004
  -8133620.72949  -6325817.51145  23760817.4974   23760817.1744   23760825.9184
     -3525.7144      -2747.3024        206.0004        148.0004
 -20981446.91549 -16324610.15847  21190396.1464   21190396.3644   21190399.0684
       874.2614        681.2414        237.0004        195.0004
 13  4 22  1 16  0.0000000  0 11G 5G26G29G12G24G14G22G15G18G 9G21
  -3652059.43149  -2802385.11145  24368691.2264   24368691.8214   24368698.6274
     -2380.5104      -1854.9354        213.0004        157.0004
  -3116883.20649  -1819579.87145  24491355.0144   24491354.2474   24491363.0274
     -2916.6474      -2272.7134        205.0004        142.0004
   3828998.93749   3002464.70645  24992022.8174   24992022.8844   24992030.2204
     -1951.7344      -1520.8264        205.0004        139.0004
  -5843476.55249  -4536025.63645  24118061.4954   24118060.9514   24118070.3544
      2694.7324       2099.7764        216.0004        154.0004
 -21489149.82249 -16733900.71548  20229059.1764   20229060.2794   20229066.4814
        64.1304         49.9754        245.0004        220.0004
  -1058052.76649   -816843.51945  24846102.7764   24846102.9534   24846106.7974
      1932.6794       1505.9784        200.0004        132.0004
   -223690.39559   -161593.50555  24986534.0944
      2797.3434       2179.7424        205.0004        135.0004
  -7215342.80449  -5607931.43347  21764503.0154   21764504.2544   21764508.8244
     -1620.7004      -1262.8804        235.0004        195.0004
 -12663568.75249  -9858799.93246  22509053.7044   22509053.4414   22509057.4044
      2462.2034       1918.5894        230.0004        176.0004
  -8027745.84749  -6243317.74445  23780965.3104   23780964.4444   23780974.1654
     -3532.5074      -2752.5924        207.0004        148.0004
 -21007400.33449 -16344833.61447  21185457.0784   21185456.7214   21185460.4354
       855.9544        666.9824        236.0004        194.0004
 13  4 22  1 16 30.0000000  0 11G 5G26G29G12G24G14G22G15G18G 9G21
  -3580542.09049  -2746657.54945  24382301.2564   24382302.7214   24382309.6594
     -2387.2744      -1860.2094        214.0004        157.0004
  -3029432.77449  -1751436.81245  24507996.2344   24507994.8674   24508005.7934
     -2913.4514      -2270.2194        204.0004        143.0004
   3887448.33149   3048009.55045  25003143.6944   25003145.7364   25003153.5984
     -1944.8634      -1515.4754        201.0004        135.0004
  -5924354.04549  -4599046.98145  24102669.7704   24102670.7504   24102679.1654
      2697.0704       2101.6124        214.0004        153.0004
 -21490786.39549 -16735175.96848  20228747.7234   20228748.9224   20228755.0304
        45.0244         35.0814        245.0004        220.0004
  -1115958.97249   -861965.17645  24835081.8204   24835081.1444   24835088.0154
      1927.6724       1502.0774        199.0004        132.0004
   -307663.34849   -227026.81845  24970550.1304                   24970558.7314
      2800.7904       2182.4204        203.0004        137.0004
  -7166696.22749  -5570025.04147  21773760.7724   21773761.6644   21773765.8414
     -1622.3914      -1264.1984        235.0004        194.0004
 -12737425.48349  -9916350.59346  22495000.2834   22494999.6544   22495002.9414
      2461.5494       1918.0994        231.0004        176.0004
  -7921667.79349  -6160659.66245  23801151.0014   23801150.5654   23801159.1604
     -3539.3274      -2757.9124        208.0004        149.0004
 -21032804.18649 -16364628.82347  21180622.8724   21180622.8804   21180626.4794
       837.6194        652.6864        236.0004        195.0004
 13  4 22  1 17  0.0000000  0 11G 5G26G29G12G24G14G22G15G18G 9G21
  -3508820.70949  -2690771.01945  24395949.3244   24395949.5394   24395956.9784
     -2394.1534      -1865.5644        214.0004        157.0004
  -2942076.32049  -1683366.97645  24524619.6334   24524618.3354   24524628.5574
     -2910.3444      -2267.7944        204.0004        141.0004
   3945686.15649   3093389.48945  25014228.4084   25014227.8824   25014235.0114
     -1937.7464      -1509.9314        207.0004        141.0004
  -6005299.02449  -4662120.91945  24087267.2744   24087267.5254   24087274.1894
      2699.2294       2103.3034        214.0004        153.0004
 -21491851.23449 -16736005.71648  20228545.1984   20228546.3534   20228552.3554
        25.9974         20.2564        245.0004        220.0004
  -1173717.76148   -906971.97045  24824088.6694   24824089.8004   24824098.4394
      1922.8464       1498.3174        194.0004        132.0004
   -391738.87049   -292540.05945  24954555.4054   24954553.5044   24954559.9174
      2804.2734       2185.1514        203.0004        137.0004
  -7117999.17749  -5532079.31647  21783027.9624   21783028.5454   21783032.5634
     -1624.0494      -1265.4894        236.0004        195.0004
 -12811261.24749  -9973884.92646  22480949.2714   22480948.6374   22480951.9404
      2460.8244       1917.5184        231.0004        176.0004
  -7815389.34549  -6077845.43245  23821374.9584   23821374.9164   23821384.8604
     -3545.9924      -2763.1064        203.0004        145.0004
 -21057657.33849 -16383994.92047  21175893.9614   21175893.4954   21175897.2544
       819.2554        638.3784        237.0004        195.0004
 13  4 22  1 17 30.0000000  0 11G 5G26G29G12G24G14G22G15G18G 9G21
  -3436895.68949  -2634725.79545  24409635.0484   24409636.1604   24409645.5564
     -2400.8544      -1870.7944        211.0004        156.0004
  -2854814.70849  -1615371.04045  24541224.0544   24541224.2764   24541234.0904
     -2907.2134      -2265.3544        203.0004        140.0004
   4003710.40549   3138603.02745  25025272.2604   25025270.8714   25025277.1184
     -1930.5204      -1504.2944        208.0004        138.0004
  -6086308.67749  -4725245.24445  24071850.9954   24071852.5934   24071859.2874
      2701.3954       2104.9724        211.0004        153.0004
 -21492344.50949 -16736390.09148  20228451.5874   20228452.5434   20228458.4114
         6.9324          5.3994        246.0004        220.0004
  -1231329.97049   -951864.55745  24813128.7524   24813129.2274   24813135.5054
      1917.9924       1494.5444        201.0004        133.0004
   -475915.61959   -358132.19255  24938536.8284   24938534.4804   24938540.6774
      2807.6054       2187.7414        205.0004        135.0004
  -7069252.64049  -5494095.04247  21792304.0864   21792304.8784   21792308.7934
     -1625.7034      -1266.7854        237.0004        196.0004
 -12885074.71749 -10031401.89146  22466903.0174   22466902.3294   22466906.2624
      2460.0814       1916.9434        230.0004        177.0004
  -7708913.53449  -5994877.41045  23841637.0754   23841637.0674   23841645.7024
     -3552.4554      -2768.1494        204.0004        144.0004
 -21081958.83149 -16402931.15647  21171269.7454   21171268.7014   21171272.5304
       800.8514        624.0434        237.0004        196.0004
 13  4 22  1 18  0.0000000  0 11G 5G26G29G12G24G14G22G15G18G 9G21
  -3364767.08849  -2578521.93145  24423362.6404   24423362.3674   24423369.2294
     -2407.6674      -1876.0874        214.0004        155.0004
  -2767648.32249  -1547449.31845  24557810.8444   24557810.3894   24557819.7284
     -2904.0024      -2262.8534        200.0004        138.0004
   4061518.98649   3183648.55245  25036270.0944   25036271.1024   25036278.9524
     -1923.3994      -1498.7504        204.0004        137.0004
  -6167379.88449  -4788417.55745  24056426.0344   24056426.2344   24056431.8014
      2703.3924       2106.5324        216.0004        154.0004
 -21492266.52649 -16736329.32948  20228466.4894   20228467.3194   20228473.2544
       -12.0994         -9.4234        246.0004        220.0004
  -1288795.67749   -996642.95245  24802194.3824   24802191.6864   24802198.2234
      1913.0914       1490.7174        203.0004        134.0004
   -560193.07449   -423802.79345  24922496.5214   24922495.2394   24922502.2384
      2810.9514       2190.3534        205.0004        136.0004
  -7020457.47749  -5456072.87447  21801589.9024   21801590.3164   21801594.4124
     -1627.2844      -1268.0084        237.0004        196.0004
 -12958864.36849 -10088900.29146  22452861.2814   22452860.3994   22452865.2514
      2459.2354       1916.3054        230.0004        176.0004
  -7602243.21649  -5911757.82945  23861936.4724   23861936.2584   23861945.3344
     -3558.8384      -2773.1214        205.0004        145.0004
 -21105707.83549 -16421436.88347  21166750.3604   21166749.7254   21166753.0624
       782.4134        609.6764        237.0004        196.0004
 13  4 22  1 18 30.0000000  0 11G 5G26G29G12G24G14G22G15G18G 9G21
  -3292435.30249  -2522159.78045  24437127.3464   24437127.8134   24437133.9504
     -2414.4424      -1881.3804        214.0004        155.0004
  -2680577.78849  -1479602.27245  24574380.8014   24574381.0734   24574389.1484
     -2900.7954      -2260.3534        204.0004        140.0004
   4119109.72649   3228524.27845  25047226.9664   25047231.5544   25047237.9844
     -1916.1104      -1493.0684        204.0004        139.0004
  -6248509.92049  -4851635.68845  24040987.9024   24040988.0774   24040993.2974
      2705.2664       2108.0004        216.0004        155.0004
 -21491618.32149 -16735824.24248  20228590.1804   20228590.8024   20228596.6844
       -31.1144        -24.2454        246.0004        220.0004
  -1346115.31849  -1041307.51045  24791285.2494   24791285.6914   24791293.3514
      1908.2154       1486.9144        203.0004        134.0004
   -644570.24549   -489551.05845  24906439.7764   24906438.0374   24906447.3684
      2814.2184       2192.8874        202.0004        137.0004
  -6971614.40049  -5418013.37847  21810884.8184   21810885.2744   21810888.9874
     -1628.8984      -1269.2674        238.0004        197.0004
 -13032628.49049 -10146378.79646  22438824.3194   22438823.7074   22438827.6094
      2458.3584       1915.6154        230.0004        175.0004
  -7495381.47949  -5828489.09145  23882271.9734   23882271.7314   23882278.2624
     -3565.2744      -2778.1314        206.0004        142.0004
 -21128903.72949 -16439511.61947  21162336.1214   21162335.2454   21162339.2734
       763.9534        595.2894        237.0004        196.0004
 13  4 22  1 19  0.0000000  0 11G 5G26G29G12G24G14G22G15G18G 9G21
  -3219900.55049  -2465639.45845  24450930.9174   24450930.0544   24450938.1324
     -2421.2024      -1886.6454        216.0004        156.0004
  -2593603.64749  -1411830.31445  24590930.3414   24590929.9264   24590939.1444
     -2897.5094      -2257.7944        204.0004        138.0004
   4176480.90549   3273228.96045  25058146.6954   25058145.5674   25058155.5944
     -1908.6934      -1487.2894        202.0004        137.0004
  -6329695.99649  -4914897.49645  24025539.4084   24025540.3844   24025544.5654
      2707.0974       2109.4274        218.0004        156.0004
 -21490400.14849 -16734875.02048  20228822.1064   20228822.4674   20228828.6274
       -50.0894        -39.0284        246.0004        220.0004
  -1403289.43049  -1085858.68445  24780403.9354   24780403.4614   24780411.8524
      1903.3434       1483.1134        199.0004        133.0004
   -729046.22249   -555376.31045  24890365.7824   24890364.4064   24890370.9554
      2817.4294       2195.3934        202.0004        138.0004
  -6922724.55949  -5379917.43447  21820188.9354   21820188.6094   21820192.4034
     -1630.4354      -1270.4724        238.0004        197.0004
 -13106365.50849 -10203836.17746  22424793.1524   22424791.2924   22424795.8054
      2457.4324       1914.8714        231.0004        175.0004
  -7388331.26149  -5745073.46945  23902643.6024   23902642.4554   23902650.4314
     -3571.4104      -2782.9074        204.0004        141.0004
 -21151545.74249 -16457154.75647  21158027.9574   21158027.1994   21158030.9724
       745.4904        580.8984        237.0004        196.0004
 13  4 22  1 19 30.0000000  0 11G 5G26G29G12G24G14G22G15G18G 9G21
  -3147162.91349  -2408961.03845  24464772.3524   24464772.5274   24464779.7924
     -2427.9724      -1891.9214        216.0004        156.0004
  -2506726.42449  -1344133.90345  24607462.9214   24607465.5934   24607474.0534
     -2894.3774      -2255.3514        204.0004        137.0004
   4233630.36249   3317760.88345  25069024.0534   25069021.0774   25069032.1384
     -1901.2834      -1481.5124        201.0004        138.0004
  -6410935.18749  -4978200.67845  24010080.4754   24010079.7014   24010083.5464
      2708.8604       2110.7964        218.0004        157.0004
 -21488612.40149 -16733481.98448  20229162.4754   20229162.7704   20229168.9154
       -69.0894        -53.8384        246.0004        220.0004
  -1460318.50249  -1130296.83745  24769552.9444   24769553.6774   24769560.1524
      1898.5464       1479.3804        202.0004        132.0004
   -813620.39949   -621278.06045  24874271.7934   24874269.8844   24874277.0624
      2820.7924       2198.0154        205.0004        138.0004
  -6873788.80449  -5341785.71447  21829500.3694   21829500.4074   21829504.6264
     -1631.9384      -1271.6444        236.0004        196.0004
 -13180073.75149 -10261271.15046  22410765.9854   22410765.1924   22410769.8154
      2456.4504       1914.1114        230.0004        176.0004
  -7281095.54849  -5661513.30945  23923049.2954   23923049.6254   23923056.7344
     -3577.5724      -2787.7194        206.0004        141.0004
 -21173632.95549 -16474365.58947  21153824.7334   21153824.0374   21153827.8034
       727.0014        566.5034        237.0004        197.0004
 13  4 22  1 20  0.0000000  0 11G 5G26G29G12G24G14G22G15G18G 9G21
  -3074222.83549  -2352124.89445  24478650.3034   24478650.6854   24478658.1874
     -2434.7084      -1897.1564        212.0004        151.0004
  -2419946.71049  -1276513.46545  24623976.9974   24623976.2644   24623984.5554
     -2891.0574      -2252.7714        204.0004        139.0004
   4290556.23049   3362118.52345  25079855.6124   25079855.1434   25079864.7274
     -1893.7904      -1475.6794        205.0004        141.0004
  -6492224.67649  -5041543.04745  23994611.5704   23994611.1754   23994613.9114
      2710.4154       2111.9964        219.0004        154.0004
 -21486255.97049 -16731645.82048  20229610.9074   20229611.1684   20229617.3114
       -88.0314        -68.5954        246.0004        221.0004
  -1517203.01149  -1174622.33645  24758728.4934   24758730.6364   24758735.4354
      1893.7764       1475.6664        203.0004        132.0004
   -898291.94849   -687255.66845  24858157.9144   24858156.8424   24858164.0504
      2823.9804       2200.4984        204.0004        139.0004
  -6824807.84649  -5303618.78347  21838821.2204   21838820.9044   21838825.8504
     -1633.4434      -1272.8064        236.0004        195.0004
 -13253751.87949 -10318682.66346  22396745.8394   22396745.1774   22396749.2164
      2455.3984       1913.3004        230.0004        176.0004
  -7173677.48549  -5577811.08045  23943489.8054   23943490.6684   23943498.9404
     -3583.5924      -2792.4044        205.0004        141.0004
 -21195164.83749 -16491143.69647  21149727.3614   21149726.9354   21149730.4514
       708.4694        552.0584        237.0004        196.0004
 13  4 22  1 20 30.0000000  0 10G 5G26G12G24G14G22G15G18G 9G21
  -3001081.00549  -2295131.53245  24492571.1234   24492570.3914   24492578.5964
     -2441.4204      -1902.3944        214.0004        156.0004
  -2333265.05049  -1208969.44645  24640471.9564   24640471.9964   24640482.3584
     -2887.7634      -2250.1974        203.0004        137.0004
  -6573561.59049  -5104922.39145  23979133.0124   23979132.4974   23979137.7824
      2711.9804       2113.2314        216.0004        155.0004
 -21483331.31049 -16729366.87748  20230167.9404   20230167.7894   20230173.9244
      -106.9314        -83.3234        247.0004        221.0004
  -1573943.76249  -1218835.83245  24747929.6884   24747929.9274   24747937.0974
      1889.0034       1471.9584        200.0004        132.0004
   -983060.02049   -753308.51245  24842027.4264   24842027.9864   24842032.8994
      2827.2684       2203.0584        200.0004        140.0004
  -6775782.50349  -5265417.26247  21848149.4484   21848149.9744   21848154.9444
     -1634.8944      -1273.9404        234.0004        194.0004
 -13327398.05749 -10376069.27446  22382729.9424   22382730.3624   22382735.1514
      2454.3204       1912.4714        229.0004        177.0004
  -7066080.15249  -5493969.12245  23963964.4064   23963963.5004   23963973.6864
     -3589.4854      -2796.9984        202.0004        140.0004
 -21216140.86749 -16507488.67047  21145735.4004   21145735.3404   21145738.7454
       689.9314        537.6084        237.0004        196.0004
 13  4 22  1 21  0.0000000  0 10G 5G26G12G24G14G22G15G18G 9G21
  -2927737.43949  -2237980.94745  24506526.8324   24506527.4774   24506536.8344
     -2448.1744      -1907.6644        215.0004        157.0004
  -2246682.03749  -1141502.29345  24656949.1504   24656948.9094   24656955.4184
     -2884.4844      -2247.6374        203.0004        135.0004
  -6654943.00249  -5168336.39845  23963645.4204   23963644.4314   23963651.8924
      2713.4334       2114.3714        213.0004        156.0004
 -21479839.03849 -16726645.64348  20230832.2684   20230832.1424   20230838.6084
      -125.8474        -98.0594        247.0004        221.0004
  -1630540.98349  -1262937.48544  24737156.1144   24737157.4994   24737167.5774
      1884.1734       1468.1784        196.0004        131.0004
  -1067923.56749   -819435.72145  24825882.0804   24825877.9724   24825884.9024
      2830.3534       2205.4644        207.0004        140.0004
  -6726713.51549  -5227181.73047  21857486.8784   21857487.6054   21857491.8384
     -1636.3494      -1275.0794        234.0004        192.0004
 -13401010.78149 -10433429.81846  22368723.1104   22368722.0964   22368726.7484
      2453.1874       1911.5804        231.0004        178.0004
  -6958306.26549  -5409989.62945  23984473.0634   23984473.4564   23984482.5544
     -3595.3664      -2801.5754        204.0004        140.0004
 -21236559.91749 -16523399.62547  21141849.3304   21141849.3464   21141853.4024
       671.3564        523.1394        236.0004        196.0004
 13  4 22  1 21 30.0000000  0 10G 5G26G12G24G14G22G15G18G 9G21
  -2854192.56549  -2180673.49845  24520523.8694   24520523.9894   24520531.3014
     -2454.8494      -1912.8494        217.0004        155.0004
  -2160197.90749  -1074112.18245  24673406.2954   24673407.6784   24673411.3234
     -2881.1934      -2245.0824        200.0004        135.0004
  -6736365.93749  -5231782.76245  23948148.7644   23948148.1534   23948156.7334
      2714.7434       2115.3654        208.0004        154.0004
 -21475780.11549 -16723482.86048  20231604.4514   20231604.5834   20231610.8784
      -144.7304       -112.7764        247.0004        221.0004
  -1686994.94148  -1306927.54144  24726415.0804   24726418.6744   24726422.6524
      1879.3314       1464.4184        193.0004        130.0004
  -1152881.56749   -885636.54445  24809712.1464   24809711.3834   24809716.0974
      2833.3114       2207.7604        207.0004        141.0004
  -6677602.14049  -5188913.17247  21866833.0534   21866833.7074   21866838.0124
     -1637.7424      -1276.1604        235.0004        194.0004
 -13474588.11449 -10490762.78746  22354721.1344   22354721.3554   22354725.8204
      2451.9544       1910.6044        231.0004        179.0004
  -6850358.57649  -5325874.69545  24005015.8804   24005015.6134   24005023.7674
     -3601.1214      -2806.0624        204.0004        141.0004
 -21256421.69549 -16538876.35347  21138069.6294   21138069.9044   21138073.6254
       652.7784        508.6484        237.0004        197.0004
 13  4 22  1 22  0.0000000  0 10G 5G26G12G24G14G22G15G18G 9G21
  -2780446.73249  -2123209.50845  24534557.4984   24534556.9614   24534564.5654
     -2461.4994      -1918.0434        215.0004        153.0004
  -2073813.35049  -1006799.67945  24689844.9294   24689844.2144   24689853.7024
     -2877.8764      -2242.4884        199.0004        132.0004
  -6817827.49549  -5295259.19245  23932646.0734   23932646.0464   23932656.6464
      2715.9664       2116.3154        211.0004        154.0004
 -21471155.00849 -16719878.88848  20232484.6224   20232484.7754   20232491.1224
      -163.6034       -127.4814        246.0004        221.0004
  -1743306.59049  -1350806.69844  24715701.9634   24715701.5334   24715706.9134
      1874.6834       1460.7884        197.0004        128.0004
  -1237933.24449   -951910.36245  24793527.7294   24793526.0214   24793532.8634
      2836.6364       2210.3614        207.0004        142.0004
  -6628448.76949  -5150611.88547  21876186.0524   21876186.9874   21876192.0044
     -1639.1384      -1277.2424        234.0004        194.0004
 -13548128.73349 -10548067.14546  22340727.1204   22340727.4274   22340731.3854
      2450.7154       1909.6454        232.0004        180.0004
  -6742240.08549  -5241626.65445  24025589.1654   24025589.3704   24025599.6904
     -3606.7044      -2810.4064        204.0004        142.0004
 -21275725.58549 -16553918.36147  21134396.8824   21134396.4814   21134400.3824
       634.1594        494.1504        238.0004        196.0004
 13  4 22  1 22 30.0000000  0 10G 5G26G12G24G14G22G15G18G 9G21
  -2706500.45249  -2065589.26645  24548627.4274   24548627.3434   24548637.2184
     -2468.2124      -1923.2644        213.0004        155.0004
  -1987528.89949   -939565.14845  24706265.8984   24706262.6054   24706273.1944
     -2874.5254      -2239.8874        202.0004        133.0004
  -6899324.25349  -5358763.14845  23917136.8664   23917138.2374   23917148.7014
      2717.1114       2117.2244        206.0004        154.0004
 -21465964.76249 -16715834.54948  20233472.0444   20233472.1534   20233478.7834
      -182.4614       -142.1784        246.0004        220.0004
  -1799476.21849  -1394575.14644  24705012.8864   24705012.4604   24705019.7014
      1869.9724       1457.1174        195.0004        127.0004
  -1323077.74649  -1018256.52745  24777324.4914   24777323.3724   24777329.7644
      2839.9374       2212.9344        206.0004        140.0004
  -6579254.22549  -5112278.51647  21885547.8484   21885548.6534   21885552.6504
     -1640.4884      -1278.3024        236.0004        194.0004
 -13621630.75049 -10605341.42446  22326739.8464   22326739.9354   22326744.1204
      2449.3984       1908.6284        232.0004        181.0004
  -6633953.88249  -5157247.95145  24046194.9074   24046195.3544   24046206.6214
     -3612.3924      -2814.8514        206.0004        143.0004
 -21294471.00649 -16568525.20447  21130829.3994   21130829.8054   21130833.3284
       615.5134        479.6244        237.0004        196.0004
 13  4 22  1 23  0.0000000  0 10G 5G26G12G24G14G22G15G18G 9G21
  -2632353.61449  -2007812.77045  24562738.3204   24562738.2734   24562747.9574
     -2474.8904      -1928.4714        215.0004        156.0004
  -1901345.00949   -872408.99244  24722665.4414   24722663.7584   24722671.4634
     -2871.1634      -2237.2674        199.0004        130.0004
  -6980854.03149  -5422292.75845  23901625.1734   23901625.3044   23901634.1924
      2718.1784       2118.0474        212.0004        156.0004
 -21460209.70349 -16711350.10348  20234566.5664   20234567.3004   20234573.8824
      -201.2294       -156.8024        245.0004        220.0004
  -1855504.33849  -1438233.40644  24694350.6544   24694352.5924   24694358.6774
      1865.2974       1453.4744        200.0004        129.0004
  -1408314.05049  -1084674.24345  24761103.6364   24761104.7524   24761108.9794
      2842.6664       2215.0604        206.0004        143.0004
  -6530019.40549  -5073913.76047  21894917.4264   21894917.7944   21894921.6864
     -1641.8254      -1279.3404        237.0004        194.0004
 -13695092.44149 -10662584.28946  22312760.4304   22312760.4644   22312765.0264
      2448.0354       1907.5664        233.0004        181.0004
  -6525502.81949  -5072740.79645  24066833.1414   24066833.7044   24066843.2624
     -3617.7094      -2818.9934        203.0004        144.0004
 -21312657.08049 -16582696.18547  21127369.1804   21127368.2854   21127372.4554
       596.8464        465.0804        238.0004        196.0004
 13  4 22  1 23 30.0000000  0 10G 5G26G12G24G14G22G15G18G 9G21
  -2558007.07949  -1949880.65645  24576884.3634   24576885.8314   24576893.1234
     -2481.5124      -1933.6434        211.0004        152.0004
  -1815262.12449   -805331.58044  24739046.1384   24739047.5204   24739054.0064
     -2867.7774      -2234.6274        198.0004        130.0004
  -7062413.42349  -5485845.46945  23886105.2554   23886105.0304   23886113.5204
      2719.0924       2118.7614        214.0004        158.0004
 -21453890.69749 -16706426.21148  20235769.0654   20235770.0854   20235776.4314
      -220.0184       -171.4474        245.0004        220.0004
  -1911391.56449  -1481781.82144  24683716.2524   24683715.8354   24683722.4014
      1860.6004       1449.8104        200.0004        129.0004
  -1493641.31649  -1151162.84545  24744869.0494   24744865.1774   24744871.9694
      2845.8234       2217.5234        205.0004        142.0004
  -6480745.14549  -5035518.27447  21904294.3984   21904294.4174   21904299.1954
     -1643.1174      -1280.3544        236.0004        194.0004
 -13768512.36949 -10719794.60246  22298789.1904   22298789.0274   22298793.5874
      2446.6094       1906.4424        233.0004        182.0004
  -6416889.94849  -4988107.55645  24087501.6844   24087501.3664   24087512.4844
     -3623.1674      -2823.2414        205.0004        145.0004
 -21330283.61049 -16596431.16747  21124015.1874   21124014.4994   21124018.5104
       578.2444        450.5754        236.0004        196.0004
 13  4 22  1 24  0.0000000  0 10G 5G26G12G24G14G22G15G18G 9G21
  -2483460.62949  -1891792.80245  24591071.2924   24591072.4444   24591080.1804
     -2488.2004      -1938.8524        213.0004        152.0004
  -1729280.71549   -738333.20944  24755408.6514   24755405.1674   24755415.3664
     -2864.3754      -2231.9734        197.0004        126.0004
  -7143999.72049  -5549419.11945  23870581.7594   23870580.5804   23870587.2194
      2719.9664       2119.4514        216.0004        159.0004
 -21447008.72749 -16701063.65048  20237078.5264   20237079.5424   20237085.9664
      -238.7584       -186.0404        245.0004        220.0004
  -1967138.36049  -1525220.84644  24673106.2554   24673106.4434   24673113.4694
      1855.8454       1446.1094        199.0004        131.0004
  -1579058.79849  -1217721.78245  24728611.3164   24728611.0334   24728618.5194
      2848.8124       2219.8444        202.0004        142.0004
  -6431432.12949  -4997092.59747  21913678.6954   21913678.6794   21913682.7854
     -1644.4094      -1281.3564        237.0004        194.0004
 -13841888.86149 -10776971.06946  22284826.4564   22284825.2974   22284830.8254
      2445.1104       1905.2794        232.0004        182.0004
  -6308118.18449  -4903350.51845  24108201.0834   24108200.2954   24108210.4144
     -3628.3144      -2827.2514        205.0004        146.0004
 -21347349.74949 -16609729.47847  21120767.3914   21120766.6894   21120770.8204
       559.5294        436.0024        236.0004        196.0004
 13  4 22  1 24 30.0000000  0 10G 5G26G12G24G14G22G15G18G 9G21
  -2408715.14949  -1833549.85445  24605296.5844   24605296.6494   24605304.3304
     -2494.7894      -1943.9804        214.0004        154.0004
  -1643401.23949   -671414.27444  24771750.5714   24771750.7444   24771760.9754
     -2860.9144      -2229.2824        196.0004        128.0004
  -7225609.98349  -5613011.44345  23855050.3454   23855051.0944   23855056.9214
      2720.6794       2120.0164        217.0004        159.0004
 -21439564.34749 -16695262.84248  20238494.6454   20238495.8424   20238502.5954
      -257.5064       -200.6544        244.0004        220.0004
  -2022745.24149  -1568550.81844  24662525.2534   24662525.6464   24662531.7754
      1851.3304       1442.5894        200.0004        130.0004
  -1664565.34649  -1284350.12345  24712341.5694   24712340.8854   24712345.9144
      2851.6704       2222.0774        206.0004        142.0004
  -6382080.92949  -4958637.15647  21923069.4774   21923069.5734   21923073.8044
     -1645.6744      -1282.3484        236.0004        193.0004
 -13915220.29449 -10834112.42446  22270871.3924   22270871.9804   22270875.4634
      2443.6194       1904.1194        232.0004        182.0004
  -6199190.37049  -4818471.87745  24128929.4044   24128929.2794   24128939.0104
     -3633.5114      -2831.3024        205.0004        146.0004
 -21363855.26349 -16622590.93447  21117627.0144   21117626.0534   21117629.8934
       540.8334        421.4244        237.0004        196.0004
 13  4 22  1 25  0.0000000  0 10G 5G26G12G24G14G22G15G18G 9G21
  -2333771.20749  -1775152.25045  24619556.8824   24619557.1874   24619567.5054
     -2501.3604      -1949.0944        210.0004        153.0004
  -1557624.16849   -604575.14144  24788074.3394   24788075.0484   24788083.8954
     -2857.4814      -2226.6064        195.0004        127.0004
  -7307241.11249  -5676620.04545  23839517.5794   23839517.6594   23839522.8004
      2721.3234       2120.5014        220.0004        159.0004
 -21431558.82849 -16689024.78548  20240018.4014   20240019.7474   20240025.8844
      -276.1924       -215.2144        245.0004        220.0004
  -2078212.78849  -1611772.20644  24651971.7564   24651968.6954   24651975.7154
      1846.6274       1438.9294        201.0004        131.0004
  -1750159.93349  -1351047.06045  24696053.0814   24696051.1094   24696058.4984
      2854.6084       2224.3684        204.0004        143.0004
  -6332692.67449  -4920152.84947  21932468.2564   21932468.2254   21932472.0974
     -1646.8694      -1283.2764        237.0004        194.0004
 -13988504.75449 -10891217.17446  22256925.9444   22256925.6944   22256930.4314
      2442.0064       1902.8634        232.0004        182.0004
  -6090109.31249  -4733473.81745  24149687.1924   24149688.3184   24149697.1474
     -3638.6154      -2835.2794        207.0004        147.0004
 -21379799.60349 -16635015.12547  21114593.0364   21114591.9794   21114595.9224
       522.1094        406.8404        237.0004        196.0004
 13  4 22  1 25 30.0000000  0 10G 5G26G12G24G14G22G15G18G 9G21
  -2258629.24049  -1716600.35145  24633856.0844   24633857.0824   24633866.4394
     -2508.0564      -1954.3214        212.0004        155.0004
  -1471949.88849   -537816.10344  24804378.1474   24804378.6414   24804387.2614
     -2854.0614      -2223.9374        199.0004        127.0004
  -7388890.26249  -5740242.67845  23823979.0494   23823978.6584   23823985.7174
      2721.9144       2120.9614        218.0004        158.0004
 -21422992.61549 -16682349.82348  20241648.7434   20241649.7174   20241655.9964
      -294.8504       -229.7524        245.0004        220.0004
  -2133541.79949  -1654885.68344  24641442.7944   24641442.4674   24641447.7244
      1841.9934       1435.3184        200.0004        128.0004
  -1835841.63749  -1417811.89745  24679748.5384   24679747.2794   24679752.5664
      2857.5124       2226.6264        206.0004        144.0004
  -6283268.04649  -4881640.19447  21941872.9514   21941873.1544   21941877.7094
     -1648.0894      -1284.2214        236.0004        194.0004
 -14061740.49249 -10948283.94846  22242990.5044   22242989.7764   22242994.6044
      2440.3754       1901.6004        233.0004        182.0004
  -5980878.35349  -4648358.96145  24170473.7284   24170473.2804   24170482.7804
     -3643.4764      -2839.0664        207.0004        146.0004
 -21395182.28149 -16647001.65147  21111665.2904   21111664.5554   21111668.7384
       503.3994        392.2704        236.0004        196.0004
 13  4 22  1 26  0.0000000  0 10G 5G26G12G24G14G22G15G18G 9G21
  -2183289.39049  -1657894.24845  24648192.5474   24648192.8484   24648202.4864
     -2514.6334      -1959.4484        212.0004        151.0004
  -1386378.78049   -471137.43744  24820661.0294   24820659.0714   24820669.2544
     -2850.6364      -2221.2744        195.0004        126.0004
  -7470554.25049  -5803876.87045  23808439.5654   23808439.2114   23808444.1904
      2722.3534       2121.3154        219.0004        158.0004
 -21413866.72149 -16675238.74648  20243385.5434   20243386.3804   20243392.6944
      -313.5324       -244.3124        245.0004        220.0004
  -2188732.62049  -1697891.44744  24630937.5244   24630939.2184   24630943.4704
      1837.3934       1431.7404        195.0004        127.0004
  -1921609.58949  -1484643.93745  24663429.5954   24663427.1584   24663431.7314
      2860.3224       2228.8204        208.0004        143.0004
  -6233807.60049  -4843099.62747  21951284.5654   21951284.9854   21951289.7184
     -1649.2894      -1285.1594        235.0004        193.0004
 -14134925.28749 -11005311.03346  22229064.0024   22229062.6584   22229067.2204
      2438.6424       1900.2334        233.0004        181.0004
  -5871500.12549  -4563129.36245  24191288.2054   24191287.9604   24191296.5474
     -3648.3184      -2842.8394        206.0004        146.0004
 -21410003.12049 -16658550.37947  21108844.8364   21108844.2884   21108848.3034
       484.6694        377.6704        237.0004        196.0004
 13  4 22  1 26 30.0000000  0 10G 5G26G12G24G14G22G15G18G 9G21
  -2107752.30149  -1599034.48545  24662568.8184   24662568.6824   24662577.8654
     -2521.1744      -1964.5414        214.0004        154.0004
  -1300911.33448   -404539.51144  24836926.3484   24836928.3804   24836932.8024
     -2847.1434      -2218.5574        194.0004        126.0004
  -7552230.09649  -5867520.30745  23792895.8294   23792895.4494   23792901.0724
      2722.6494       2121.5404        212.0004        157.0004
 -21404181.81849 -16667692.07848  20245228.6764   20245229.2024   20245235.7044
      -332.1094       -258.7854        245.0004        220.0004
  -2243785.67149  -1740789.88544  24620462.6284   24620463.5994   24620468.9334
      1832.7674       1428.1244        196.0004        127.0004
  -2007462.60649  -1551542.26445  24647089.6504   24647089.4274   24647093.5144
      2863.1654       2231.0274        206.0004        143.0004
  -6184312.17649  -4804531.81947  21960703.0174   21960703.4784   21960708.5884
     -1650.4284      -1286.0494        234.0004        194.0004
 -14208058.26249 -11062297.72946  22215147.1834   22215145.9314   22215150.9634
      2436.8664       1898.8624        233.0004        181.0004
  -5761977.39449  -4477787.14845  24212129.7534   24212130.8334   24212137.6294
     -3653.0864      -2846.5614        207.0004        145.0004
 -21424261.34849 -16669660.71747  21106131.9244   21106131.3504   21106135.0334
       465.9044        363.0444        237.0004        197.0004
 13  4 22  1 27  0.0000000  0 10G 5G26G12G24G14G22G15G18G 9G21
  -2032018.09449  -1540021.11545  24676979.4344   24676979.7904   24676988.7574
     -2527.7454      -1969.6644        212.0004        152.0004
  -1215547.90349   -338022.68544  24853169.6824   24853166.8304   24853177.5844
     -2843.7474      -2215.8974        195.0004        125.0004
  -7633914.72449  -5931170.56945  23777350.5094   23777351.9954   23777357.6454
      2722.9434       2121.7684        218.0004        159.0004
 -21393939.48149 -16659711.05048  20247177.9324   20247178.4284   20247184.7024
      -350.6774       -273.2524        245.0004        220.0004
  -2298701.70449  -1783581.53044  24610013.3934   24610014.3314   24610017.2894
      1828.2824       1424.6344        195.0004        126.0004
  -2093399.68449  -1618506.10345  24630735.8734   24630734.9514   24630739.8954
      2865.9294       2233.1904        205.0004        142.0004
  -6134782.41049  -4765937.24447  21970127.7804   21970128.7764   21970133.3284
     -1651.5484      -1286.9244        233.0004        193.0004
 -14281137.31949 -11119242.41246  22201240.5424   22201239.7244   22201244.1084
      2435.0424       1897.4324        233.0004        181.0004
  -5652313.02249  -4392334.56645  24232998.4004   24232998.8804   24233006.8444
     -3657.7714      -2850.2054        209.0004        145.0004
 -21437956.82649 -16680332.54447  21103524.8644   21103525.1414   21103529.0864
       447.1314        348.4164        237.0004        197.0004
 13  4 22  1 27 30.0000000  0 10G 5G26G12G24G14G22G15G18G 9G21
  -1956087.43649  -1480854.64345  24691430.5234   24691430.2174   24691438.7534
     -2534.2534      -1974.7244        215.0004        156.0004
  -1130288.88048   -271587.19944  24869394.9244   24869396.4404   24869401.3864
     -2840.3734      -2213.2694        192.0004        126.0004
  -7715605.21349  -5994825.41545  23761805.4604   23761805.7474   23761814.2484
      2723.0764       2121.8764        216.0004        160.0004
 -21383140.38949 -16651296.18448  20249233.2734   20249233.3154   20249239.6934
      -369.2264       -287.7094        246.0004        220.0004
  -2353481.32448  -1826266.90144  24599586.1724   24599586.8384   24599601.0304
      1823.7024       1421.0594        189.0004        126.0004
  -2179419.92949  -1685534.73945  24614368.5274   24614365.2854   24614372.7584
      2868.7274       2235.3714        206.0004        143.0004
  -6085218.91649  -4727316.38947  21979559.6694   21979560.6554   21979565.1974
     -1652.6844      -1287.8054        235.0004        192.0004
 -14354160.84149 -11176143.81746  22187345.4934   22187344.4244   22187347.6094
      2433.2014       1895.9844        234.0004        181.0004
  -5542509.93349  -4306773.89445  24253893.0114   24253894.3054   24253901.8114
     -3662.3834      -2853.8044        209.0004        143.0004
 -21451089.04449 -16690565.46047  21101025.7694   21101025.8724   21101030.0864
       428.3284        333.7714        236.0004        197.0004
 13  4 22  1 28  0.0000000  0 10G 5G26G12G24G14G22G15G18G 9G21
  -1879960.67449  -1421535.40845  24705916.5294   24705917.3944   24705924.8454
     -2540.7234      -1979.7674        213.0004        152.0004
  -1045134.67448   -205233.42644  24885599.0074   24885594.8664
     -2836.7884      -2210.4864        189.0004        122.0004
  -7797298.63549  -6058482.54545  23746260.2674   23746261.3934   23746268.1374
      2723.1324       2121.9164        218.0004        160.0004
 -21371785.10349 -16642447.92348  20251393.9664   20251394.1424   20251400.5014
      -387.7544       -302.1464        246.0004        220.0004
  -2408125.13548  -1868846.47044  24589192.2344   24589187.3434   24589198.7134
      1819.2094       1417.5784        192.0004        124.0004
  -2265522.16649  -1752627.26945  24597981.2314   24597980.9254   24597985.6534
      2871.4634       2237.5014        204.0004        142.0004
  -6035622.58849  -4688669.94647  21988997.4574   21988998.5624   21989003.4174
     -1653.7664      -1288.6414        234.0004        192.0004
 -14427126.84449 -11233000.41346  22173459.3314   22173458.0884   22173462.5534
      2431.2244       1894.4624        234.0004        182.0004
  -5432571.20549  -4221107.50145  24274813.6574   24274814.0684   24274821.3894
     -3666.8514      -2857.2824        207.0004        141.0004
 -21463657.79549 -16700359.32347  21098634.4014   21098634.3634   21098638.3414
       409.5504        319.1284        237.0004        197.0004
 13  4 22  1 28 30.0000000  0 10G 5G26G12G24G14G22G15G18G 9G21
  -1803638.48949  -1362063.85745  24720440.2664   24720441.1664   24720450.0914
     -2547.3634      -1984.9514        215.0004        155.0004
   -960085.50548   -138961.44944  24901783.5344   24901778.2974
     -2833.3784      -2207.8234        189.0004        121.0004
  -7878992.04249  -6122139.68045  23730715.7614   23730715.4424   23730723.5984
      2723.0554       2121.8584        216.0004        161.0004
 -21359875.16349 -16633167.46248  20253660.8864   20253660.7144   20253667.0444
      -406.2304       -316.5444        246.0004        220.0004
  -2462633.75848  -1911320.66744  24578819.9884   24578815.9894   24578827.6794
      1814.6304       1414.0064        191.0004        124.0004
  -2351705.52949  -1819783.02345  24581580.9134   24581580.9794   24581585.1834
      2874.0884       2239.5464        203.0004        142.0004
  -5985993.96249  -4649998.32647  21998442.2444   21998442.1654   21998446.8804
     -1654.8104      -1289.4684        234.0004        191.0004
 -14500033.62149 -11289810.85846  22159585.7694   22159585.1994   22159589.0344
      2429.2264       1892.8934        235.0004        182.0004
  -5322499.42449  -4135337.43445  24295759.8874   24295759.9594   24295767.3884
     -3671.2514      -2860.7094        208.0004        141.0004
 -21475662.83649 -16709713.92447  21096349.8504   21096349.6124   21096353.7254
       390.7624        304.4864        237.0004        197.0004
 13  4 22  1 29  0.0000000  0 10G 5G26G12G24G14G22G15G18G 9G21
  -1727121.08749  -1302440.20745  24735001.7294   24735001.2414   24735012.3824
     -2553.7694      -1989.9364        216.0004        157.0004
   -875141.96258    -72771.74954  24917947.9174
     -2829.8064      -2205.0424        182.0004        119.0004
  -7960682.15649  -6185794.22945  23715168.4134   23715170.0974   23715178.3784
      2722.9444       2121.7714        216.0004        162.0004
 -21347411.28549 -16623455.36048  20256032.4504   20256032.1994   20256038.6664
      -424.6974       -330.9344        245.0004        220.0004
  -2517007.43848  -1953689.67844  24568469.7774   24568467.0204
      1810.2784       1410.6054        190.0004        122.0004
  -2437968.87249  -1887001.08545  24565168.6314   24565165.6044   24565170.1234
      2876.7204       2241.6024        207.0004        143.0004
  -5936333.80949  -4611302.15747  22007892.0224   22007892.2364   22007897.1814
     -1655.8284      -1290.2514        234.0004        191.0004
 -14572879.25049 -11346573.65746  22145723.9804   22145723.0804   22145726.9244
      2427.1234       1891.2644        235.0004        182.0004
  -5212297.33249  -4049465.80945  24316730.5314   24316730.2554   24316738.0664
     -3675.5044      -2864.0244        205.0004        140.0004
 -21487103.99849 -16718629.14647  21094172.7904   21094172.5594   21094176.7544
       371.9454        289.8354        237.0004        197.0004
 13  4 22  1 29 30.0000000  0 10G 5G26G12G24G14G22G15G18G 9G21
  -1650409.21949  -1242665.03445  24749600.2134   24749599.3544   24749609.4554
     -2560.3204      -1995.0444        214.0004        154.0004
   -790304.24858     -6664.50354  24934090.7194
     -2826.1574      -2202.2104        174.0004        119.0004
  -8042366.17449  -6249444.03845  23699624.6484   23699625.8754   23699633.8174
      2722.6474       2121.5304        216.0004        162.0004
 -21334394.40349 -16613312.35448  20258509.0864   20258509.2524   20258515.6834
      -443.1154       -345.2824        245.0004        219.0004
  -2571247.06049  -1995954.27044  24558151.3514   24558149.6354   24558158.8164
      1805.8284       1407.1394        195.0004        126.0004
  -2524311.41149  -1954280.86045  24548736.3064   24548733.9444   24548740.9874
      2879.4014       2243.6824        204.0004        143.0004
  -5886642.59649  -4572581.76747  22017348.6194   22017348.5984   22017353.1694
     -1656.8664      -1291.0694        235.0004        191.0004
 -14645662.08549 -11403287.54146  22131872.9314   22131873.1354   22131877.5124
      2425.0334       1889.6484        235.0004        183.0004
  -5101967.99249  -3963495.02245  24337725.2444   24337725.0274   24337732.5884
     -3679.8324      -2867.4044        206.0004        139.0004
 -21497980.74149 -16727104.56247  21092103.5784   21092103.0124   21092106.8324
       353.1514        275.1884        237.0004        197.0004
 13  4 22  1 30  0.0000000  0 10G 5G26G12G24G14G22G15G18G 9G21
  -1573503.29549  -1182738.62545  24764231.8524   24764233.5514   24764242.5164
     -2566.7464      -2000.0454        211.0004        149.0004
   -705572.80857     50041.06453  24950214.3334
     -2822.5614      -2199.3984        163.0004         74.0004
  -8124040.79549  -6313086.53845  23684083.3374   23684082.5984   23684092.5484
      2722.2524       2121.2444        216.0004        162.0004
 -21320825.55649 -16602739.24048  20261091.3814   20261091.5244   20261097.8514
      -461.4504       -359.5694        245.0004        219.0004
  -2625353.02848  -2038114.75344  24547855.9964   24547852.8644   24547859.0344
      1801.3414       1403.6414        194.0004        124.0004
  -2610731.68049  -2021621.22945  24532290.8824   24532290.1834   24532294.6534
      2881.9694       2245.6864        205.0004        143.0004
  -5836921.29749  -4533837.94647  22026810.9634   22026810.4674   22026815.0084
     -1657.8424      -1291.8304        236.0004        191.0004
 -14718380.50049 -11459951.21546  22118035.1534   22118034.8694   22118039.1234
      2422.8284       1887.9314        235.0004        184.0004
  -4991514.30649  -3877427.32045  24358744.6664   24358745.1414   24358752.1364
     -3683.8564      -2870.5384        205.0004        138.0004
 -21508293.07849 -16735140.17647  21090141.1814   21090140.6194   21090144.5634
       334.2994        260.5034        237.0004        197.0004
 13  4 22  1 30 30.0000000  0 11G 5G26G12G24G14G22G15G18G25G 9G21
  -1496403.97249  -1122661.57745  24778908.1424   24778907.1424   24778916.2674
     -2573.2044      -2005.0744        216.0004        153.0004
   -620947.77558    116032.58554  24966318.6684
     -2819.0634      -2198.4854        173.0004        111.0004
  -8205703.05549  -6376719.39245  23668542.1814   23668543.1794   23668550.5574
      2721.8744       2120.9374        215.0004        160.0004
 -21306706.09049 -16591737.07248  20263778.1174   20263778.3754   20263784.8544
      -479.8324       -373.8984        246.0004        220.0004
  -2679326.36748  -2080171.84244  24537579.8504   24537583.0884   24537589.4634
      1796.7864       1400.0944        189.0004        126.0004
  -2697228.96749  -2089021.58745  24515832.0354   24515830.3734   24515833.9264
      2884.4894       2247.6474        207.0004        143.0004
  -5787170.40749  -4495071.06147  22036277.7514   22036277.6754   22036281.9584
     -1658.8374      -1292.6014        236.0004        192.0004
 -14791032.67849 -11516563.28446  22104210.0294   22104209.8184   22104214.3324
      2420.6004       1886.1764        235.0004        184.0004
    -55858.19851    -12753.56713                                  24993925.867
      2853.5774       2221.953                          74.000
  -4880939.21249  -3791265.03545  24379786.1354   24379785.5754   24379795.2764
     -3687.8784      -2873.6654        205.0004        138.0004
 -21518040.90449 -16742735.91247  21088286.1954   21088285.6804   21088289.2334
       315.4954        245.8414        236.0004        197.0004
 13  4 22  1 31  0.0000000  0 11G 5G26G12G24G14G22G15G18G25G 9G21
  -1419111.37749  -1062433.92645  24793612.7604   24793613.3724   24793623.2434
     -2579.6284      -2010.0924        208.0004        150.0004
   -536429.51158    181945.37254  24982399.8464
     -2815.6074      -2195.7964        173.0004        111.0004
  -8287349.76049  -6440340.10745  23653005.7764   23653006.0234   23653014.5424
      2721.2514       2120.4614        217.0004        161.0004
 -21292037.32849 -16580306.88448  20266569.1124   20266569.7094   20266576.1624
      -498.1104       -388.1364        245.0004        219.0004
  -2733167.70648  -2122126.11044  24527337.7984   24527336.9904   24527346.1194
      1792.4464       1396.7104        194.0004        127.0004
  -2783801.82049  -2156480.81745  24499353.5794   24499354.0194   24499360.7844
      2886.9604       2249.5784        205.0004        143.0004
  -5737390.37749  -4456281.47447  22045750.5094   22045750.5804   22045755.0954
     -1659.7994      -1293.3594        236.0004        192.0004
 -14863616.69049 -11573122.24646  22090397.2844   22090397.5034   22090401.3784
      2418.3114       1884.4054        235.0004        183.0004
   -141569.02041    -12753.567 3                                  24993925.867
      2860.5254       2221.953                          74.000
  -4770245.35549  -3705010.19645  24400850.2464   24400850.3764   24400857.4084
     -3691.7854      -2876.7164        204.0004        137.0004
 -21527223.75249 -16749891.40247  21086539.2634   21086538.4214   21086542.3524
       296.6934        231.1854        238.0004        196.0004
 13  4 22  1 31 30.0000000  0 10G 5G12G24G14G22G15G18G25G 9G21
  -1341626.49649  -1002056.35545  24808359.9144   24808359.7134   24808368.8234
     -2586.1204      -2015.1424        213.0004        154.0004
  -8368977.86449  -6503946.35645  23637472.5004   23637473.0514   23637480.0624
      2720.5684       2119.9114        218.0004        161.0004
 -21276820.29549 -16568449.47048  20269464.5954   20269465.4384   20269471.8864
      -516.3924       -402.3834        245.0004        219.0004
  -2786877.48249  -2163977.83744  24517119.1834   24517118.5964   24517123.4854
      1788.1354       1393.3574        195.0004        128.0004
  -2870449.36049  -2223998.28845  24482866.7944   24482866.2894   24482871.3394
      2889.5474       2251.5834        204.0004        144.0004
  -5687582.36949  -4417470.09547  22055228.8684   22055228.8084   22055233.3324
     -1660.7384      -1294.0824        236.0004        193.0004
 -14936130.68749 -11629626.64946  22076598.8004   22076598.3754   22076602.8614
      2415.9274       1882.5364        235.0004        184.0004
   -227489.17249   -165385.48745  24956605.4644
      2867.4954       2234.4064        204.0004        137.0004
  -4659435.27349  -3618664.81245  24421936.3544   24421937.4294   24421945.8604
     -3695.5304      -2879.6334        202.0004        136.0004
 -21535841.67849 -16756606.70047  21084899.2944   21084898.3534   21084902.2804
       277.8434        216.4974        237.0004        196.0004
 13  4 22  1 32  0.0000000  0 10G 5G12G24G14G22G15G18G25G 9G21
  -1263949.46649   -941529.19645  24823142.3014   24823142.4544   24823150.6604
     -2592.4604      -2020.0864        213.0004        153.0004
  -8450584.61249  -6567535.94245  23621942.7254   23621944.0194   23621949.5944
      2719.8094       2119.3324        218.0004        160.0004
 -21261055.76949 -16556165.43948  20272464.3294   20272465.2064   20272472.0004
      -534.5794       -416.5564        245.0004        219.0004
  -2840455.98248  -2205727.28944  24506917.0944   24506916.8994   24506924.1784
      1783.7554       1389.9344        191.0004        129.0004
  -2957170.32549  -2291572.92545  24466366.5154   24466363.4554   24466369.3504
      2891.9254       2253.4424        207.0004        143.0004
  -5637746.50249  -4378636.99947  22064711.7784   22064712.3014   22064716.7264
     -1661.6534      -1294.7984        236.0004        193.0004
 -15008572.80149 -11686075.03046  22062812.5534   22062812.8564   22062817.7114
      2413.5084       1880.6624        235.0004        184.0004
   -313616.50749   -232497.62645  24940212.5454                   24940227.3344
      2874.3404       2239.7434        204.0004        139.0004
  -4548511.98949  -3532231.24045  24443044.9204   24443044.5694   24443055.9804
     -3699.3464      -2882.6024        205.0004        135.0004
 -21543894.49849 -16762881.65547  21083366.7264   21083366.1704   21083369.6674
       259.0014        201.8274        237.0004        196.0004
 13  4 22  1 32 30.0000000  0 10G 5G12G24G14G22G15G18G25G 9G21
  -1186081.15749   -880852.84745  24837957.7964   24837958.4804   24837968.7744
     -2598.7664      -2025.0024        208.0004        151.0004
  -8532166.58549  -6631106.21945  23606418.8254   23606418.7264   23606426.8954
      2718.9254       2118.6534        220.0004        162.0004
 -21244745.28749 -16543455.98948  20275568.0684   20275569.1304   20275575.4794
      -552.7744       -430.7294        244.0004        219.0004
  -2893904.22848  -2247375.28044  24496745.9444   24496749.0104   24496755.8794
      1779.5284       1386.6414        193.0004        130.0004
  -3043963.74749  -2359204.03245  24449846.7524   24449847.1314   24449852.5244
      2894.3134       2255.3114        205.0004        145.0004
  -5587883.17849  -4339782.51447  22074199.7004   22074200.7484   22074205.5384
     -1662.5334      -1295.4854        234.0004        192.0004
 -15080941.32449 -11742466.07246  22049041.9524   22049041.8024   22049046.0594
      2411.0514       1878.7424        235.0004        185.0004
   -399948.76349   -299769.46345  24923787.4444   24923787.4154   24923801.4224
      2881.1024       2245.0184        201.0004        137.0004
  -4437478.38149  -3445711.67145  24464173.4364   24464173.9804   24464184.4164
     -3702.9454      -2885.4074        200.0004        134.0004
 -21551382.39049 -16768716.39947  21081941.8454   21081941.3174   21081945.3874
       240.1744        187.1474        237.0004        197.0004
 13  4 22  1 33  0.0000000  0 10G 5G12G24G14G22G15G18G25G 9G21
  -1108021.71149   -820027.67545  24852815.8564   24852815.8634   24852823.3334
     -2605.1944      -2030.0094        216.0004        154.0004
  -8613720.72049  -6694654.83845  23590900.4574   23590900.6754   23590905.8544
      2717.9614       2117.8984        221.0004        160.0004
 -21227889.99149 -16530322.00848  20278775.3184   20278776.5494   20278782.8424
      -570.9054       -444.8634        244.0004        219.0004
  -2947222.68149  -2288922.10044  24486606.0354   24486603.6804   24486610.6794
      1775.0644       1383.1694        197.0004        131.0004
  -3130828.57449  -2426890.78745  24433319.8124   24433317.0654   24433322.2554
      2896.6934       2257.1584        207.0004        144.0004
  -5537993.41249  -4300907.41747  22083693.3704   22083694.3714   22083698.7474
     -1663.4574      -1296.1944        235.0004        191.0004
 -15153234.17349 -11798798.13146  22035285.5214   22035284.6964   22035288.9804
      2408.4684       1876.7204        236.0004        185.0004
   -486483.80759   -367199.30855  24907319.2114   24907318.3464   24907331.9844
      2887.7684       2250.2084        203.0004        138.0004
  -4326337.27749  -3359108.35345  24485323.8234   24485323.4254   24485332.3734
     -3706.4714      -2888.1604        197.0004        134.0004
 -21558305.00349 -16774110.67247  21080623.8434   21080623.9484   21080627.9284
       221.3184        172.4614        236.0004        196.0004
 13  4 22  1 33 30.0000000  0 10G 5G12G24G14G22G15G18G25G 9G21
  -1029772.06349   -759054.27245  24867703.8184   24867703.1164   24867714.3694
     -2611.4934      -2034.9214        206.0004        150.0004
  -8695244.00349  -6758179.39145  23575386.4274   23575386.9444   23575393.6694
      2716.8894       2117.0544        218.0004        161.0004
 -21210491.57049 -16516764.80648  20282086.5614   20282087.5444   20282093.9164
      -589.0134       -458.9694        245.0004        219.0004
  -3000412.16749  -2330368.41645  24476480.2224   24476481.1924   24476487.9204
      1770.7534       1379.8004        196.0004        132.0004
  -3217764.09549  -2494632.59045  24416776.3324   24416774.8044   24416779.9774
      2898.9754       2258.9444        209.0004        144.0004
  -5488077.71149  -4262012.10147  22093192.1594   22093192.9444   22093197.6834
     -1664.2914      -1296.8434        233.0004        190.0004
 -15225449.50149 -11855069.78946  22021543.1424   22021542.7734   22021547.2744
      2405.8864       1874.7194        236.0004        186.0004
   -573219.34849   -434785.36645  24890814.1324   24890815.0724   24890826.4124
      2894.4844       2255.4364        203.0004        140.0004
  -4215091.40949  -3272423.43045  24506491.7744   24506493.2214   24506501.0904
     -3709.8454      -2890.7774        198.0004        132.0004
 -21564662.41649 -16779064.52347  21079413.8364   21079414.2014   21079418.3204
       202.5094        157.8074        236.0004        197.0004
 13  4 22  1 34  0.0000000  0 10G 5G12G24G14G22G15G18G25G 9G21
   -951332.65049   -697932.93145  24882629.3754   24882631.5234   24882641.0074
     -2617.8334      -2039.8624        214.0004        150.0004
  -8776733.28449  -6821677.46545  23559877.6614   23559878.6704   23559888.0314
      2715.6654       2116.1034        218.0004        161.0004
 -21192550.60649 -16502784.85048  20285500.5824   20285501.6844   20285508.1144
      -607.0834       -473.0524        245.0004        219.0004
  -3053473.35049  -2371714.78545  24466381.6314   24466385.5974   24466390.9944
      1766.5384       1376.5244        195.0004        132.0004
  -3304768.14549  -2562427.81345  24400218.4984   24400217.5114   24400222.6654
      2901.3054       2260.7554        207.0004        146.0004
  -5438136.57749  -4223096.98047  22102696.1814   22102696.6944   22102701.0884
     -1665.1324      -1297.5044        233.0004        189.0004
 -15297585.52849 -11911279.65346  22007816.3624   22007815.8154   22007820.3344
      2403.1884       1872.6124        236.0004        186.0004
   -660153.29349   -502526.08145  24874271.9514   24874271.3714   24874282.3934
      2901.0474       2260.5484        203.0004        137.0004
  -4103743.29748  -3185658.81044  24527680.6564   24527681.9824   24527689.5804
     -3713.3084      -2893.4894        192.0004        130.0004
 -21570454.39249 -16783577.78147  21078312.1574   21078312.1324   21078316.0594
       183.6394        143.0944        238.0004        197.0004
 13  4 22  1 34 30.0000000  0 10G 5G12G24G14G22G15G18G25G 9G21
   -872704.29049   -636664.44045  24897595.7874   24897594.5814   24897604.6374
     -2624.0084      -2044.6724        213.0004        153.0004
  -8858185.75749  -6885146.85545  23544378.4744   23544378.7474   23544387.2254
      2714.4084       2115.1304        219.0004        162.0004
 -21174068.65149 -16488383.33848  20289017.7314   20289018.4324   20289025.0434
      -625.0804       -487.0804        244.0004        219.0004
  -3106406.62649  -2412961.46445  24456313.2694   24456309.2674   24456314.4224
      1762.3374       1373.2494        200.0004        132.0004
  -3391839.87049  -2630275.75945  24383650.8064   24383649.1094   24383653.3134
      2903.5054       2262.4644        208.0004        146.0004
  -5388170.90649  -4184162.73347  22112204.5984   22112205.4044   22112209.9184
     -1665.9414      -1298.1374        234.0004        190.0004
 -15369640.10449 -11967426.04646  21994104.9464   21994103.9174   21994108.5884
      2400.4214       1870.4584        237.0004        187.0004
   -747283.34649   -570419.54945  24857692.2104   24857691.7014   24857705.0164
      2907.5814       2265.6454        203.0004        140.0004
  -3992295.97848  -3098816.90044  24548889.8544   24548889.5764   24548897.6534
     -3716.5384      -2896.0004        194.0004        130.0004
 -21575681.20349 -16787650.64747  21077317.5214   21077317.8314   21077321.5694
       164.8034        128.4184        237.0004        197.0004
 13  4 22  1 35  0.0000000  0 10G 5G12G24G14G22G15G18G25G 9G21
   -793887.32749   -575248.97245  24912590.0444   24912590.5064   24912603.1244
     -2630.2834      -2049.5604        208.0004        148.0004
  -8939597.90849  -6948584.82345  23528885.8634   23528885.7474   23528895.0114
      2713.0394       2114.0654        216.0004        161.0004
 -21155047.06949 -16473561.33548  20292637.7624   20292638.2084   20292644.6934
      -643.0044       -501.0414        245.0004        219.0004
  -3159212.88149  -2454109.15445  24446263.4554   24446260.8624   24446267.9434
      1758.1114       1369.9554        200.0004        134.0004
  -3478978.32049  -2698175.69245  24367069.1494   24367066.4004   24367070.7024
      2905.7084       2264.1814        212.0004        146.0004
  -5338180.92749  -4145209.54847  22121718.1404   22121717.8114   22121722.6484
     -1666.7494      -1298.7624        235.0004        190.0004
 -15441611.66549 -12023507.74747  21980409.2074   21980408.6274   21980413.1444
      2397.6574       1868.3144        237.0004        188.0004
   -834607.31549   -638464.14645  24841072.3524   24841073.9974   24841086.4464
      2914.0264       2270.6724        196.0004        138.0004
  -3880752.15548  -3011899.78144  24570114.4694   24570116.3564   24570127.8044
     -3719.8054      -2898.5574        193.0004        130.0004
 -21580343.09449 -16791283.31847  21076430.3444   21076430.1714   21076434.2754
       145.9864        113.7584        237.0004        197.0004
 13  4 22  1 35 30.0000000  0 10G 5G12G24G14G22G15G18G25G 9G21
   -714882.25449   -513686.85845  24927627.4124   24927628.7014   24927636.3524
     -2636.5394      -2054.4354        213.0004        150.0004
  -9020966.56549  -7011988.91145  23513401.4224   23513403.1274   23513410.1474
      2711.5344       2112.8754        218.0004        162.0004
 -21135487.06349 -16458319.77948  20296360.0374   20296360.4394   20296366.9074
      -660.9504       -515.0244        245.0004        219.0004
  -3211892.75949  -2495158.39545  24436237.5074   24436237.6274   24436245.0094
      1753.8474       1366.6324        197.0004        134.0004
  -3566182.25749  -2766126.68245  24350470.6084   24350472.2174   24350476.9974
      2907.8794       2265.8764        207.0004        147.0004
  -5288167.35249  -4106237.98347  22131235.7234   22131235.4784   22131239.9714
     -1667.5284      -1299.3654        235.0004        190.0004
 -15513498.27249 -12079523.26047  21966730.0734   21966728.7054   21966733.3874
      2394.7734       1866.0534        238.0004        189.0004
   -922122.93349   -706658.05945  24824420.4824   24824419.1674   24824432.5794
      2920.3224       2275.5704        202.0004        139.0004
  -3769114.48848  -2924909.55145  24591358.8254   24591356.9324   24591371.0924
     -3722.8544      -2900.9254        193.0004        132.0004
 -21584439.81849 -16794475.60747  21075651.1334   21075650.5094   21075654.7564
       127.1434         99.0824        237.0004        197.0004
 13  4 22  1 36  0.0000000  0 10G 5G12G24G14G22G15G18G25G 9G21
   -635689.69249   -451978.76745  24942697.2324   24942698.0904   24942707.3924
     -2642.9004      -2059.3914        212.0004        153.0004
  -9102288.85149  -7075356.86845  23497928.0284   23497927.8844   23497934.5454
      2709.8924       2111.6064        219.0004        162.0004
 -21115389.80949 -16442659.59048  20300184.3674   20300184.7454   20300191.3854
      -678.8714       -528.9894        246.0004        219.0004
  -3264446.89249  -2536109.63345  24426238.3804   24426236.3244   24426243.0404
      1749.6684       1363.3744        198.0004        135.0004
  -3653450.70449  -2834127.94445  24333868.2974   24333865.2664   24333869.4434
      2910.0254       2267.5504        208.0004        148.0004
  -5238130.38749  -4067248.19247  22140757.2394   22140757.0764   22140761.7154
     -1668.2824      -1299.9654        235.0004        190.0004
 -15585297.94849 -12135471.03247  21953066.5624   21953065.9574   21953070.3254
      2391.8154       1863.7504        237.0004        189.0004
  -1009827.95249   -774999.57145  24807729.3144   24807730.2774   24807744.2944
      2926.6684       2280.5254        195.0004        139.0004
  -3657385.73649  -2837848.29845  24612622.0914   24612620.1474   24612631.2144
     -3725.7204      -2903.1544        197.0004        133.0004
 -21587971.44249 -16797227.55247  21074979.5644   21074978.6344   21074982.4384
       108.2744         84.3764        238.0004        197.0004
 13  4 22  1 36 30.0000000  0 10G 5G12G24G14G22G15G18G25G 9G21
   -556310.94349   -390125.48745  24957798.5334   24957800.4964   24957811.8634
     -2649.1174      -2064.2354        207.0004        144.0004
  -9183561.62349  -7138686.23945  23482461.9824   23482462.9404   23482469.9924
      2708.2164       2110.2974        218.0004        161.0004
 -21094756.77349 -16426581.90548  20304111.2214   20304111.2584   20304117.8494
      -696.6634       -542.8544        246.0004        220.0004
  -3316875.80249  -2576963.28645  24416261.0734   24416258.2494   24416265.2884
      1745.5154       1360.1424        197.0004        135.0004
  -3740782.25749  -2902178.38445  24317248.2364   24317246.1114   24317251.5394
      2912.1454       2269.2024        211.0004        149.0004
  -5188070.71549  -4028240.71247  22150282.9784   22150282.8574   22150287.7544
     -1669.0254      -1300.5374        235.0004        190.0004
 -15657008.83349 -12191349.62047  21939420.6844   21939419.7134   21939423.8954
      2388.8404       1861.4434        238.0004        189.0004
  -1097720.07449   -843486.89845  24791007.5604   24791006.6164   24791017.4624
      2932.8104       2285.3044        200.0004        141.0004
  -3545568.51149  -2750718.11445  24633899.2624   24633898.8114   24633907.5454
     -3728.7314      -2905.4994        200.0004        133.0004
 -21590938.22249 -16799539.35747  21074414.9254   21074414.2144   21074418.1034
        89.4924         69.7354        237.0004        197.0004
 13  4 22  1 37  0.0000000  0 10G 5G12G24G14G22G15G18G25G 9G21
   -476745.44149   -328126.75345  24972941.9754   24972944.8194   24972951.9894
     -2655.2464      -2069.0004        211.0004        144.0004
  -9264781.80449  -7201974.61146  23467006.1584   23467007.1974   23467014.3214
      2706.3994       2108.8754        219.0004        164.0004
 -21073589.23949 -16410087.72948  20308139.5184   20308139.2894   20308145.6084
      -714.4884       -556.7424        246.0004        220.0004
  -3369180.27648  -2617719.99945  24406305.2594   24406306.9444   24406315.9494
      1741.4114       1356.9464        194.0004        134.0004
  -3828175.81349  -2970277.16445  24300617.2164   24300615.9764   24300620.8714
      2914.1684       2270.7774        210.0004        148.0004
  -5137989.01849  -3989216.07347  22159812.2194   22159812.9284   22159817.7574
     -1669.7494      -1301.0944        232.0004        189.0004
 -15728628.82049 -12247157.38347  21925791.2324   21925790.4804   21925795.2884
      2385.7724       1859.0534        237.0004        189.0004
  -1185797.07449   -912118.25145  24774244.6174   24774243.3654   24774257.1514
      2938.9994       2290.1344        202.0004        141.0004
  -3433665.63449  -2663521.17445  24655194.4394   24655194.8364   24655202.9584
     -3731.5844      -2907.7284        201.0004        134.0004
 -21593340.39049 -16801411.20947  21073957.9424   21073956.7844   21073960.7944
        70.6584         55.0564        237.0004        196.0004
 13  4 22  1 37 30.0000000  0 10G 5G12G24G14G22G15G18G25G 9G21
   -396994.60549   -265983.55145  24988120.2144   24988121.1364   24988130.3414
     -2661.3734      -2073.7844        212.0004        151.0004
  -9345945.88549  -7265219.28045  23451560.8364   23451561.8664   23451568.0854
      2704.5034       2107.4044        221.0004        162.0004
 -21051888.91749 -16393178.39548  20312268.6924   20312268.6194   20312275.1224
      -732.2254       -570.5674        246.0004        220.0004
  -3421360.91249  -2658380.23145  24396377.1124   24396377.5154   24396383.2594
      1737.4174       1353.8304        196.0004        134.0004
  -3915630.21949  -3038423.35145  24283976.2314   24283973.3554   24283978.6534
      2916.1604       2272.3294        211.0004        149.0004
  -5087885.92649  -3950174.75047  22169346.8944   22169347.1654   22169352.2564
     -1670.4624      -1301.6634        233.0004        189.0004
 -15800156.01149 -12302892.83447  21912179.7724   21912179.2204   21912184.2484
      2382.6714       1856.6324        237.0004        189.0004
  -1274056.58749   -980891.87545  24757445.8584   24757448.2354   24757461.5444
      2944.9954       2294.8024        199.0004        139.0004
  -3321680.13449  -2576259.85145  24676505.4484   24676503.2724   24676512.5544
     -3734.2504      -2909.7974        202.0004        135.0004
 -21595178.09649 -16802843.21347  21073608.0614   21073607.2614   21073611.0684
        51.8484         40.4024        236.0004        196.0004
 13  4 22  1 38  0.0000000  0  9G 5G12G24G14G22G15G18G25G21
   -317059.30449   -203696.70045  25003327.7244   25003329.0064   25003343.0934
     -2667.5494      -2078.5994        205.0004        144.0004
  -9427050.78549  -7328417.86245  23436126.5814   23436127.5414   23436133.8734
      2702.4904       2105.8384        219.0004        162.0004
 -21029656.87549 -16375854.74448  20316499.1164   20316499.3114   20316505.7254
      -749.9264       -584.3544        246.0004        220.0004
  -3473418.73049  -2698944.76145  24386472.4624   24386469.4064   24386477.7834
      1733.2224       1350.5624        200.0004        134.0004
  -4003144.08849  -3106615.90545  24267319.8334   24267320.6184   24267325.1204
      2918.0954       2273.8384        209.0004        151.0004
  -5037761.63549  -3911116.92247  22178884.9144   22178885.3924   22178891.2444
     -1671.1504      -1302.1884        232.0004        189.0004
 -15871588.63049 -12358554.60147  21898586.9304   21898586.5924   21898591.0034
      2379.5024       1854.1624        237.0004        188.0004
  -1362496.34049  -1049805.91845  24740619.5524   24740617.6034   24740632.6294
      2950.9534       2299.4414        200.0004        139.0004
 -21596451.56749 -16803835.55547  21073365.5284   21073364.8704   21073368.9174
        33.0504         25.7574        237.0004        196.0004
 13  4 22  1 38 30.0000000  0  9G 5G12G24G14G22G15G18G25G21
   -236939.88649   -141266.28845  25018579.4824   25018579.0684   25018587.3624
     -2673.6964      -2083.3844        216.0004        148.0004
  -9508093.59149  -7391568.02746  23420704.2684   23420705.3614   23420712.4614
      2700.3494       2104.1634        219.0004        163.0004
 -21006894.75449 -16358118.04048  20320830.8294   20320830.8524   20320837.2694
      -767.5684       -598.1034        246.0004        220.0004
  -3525354.35849  -2739414.05345  24376587.7844   24376588.4284   24376595.0774
      1729.0894       1347.3414        196.0004        135.0004
  -4090716.06649  -3174853.74645  24250658.2924   24250656.3284   24250661.7334
      2919.9494       2275.2854        212.0004        150.0004
  -4987616.60349  -3872042.93347  22188426.9374   22188427.5964   22188432.8494
     -1671.8364      -1302.7244        230.0004        188.0004
 -15942924.52549 -12414140.99647  21885011.5914   21885011.8424   21885015.9064
      2376.2194       1851.5944        236.0004        188.0004
  -1451114.05849  -1118858.63045  24723755.3344   24723755.6664   24723769.6694
      2956.8464       2304.0344        200.0004        140.0004
 -21597160.79049 -16804388.22647  21073230.5424   21073230.3784   21073233.8544
        14.2394         11.0904        236.0004        196.0004
 13  4 22  1 39  0.0000000  0  9G 5G12G24G14G22G15G18G25G21
   -156636.75249    -78692.78245  25033858.1284   25033857.6524   25033870.2264
     -2679.7274      -2088.0844        207.0004        143.0004
  -9589071.03549  -7454667.26946  23405295.5084   23405296.0004   23405303.7054
      2698.1394       2102.4494        220.0004        163.0004
 -20983603.90349 -16339969.34348  20325262.8634   20325263.1264   20325269.3044
      -785.1724       -611.8204        246.0004        220.0004
  -3577168.23149  -2779788.47845  24366726.3264   24366727.0334   24366734.6834
      1725.1524       1344.2754        198.0004        133.0004
  -4178345.30349  -3243136.18245  24233983.0884   24233980.8234   24233985.6184
      2921.9284       2276.8214        212.0004        151.0004
  -4937451.35849  -3832953.18247  22197973.3214   22197974.4054   22197979.3324
     -1672.5084      -1303.2464        232.0004        190.0004
 -16014162.01549 -12469650.72947  21871455.9134   21871455.5734   21871459.8504
      2372.9134       1849.0344        236.0004        189.0004
  -1539907.39949  -1188048.20245  24706857.4174   24706859.1894   24706872.3404
      2962.7544       2308.6324        201.0004        140.0004
 -21597305.99349 -16804501.40647  21073203.1634   21073202.7774   21073206.3004
        -4.5494         -3.5444        237.0004        197.0004
 13  4 22  1 39 30.0000000  0  9G 5G12G24G14G22G15G18G25G21
    -76151.04349    -15976.98645  25049174.3324   25049175.1694   25049187.8354
     -2685.8884      -2092.8934        210.0004        150.0004
  -9669979.91049  -7517713.08946  23389899.0424   23389899.7754   23389908.1534
      2695.8134       2100.6194        218.0004        163.0004
 -20959785.90649 -16321409.88148  20329795.2194   20329795.5814   20329801.7714
      -802.7024       -625.4844        246.0004        220.0004
  -3628860.90449  -2820068.45445  24356890.7334   24356890.3624   24356897.2734
      1721.0724       1341.1024        198.0004        135.0004
  -4266030.16149  -3311461.97345  24217295.0784   24217294.5774   24217300.7904
      2923.7554       2278.2474        210.0004        151.0004
  -4887266.63049  -3793848.24047  22207524.3614   22207524.4364   22207529.5054
     -1673.1634      -1303.7594        235.0004        193.0004
 -16085298.95649 -12525082.10047  21857918.6204   21857918.4074   21857922.3264
      2369.5554       1846.4064        236.0004        189.0004
  -1628874.01249  -1257372.77945  24689928.8014   24689928.8554   24689940.9634
      2968.3664       2313.0094        201.0004        141.0004
 -21596887.71349 -16804175.50747  21073282.2114   21073282.4854   21073286.1874
       -23.3254        -18.1804        236.0004        196.0004
 13  4 22  1 40  0.0000000  0  9G 5G12G24G14G22G15G18G25G21
      4517.00649     46880.91245  25064526.0514   25064525.6054   25064537.4164
     -2692.0324      -2097.6704        210.0004        147.0004
  -9750817.33049  -7580703.21346  23374516.1874   23374516.5434   23374524.4314
      2693.3554       2098.7234        216.0004        164.0004
 -20935442.50749 -16302441.02448  20334427.3554   20334427.9144   20334434.2714
      -820.1864       -639.1034        246.0004        220.0004
  -3680433.50349  -2860254.85045  24347075.9394   24347076.9494   24347084.2854
      1717.1214       1338.0094        198.0004        134.0004
  -4353769.42149  -3379830.15845  24200600.1344   24200599.6884   24200602.9124
      2925.5084       2279.6164        212.0004        151.0004
  -4837062.56049  -3754728.24247  22217078.5144   22217078.4024   22217083.6104
     -1673.7774      -1304.2364        235.0004        193.0004
 -16156333.28049 -12580433.51447  21844401.4894   21844401.0234   21844405.3074
      2366.0874       1843.7054        236.0004        189.0004
  -1718011.48649  -1326830.52345  24672963.7434   24672965.5474   24672978.7644
      2974.1744       2317.5454        199.0004        141.0004
 -21595906.25349 -16803410.76447  21073468.7024   21073468.8174   21073473.1204
       -42.0804        -32.7894        236.0004        196.0004
 13  4 22  1 40 30.0000000  0  9G 5G12G24G14G22G15G18G25G21
     85366.45949    109880.09145  25079909.3444   25079911.1294   25079923.5374
     -2697.9514      -2102.2894        203.0004        145.0004
  -9831579.56549  -7643634.75446  23359147.5334   23359148.5314   23359155.8254
      2690.8134       2096.7464        219.0004        165.0004
 -20910574.87149 -16283063.66548  20339159.4034   20339160.0984   20339166.2934
      -837.6224       -652.6904        245.0004        219.0004
  -3731886.50149  -2900348.06745  24337283.3654   24337286.4234   24337292.4404
      1713.1254       1334.8994        200.0004        133.0004
  -4441561.91749  -3448239.81145  24183893.4804   24183892.1714   24183897.0304
      2927.2884       2280.9964        212.0004        153.0004
  -4786839.90249  -3715593.75447  22226634.7944   22226635.2664   22226639.7634
     -1674.3894      -1304.7094        235.0004        192.0004
 -16227262.94749 -12635703.37647  21830903.7234   21830903.6244   21830908.0524
      2362.5554       1840.9484        237.0004        189.0004
  -1807317.53649  -1396419.63245  24655973.9594   24655971.7794   24655982.7864
      2979.5564       2321.7274        204.0004        140.0004
 -21594361.93949 -16802207.43947  21073762.8234   21073762.5934   21073766.6944
       -60.8374        -47.4014        236.0004        196.0004
 13  4 22  1 41  0.0000000  0  9G 5G12G24G14G22G15G18G25G21
    166396.77649    173020.24245  25095331.9094   25095331.2434   25095343.7584
     -2704.0224      -2107.0224        212.0004        149.0004
  -9912263.65949  -7706505.39946  23343793.6854   23343794.2114   23343801.6774
      2688.1324       2094.6444        221.0004        165.0004
 -20885184.64749 -16263279.09848  20343990.9944   20343991.7594   20343997.8074
      -855.0274       -666.2554        245.0004        219.0004
  -3783220.78049  -2940348.76345  24327517.4624   24327516.5464   24327525.8334
      1709.1334       1331.7814        200.0004        135.0004
  -4529406.42449  -3516689.99845  24167177.4604   24167175.9304   24167180.7884
      2928.9474       2282.2954        213.0004        152.0004
  -4736598.86049  -3676444.93847  22236195.9684   22236196.2484   22236200.2314
     -1675.0114      -1305.2094        236.0004        192.0004
 -16298086.27149 -12690890.37647  21817426.8604   21817426.7724   21817431.0704
      2358.9804       1838.1684        237.0004        190.0004
  -1896789.77249  -1466138.18745  24638945.8934   24638946.5984   24638958.9384
      2985.1634       2326.0974        202.0004        142.0004
 -21592255.05449 -16800565.74147  21074163.8824   21074163.7284   21074167.9584
       -79.6104        -62.0374        236.0004        196.0004
 13  4 22  1 41 30.0000000  0  9G 5G12G24G14G22G15G18G25G21
    247607.12649    236300.68545  25110784.6964   25110783.8084   25110798.6484
     -2709.9514      -2111.6374        206.0004        147.0004
  -9992866.55449  -7769312.78846  23328455.8404   23328456.2944   23328463.9724
      2685.3484       2092.4764        219.0004        166.0004
 -20859273.35749 -16243088.50548  20348921.6624   20348922.4954   20348928.7654
      -872.3664       -679.7634        245.0004        219.0004
  -3834436.91149  -2980257.39545  24317771.9254   24317771.3544   24317777.8224
      1705.2534       1328.7694        204.0004        136.0004
  -4617301.50749  -3585179.56445  24150451.2784   24150450.6834   24150454.7774
      2930.6354       2283.6144        214.0004        153.0004
  -4686339.86049  -3637282.14547  22245759.0434   22245759.5794   22245765.0764
     -1675.5934      -1305.6564        233.0004        191.0004
 -16368800.98749 -12745992.74547  21803970.5324   21803969.6824   21803974.5664
      2355.3014       1835.3004        236.0004        189.0004
  -1986425.82949  -1535984.43745  24621888.7304   24621889.7484   24621902.8144
      2990.5354       2330.2864        204.0004        144.0004
 -21589585.70949 -16798485.77047  21074672.2464   21074671.6214   21074675.9374
       -98.3334        -76.6254        236.0004        196.0004
 13  4 22  1 42  0.0000000  0  9G 5G12G24G14G22G15G18G25G21
    328996.91349    299720.93845  25126273.5724   25126274.3474   25126286.9024
     -2715.9784      -2116.3324        211.0004        153.0004
 -10073384.86449  -7832054.27646  23313133.2964   23313134.4774   23313141.6414
      2682.4884       2090.2474        219.0004        166.0004
 -20832842.69349 -16222493.20548  20353950.8844   20353951.9644   20353958.2514
      -889.6694       -693.2464        245.0004        218.0004
  -3885535.59749  -3020074.52245  24308047.1714   24308047.1444   24308054.3454
      1701.3544       1325.7344        203.0004        135.0004
  -4705245.75449  -3653707.44545  24133714.6464   24133714.4824   24133719.5174
      2932.2784       2284.8904        210.0004        152.0004
  -4636063.23649  -3598105.62647  22255326.5014   22255327.3594   22255331.7344
     -1676.1834      -1306.1194        234.0004        189.0004
 -16439405.32949 -12801009.10347  21790535.4034   21790534.2774   21790538.8494
      2351.5804       1832.4004        237.0004        190.0004
  -2076223.34249  -1605956.47545  24604802.6384   24604801.1544   24604813.7864
      2995.8524       2334.4344        205.0004        142.0004
 -21586354.77149 -16795968.19847  21075287.2954   21075286.3434   21075290.3864
      -117.0864        -91.2294        237.0004        195.0004
 13  4 22  1 42 30.0000000  0  9G 5G12G24G14G22G15G18G25G21
    410565.30349    363280.31545  25141796.2824   25141795.9814   25141809.3394
     -2721.8814      -2120.9234        207.0004        146.0004
 -10153815.47749  -7894727.39946  23297827.9574   23297828.2614   23297835.9334
      2679.5624       2087.9654        218.0004        167.0004
 -20805894.08449 -16201494.31048  20359079.1884   20359080.1194   20359086.3234
      -906.8864       -706.6664        244.0004        218.0004
  -3936517.58449  -3059800.72045  24298346.9244   24298346.0214   24298352.3684
      1697.4524       1322.6814        203.0004        134.0004
  -4793237.96749  -3722272.71045  24116969.7494   24116969.9904   24116974.8144
      2933.8584       2286.1174        210.0004        153.0004
  -4585769.85049  -3558916.03346  22264896.6504   22264897.6384   22264902.0784
     -1676.7044      -1306.5294        233.0004        187.0004
 -16509896.81549 -12855937.51847  21777121.3944   21777120.3514   21777125.0094
      2347.7914       1829.4474        237.0004        189.0004
  -2166179.92649  -1676052.47145  24587682.5124   24587683.5654   24587695.1344
      3001.0984       2338.5174        208.0004        143.0004
 -21582562.56949 -16793013.27747  21076008.8144   21076007.9674   21076012.0984
      -135.7464       -105.7694        236.0004        195.0004
 13  4 22  1 43  0.0000000  0  9G 5G12G24G14G22G15G18G25G21
    492311.31849    426978.13445  25157350.6684   25157350.7124   25157364.3374
     -2727.8944      -2125.6254        208.0004        145.0004
 -10234155.03349  -7957329.60246  23282539.3694   23282540.1184   23282547.0014
      2676.4354       2085.5354        219.0004        166.0004
 -20778429.12349 -16180093.06048  20364305.3854   20364306.6134   20364313.0184
      -924.0614       -720.0484        244.0004        218.0004
  -3987383.66549  -3099436.55845  24288666.3984   24288669.4044   24288669.8284
      1693.5794       1319.6714        205.0004        136.0004
  -4881276.95149  -3790874.41345  24100217.0214   24100216.7774   24100221.3914
      2935.4314       2287.3424        213.0004        153.0004
  -4535459.75249  -3519713.42147  22274470.2074   22274471.3734   22274475.9754
     -1677.2724      -1306.9614        231.0004        188.0004
 -16580273.66949 -12910776.61247  21763728.8754   21763727.8764   21763732.3744
      2343.9574       1826.4554        237.0004        189.0004
  -2256293.08049  -1746270.47545  24570536.9434   24570535.7424   24570547.7774
      3006.3804       2342.6414        209.0004        144.0004
 -21578209.61249 -16789621.40847  21076836.8944   21076836.6774   21076840.5894
      -154.4244       -120.3364        236.0004        195.0004
 13  4 22  1 43 30.0000000  0  9G 5G12G24G14G22G15G18G25G21
    574234.63949    490814.14945  25172942.1864   25172941.6074   25172955.2044
     -2733.6904      -2130.1394        209.0004        148.0004
 -10314400.76449  -8019858.66746  23267269.4644   23267269.3424   23267277.4314
      2673.2314       2083.0404        219.0004        167.0004
 -20750449.58649 -16158290.84348  20369630.2414   20369631.1384   20369637.3834
      -941.2194       -733.4164        245.0004        219.0004
  -4038134.88449  -3138982.92645  24279009.2094   24279009.4644   24279015.5164
      1689.8134       1316.7324        205.0004        136.0004
  -4969361.23949  -3859511.39845  24083455.7524   24083454.0934   24083459.2294
      2936.8354       2288.4404        213.0004        153.0004
  -4485133.38049  -3480498.13947  22284047.1214   22284047.7644   22284053.6074
     -1677.8304      -1307.3874        231.0004        188.0004
 -16650533.97149 -12965524.89147  21750357.9884   21750357.6604   21750362.4084
      2340.0414       1823.4084        236.0004        189.0004
  -2346560.42849  -1816608.61345  24553357.3034   24553359.1564   24553369.2614
      3011.4264       2346.5704        205.0004        143.0004
 -21573296.29449 -16785792.88947  21077771.9374   21077771.6424   21077775.2224
      -173.1294       -134.9144        236.0004        195.0004
 13  4 22  1 44  0.0000000  0  9G 5G12G24G14G22G15G18G25G21
    656334.14549    554787.36045  25188565.3594   25188565.2324   25188577.5874
     -2739.5814      -2134.7174        209.0004        148.0004
 -10394549.02249  -8082311.79146  23252017.1264   23252017.9424   23252026.1124
      2669.9364       2080.4684        219.0004        166.0004
 -20721956.97949 -16136088.82648  20375051.9854   20375052.8494   20375059.4244
      -958.2724       -746.7054        244.0004        218.0004
  -4088771.77249  -3178440.20145  24269372.7764   24269372.3494   24269379.9724
      1685.9454       1313.7244        206.0004        138.0004
  -5057489.36449  -3928182.55345  24066684.2774   24066684.4304   24066688.6384
      2938.3184       2289.5954        212.0004        153.0004
  -4434791.12949  -3441270.46747  22293627.9354   22293628.2124   22293632.4704
     -1678.3364      -1307.7934        233.0004        188.0004
 -16720675.61549 -13020180.70747  21737010.8794   21737010.2664   21737014.7094
      2336.0494       1820.2944        237.0004        190.0004
  -2436979.57849  -1887065.05745  24536151.6374   24536150.7534   24536162.4494
      3016.3804       2350.4184        205.0004        141.0004
 -21567823.11549 -16781528.11847  21078813.7644   21078813.1254   21078817.0524
      -191.7744       -149.4254        236.0004        195.0004
 13  4 22  1 44 30.0000000  0  9G 5G12G24G14G22G15G18G25G21
    738609.21949    618897.42245  25204222.9384   25204222.1054   25204234.3214
     -2745.3464      -2139.2174        211.0004        148.0004
 -10474596.33249  -8144686.25946  23236785.7934   23236786.0764   23236791.8334
      2666.4964       2077.7934        221.0004        167.0004
 -20692953.22949 -16113488.52348  20380570.8664   20380571.9864   20380578.6574
      -975.2884       -759.9644        243.0004        218.0004
  -4139294.68749  -3217808.67945  24259758.2944   24259758.4604   24259765.8164
      1682.1474       1310.7674        204.0004        139.0004
  -5145660.01249  -3996886.83845  24049905.1854   24049905.5134   24049909.6774
      2939.7174       2290.6804        211.0004        154.0004
  -4384433.23549  -3402030.60947  22303211.1864   22303211.0944   22303215.4974
     -1678.8314      -1308.1824        233.0004        188.0004
 -16790696.46749 -13074742.39547  21723686.7644   21723685.9684   21723689.7474
      2332.0064       1817.1494        238.0004        191.0004
  -2527548.02249  -1957637.82045  24518916.4954   24518916.5634   24518928.7754
      3021.3054       2354.2544        204.0004        143.0004
 -21561790.75649 -16776827.61847  21079961.2404   21079960.9944   21079965.2234
      -210.3754       -163.9254        236.0004        195.0004
 13  4 22  1 45  0.0000000  0  9G 5G12G24G14G22G15G18G25G21
    821059.27049    683143.83145  25219911.2374   25219911.6364   25219925.5174
     -2751.2764      -2143.8374        208.0004        150.0004
 -10554539.95649  -8206979.92346  23221572.9514   23221573.2694   23221581.8174
      2663.0014       2075.0604        222.0004        168.0004
 -20663439.69249 -16090490.97748  20386187.3314   20386188.2594   20386194.8794
      -992.2184       -773.1584        243.0004        218.0004
  -4189704.56949  -3257089.06745  24250167.8694   24250166.6424   24250172.6634
      1678.4434       1307.8784        205.0004        138.0004
  -5233872.22649  -4065623.50745  24033121.3704   24033119.7984   24033123.4954
      2941.1354       2291.7874        214.0004        152.0004
  -4334060.53349  -3362779.22347  22312796.7854   22312797.1274   22312801.2154
     -1679.3654      -1308.5984        233.0004        188.0004
 -16860594.60549 -13129208.46747  21710385.2784   21710384.6104   21710388.8694
      2327.8724       1813.9294        238.0004        191.0004
  -2618263.41149  -2028325.09945  24501654.5314   24501654.1944   24501666.2294
      3026.2804       2358.1394        206.0004        143.0004
 -21555199.56349 -16771691.66847  21081215.1764   21081215.4944   21081219.5134
      -229.0134       -178.4554        235.0004        194.0004
 13  4 22  1 45 30.0000000  0  9G 5G12G24G14G22G15G18G25G21
    903683.55649    747526.01345  25235634.4074   25235634.1204   25235649.3554
     -2757.0034      -2148.3024        204.0004        148.0004
 -10634376.99849  -8269190.55246  23206381.7034   23206381.9284   23206387.7674
      2659.3984       2072.2734        224.0004        169.0004
 -20633418.38349 -16067097.76648  20391900.7004   20391901.2904   20391907.6454
     -1009.1624       -786.3604        246.0004        217.0004
  -4240002.06249  -3296281.87245  24240594.6234   24240592.9834   24240601.1754
      1674.7284       1304.9814        206.0004        137.0004
  -5322124.11449  -4134391.08345  24016325.9514   24016325.4184   24016328.9134
      2942.3414       2292.7354        213.0004        153.0004
  -4283672.93949  -3323516.22747  22322385.2284   22322385.2104   22322389.9184
     -1679.8174      -1308.9494        232.0004        188.0004
 -16930367.92849 -13183577.28347  21697106.9194   21697107.0464   21697111.4474
      2323.6704       1810.6514        237.0004        191.0004
  -2709123.19849  -2099124.87145  24484364.1814   24484364.6474   24484376.5294
      3031.0134       2361.8284        204.0004        143.0004
 -21548049.96249 -16766120.58547  21082575.4844   21082575.7654   21082580.1304
      -247.6354       -192.9534        235.0004        194.0004
 13  4 22  1 46  0.0000000  0  9G 5G12G24G14G22G15G18G25G21
    986481.22449    812043.28845  25251389.5344   25251388.7854   25251404.5024
     -2762.8494      -2152.8534        203.0004        143.0004
 -10714103.86949  -8331315.31746  23191209.5434   23191208.9324   23191216.4574
      2655.6484       2069.3274        222.0004        169.0004
 -20602890.44849 -16043309.77548  20397710.1624   20397710.5814   20397716.6914
     -1026.0594       -799.5264        246.0004        217.0004
  -4290188.02549  -3335387.78545  24231043.5784   24231044.6794   24231049.3224
      1670.9584       1302.0424        205.0004        139.0004
  -5410414.22149  -4203188.47245  23999525.9494   23999525.5334   23999527.5434
      2943.6204       2293.7304        213.0004        154.0004
  -4233271.00749  -3284242.05246  22331976.9084   22331976.4094   22331981.5654
     -1680.3014      -1309.3214        233.0004        187.0004
 -17000014.16249 -13237847.06947  21683854.0144   21683854.2304   21683858.3174
      2319.3784       1807.3074        238.0004        192.0004
  -2800124.90449  -2170035.24845  24467045.5704   24467045.8734   24467058.8424
      3035.6694       2365.4554        205.0004        142.0004
 -21540342.68949 -16760114.95647  21084042.4524   21084042.6014   21084046.6794
      -266.1974       -207.4214        236.0004        195.0004
 13  4 22  1 46 30.0000000  0  9G 5G12G24G14G22G15G18G25G21
   1069451.31249    876694.94045  25267178.6254   25267179.5864   25267194.0474
     -2768.5324      -2157.2874        206.0004        149.0004
 -10793717.09549  -8393351.55046  23176059.9844   23176059.3794   23176066.1754
      2651.8254       2066.3474        222.0004        169.0004
 -20571858.23149 -16019128.84048  20403615.3854   20403615.7724   20403622.1064
     -1042.8304       -812.5924        246.0004        217.0004
  -4340263.38449  -3374407.52445  24221515.2944   24221515.4384   24221521.7044
      1667.3354       1299.2104        203.0004        139.0004
  -5498741.36649  -4272014.71745  23982716.2914   23982716.3054   23982721.0914
      2944.8004       2294.6504        213.0004        153.0004
  -4182855.09649  -3244956.99346  22341569.6674   22341569.9244   22341575.2984
     -1680.7494      -1309.6804        233.0004        187.0004
 -17069531.26249 -13292016.23847  21670625.5144   21670625.3014   21670629.6634
      2315.0634       1803.9544        238.0004        192.0004
  -2891266.06649  -2241054.28045  24449704.0704   24449702.4234   24449714.0464
      3040.3124       2369.0704        205.0004        143.0004
 -21532078.89949 -16753675.69147  21085615.5004   21085615.1614   21085619.4084
      -284.7394       -221.8654        236.0004        195.0004
 13  4 22  1 47  0.0000000  0  9G 5G12G24G14G22G15G18G25G21
   1152592.70449    941480.09345  25283001.2074   25283001.6564   25283015.2354
     -2774.1594      -2161.6804        205.0004        143.0004
 -10873213.51449  -8455296.74146  23160932.2374   23160930.8204   23160937.7844
      2647.9264       2063.2974        221.0004        168.0004
 -20540323.17549 -15994556.08448  20409616.5974   20409616.7794   20409623.2114
     -1059.5354       -825.6074        247.0004        218.0004
  -4390228.96849  -3413341.70545  24212005.7764   24212006.3334   24212014.3254
      1663.6834       1296.3784        204.0004        139.0004
  -5587104.27549  -4340868.82345  23965902.0604   23965901.6454   23965905.4524
      2946.0814       2295.6474        213.0004        154.0004
  -4132425.44949  -3205661.22346  22351166.2384   22351166.2784   22351171.1304
     -1681.1874      -1309.9984        231.0004        186.0004
 -17138917.42249 -13346083.37647  21657421.6264   21657421.6964   21657425.8184
      2310.6784       1800.5174        238.0004        193.0004
  -2982544.20049  -2312180.02845  24432332.8044   24432333.2064   24432345.9784
      3044.8364       2372.6014        205.0004        143.0004
 -21523258.99649 -16746803.08647  21087294.3464   21087293.5534   21087297.5424
      -303.2524       -236.2994        237.0004        194.0004
 13  4 22  1 47 30.0000000  0  9G 5G12G24G14G22G15G18G25G21
   1235905.40149   1006398.69945  25298854.3364   25298854.9254   25298867.5154
     -2779.8794      -2166.1264        206.0004        143.0004
 -10952590.12849  -8517148.58246  23145826.7544   23145826.8614   23145833.0154
      2643.8474       2060.1484        222.0004        168.0004
 -20508287.21049 -15969593.01248  20415712.4124   20415712.8494   20415719.6204
     -1076.1874       -838.5874        246.0004        217.0004
  -4440085.42649  -3452190.86745  24202519.1974   24202520.2664   24202527.4284
      1660.0914       1293.5754        203.0004        139.0004
  -5675501.45949  -4409749.66345  23949081.0714   23949079.6904   23949084.6974
      2947.0874       2296.4354        214.0004        154.0004
  -4081982.27949  -3166354.92646  22360764.3574   22360765.6244   22360769.9604
     -1681.6464      -1310.3714        230.0004        185.0004
 -17208170.48349 -13400046.80047  21644243.8224   21644243.6004   21644247.2664
      2306.1884       1797.0304        239.0004        192.0004
  -3073956.80349  -2383410.59045  24414938.4834   24414936.7414   24414949.9824
      3049.3024       2376.0754        204.0004        142.0004
 -21513883.45749 -16739497.51847  21089078.4084   21089077.8654   21089081.8934
      -321.7674       -250.7314        237.0004        194.0004
 13  4 22  1 48  0.0000000  0  9G 5G12G24G14G22G15G18G25G21
   1319388.26049   1071449.91545  25314740.8304   25314740.9654   25314756.6034
     -2785.5694      -2170.5624        202.0004        144.0004
 -11031843.61549  -8578904.48746  23130745.1644   23130745.8694   23130751.6274
      2639.6714       2056.8764        221.0004        169.0004
 -20475752.28149 -15944241.14048  20421904.2494   20421904.1614   20421910.6064
     -1092.7694       -851.5124        247.0004        217.0004
  -4489833.21249  -3490955.33945  24193052.7794   24193053.8234   24193060.0364
      1656.4114       1290.7104        205.0004        140.0004
  -5763931.40549  -4478656.02345  23932250.9384   23932251.6144   23932256.6624
      2948.1084       2297.2244        213.0004        154.0004
  -4031525.84549  -3127038.29046  22370366.4134   22370367.2784   22370371.6364
     -1682.0804      -1310.7174        230.0004        185.0004
 -17277288.28249 -13453904.82547  21631090.8974   21631090.8214   21631094.2174
      2301.6634       1793.4944        239.0004        193.0004
  -3165501.33249  -2454743.91745  24397518.6534   24397517.8924   24397528.9334
      3053.6664       2379.4824        200.0004        143.0004
 -21503953.46749 -16731759.90747  21090967.9124   21090967.3094   21090971.5174
      -340.2114       -265.1024        237.0004        194.0004
